% (lat/lon/height=WGS84/ellipsoidal,Q=1:fix,2:float,3:sbas,4:dgps,5:single,6:ppp,ns=# of satellites)
%  GPST          latitude(deg) longitude(deg)  height(m)   Q  ns   sdn(m)   sde(m)   sdu(m)  sdne(m)  sdeu(m)  sdun(m) age(s)  ratio    vn(m/s)    ve(m/s)    vu(m/s)      sdvn     sdve     sdvu    sdvne    sdveu    sdvun
2184 556701.000  -25.732021126   28.282634484  1386.8081   5  10   3.0341   2.5666   9.7701   0.5563  -2.4184   3.0131   0.00    0.0    0.00000    0.00000    0.00000   0.00000  0.00000  0.00000  0.00000  0.00000  0.00000
2184 556702.000  -25.732022904   28.282631661  1387.8091   5  10   3.0341   2.5666   9.7688   0.5571  -2.4178   3.0128   0.00    0.0    0.00000    0.00000    0.00000   0.00000  0.00000  0.00000  0.00000  0.00000  0.00000
2184 556703.000  -25.732022942   28.282631242  1387.7883   5  10   3.0341   2.5666   9.7675   0.5579  -2.4172   3.0125   0.00    0.0    0.00000    0.00000    0.00000   0.00000  0.00000  0.00000  0.00000  0.00000  0.00000
2184 556704.000  -25.732020836   28.282635712  1387.9917   5  10   3.0342   2.5666   9.7662   0.5586  -2.4165   3.0122   0.00    0.0    0.00000    0.00000    0.00000   0.00000  0.00000  0.00000  0.00000  0.00000  0.00000
2184 556705.000  -25.732021221   28.282632386  1388.3067   5  10   3.0342   2.5666   9.7649   0.5594  -2.4159   3.0119   0.00    0.0    0.00000    0.00000    0.00000   0.00000  0.00000  0.00000  0.00000  0.00000  0.00000
2184 556706.000  -25.732023709   28.282631649  1387.4686   5  10   3.0342   2.5666   9.7635   0.5602  -2.4152   3.0116   0.00    0.0    0.00000    0.00000    0.00000   0.00000  0.00000  0.00000  0.00000  0.00000  0.00000
2184 556707.000  -25.732021854   28.282633081  1388.5210   5  10   3.0343   2.5667   9.7622   0.5609  -2.4146   3.0113   0.00    0.0    0.00000    0.00000    0.00000   0.00000  0.00000  0.00000  0.00000  0.00000  0.00000
2184 556708.000  -25.732022771   28.282633977  1388.1795   5  10   3.0343   2.5667   9.7609   0.5617  -2.4140   3.0110   0.00    0.0    0.00000    0.00000    0.00000   0.00000  0.00000  0.00000  0.00000  0.00000  0.00000
2184 556709.000  -25.732020929   28.282632582  1388.0434   5  10   3.0343   2.5667   9.7596   0.5625  -2.4133   3.0107   0.00    0.0    0.00000    0.00000    0.00000   0.00000  0.00000  0.00000  0.00000  0.00000  0.00000
2184 556710.000  -25.732022243   28.282633644  1388.2417   5  10   3.0343   2.5667   9.7583   0.5632  -2.4127   3.0104   0.00    0.0    0.00000    0.00000    0.00000   0.00000  0.00000  0.00000  0.00000  0.00000  0.00000
2184 556711.000  -25.732022097   28.282634603  1387.8571   5  10   3.0344   2.5667   9.7569   0.5640  -2.4120   3.0101   0.00    0.0    0.00000    0.00000    0.00000   0.00000  0.00000  0.00000  0.00000  0.00000  0.00000
2184 556712.000  -25.732022407   28.282633628  1388.5428   5  10   3.0344   2.5667   9.7556   0.5647  -2.4114   3.0097   0.00    0.0    0.00000    0.00000    0.00000   0.00000  0.00000  0.00000  0.00000  0.00000  0.00000
2184 556713.000  -25.732023335   28.282631917  1388.2539   5  10   3.0344   2.5667   9.7543   0.5655  -2.4107   3.0094   0.00    0.0    0.00000    0.00000    0.00000   0.00000  0.00000  0.00000  0.00000  0.00000  0.00000
2184 556714.000  -25.732020866   28.282634645  1388.3004   5  10   3.0345   2.5668   9.7530   0.5662  -2.4101   3.0091   0.00    0.0    0.00000    0.00000    0.00000   0.00000  0.00000  0.00000  0.00000  0.00000  0.00000
2184 556715.000  -25.732022157   28.282634805  1388.1251   5  10   3.0345   2.5668   9.7516   0.5670  -2.4095   3.0088   0.00    0.0    0.00000    0.00000    0.00000   0.00000  0.00000  0.00000  0.00000  0.00000  0.00000
2184 556716.000  -25.732026376   28.282631940  1387.1557   5  10   3.0345   2.5668   9.7503   0.5678  -2.4088   3.0085   0.00    0.0    0.00000    0.00000    0.00000   0.00000  0.00000  0.00000  0.00000  0.00000  0.00000
2184 556717.000  -25.732024591   28.282630951  1387.4405   5  10   3.0346   2.5668   9.7490   0.5685  -2.4082   3.0082   0.00    0.0    0.00000    0.00000    0.00000   0.00000  0.00000  0.00000  0.00000  0.00000  0.00000
2184 556718.000  -25.732021282   28.282632099  1388.8582   5  10   3.0346   2.5668   9.7477   0.5693  -2.4075   3.0079   0.00    0.0    0.00000    0.00000    0.00000   0.00000  0.00000  0.00000  0.00000  0.00000  0.00000
2184 556719.000  -25.732024535   28.282631932  1387.6520   5  10   3.0346   2.5668   9.7463   0.5700  -2.4069   3.0076   0.00    0.0    0.00000    0.00000    0.00000   0.00000  0.00000  0.00000  0.00000  0.00000  0.00000
2184 556720.000  -25.732024604   28.282631420  1386.4410   5  10   3.0346   2.5668   9.7450   0.5708  -2.4062   3.0073   0.00    0.0    0.00000    0.00000    0.00000   0.00000  0.00000  0.00000  0.00000  0.00000  0.00000
2184 556721.000  -25.732022564   28.282632755  1388.3996   5  10   3.0347   2.5669   9.7437   0.5715  -2.4056   3.0070   0.00    0.0    0.00000    0.00000    0.00000   0.00000  0.00000  0.00000  0.00000  0.00000  0.00000
2184 556722.000  -25.732023206   28.282632656  1388.8521   5  10   3.0347   2.5669   9.7423   0.5723  -2.4050   3.0066   0.00    0.0    0.00000    0.00000    0.00000   0.00000  0.00000  0.00000  0.00000  0.00000  0.00000
2184 556723.000  -25.732022489   28.282632983  1388.3442   5  10   3.0347   2.5669   9.7410   0.5730  -2.4043   3.0063   0.00    0.0    0.00000    0.00000    0.00000   0.00000  0.00000  0.00000  0.00000  0.00000  0.00000
2184 556724.000  -25.732024493   28.282632454  1386.8924   5  10   3.0348   2.5669   9.7397   0.5738  -2.4037   3.0060   0.00    0.0    0.00000    0.00000    0.00000   0.00000  0.00000  0.00000  0.00000  0.00000  0.00000
2184 556725.000  -25.732023903   28.282633444  1387.5090   5  10   3.0348   2.5669   9.7384   0.5745  -2.4030   3.0057   0.00    0.0    0.00000    0.00000    0.00000   0.00000  0.00000  0.00000  0.00000  0.00000  0.00000
2184 556726.000  -25.732025185   28.282633864  1388.0745   5  10   3.0348   2.5669   9.7370   0.5753  -2.4024   3.0054   0.00    0.0    0.00000    0.00000    0.00000   0.00000  0.00000  0.00000  0.00000  0.00000  0.00000
2184 556727.000  -25.732022952   28.282631737  1388.1287   5  10   3.0349   2.5669   9.7357   0.5760  -2.4017   3.0051   0.00    0.0    0.00000    0.00000    0.00000   0.00000  0.00000  0.00000  0.00000  0.00000  0.00000
2184 556728.000  -25.732024754   28.282631385  1387.8024   5  10   3.0349   2.5670   9.7344   0.5768  -2.4011   3.0048   0.00    0.0    0.00000    0.00000    0.00000   0.00000  0.00000  0.00000  0.00000  0.00000  0.00000
2184 556729.000  -25.732025011   28.282629972  1387.5935   5  10   3.0349   2.5670   9.7330   0.5775  -2.4004   3.0045   0.00    0.0    0.00000    0.00000    0.00000   0.00000  0.00000  0.00000  0.00000  0.00000  0.00000
2184 556730.000  -25.732026507   28.282630953  1388.1631   5  10   3.0349   2.5670   9.7317   0.5782  -2.3998   3.0042   0.00    0.0    0.00000    0.00000    0.00000   0.00000  0.00000  0.00000  0.00000  0.00000  0.00000
2184 556731.000  -25.732025359   28.282634193  1387.4276   5  10   3.0350   2.5670   9.7304   0.5790  -2.3991   3.0038   0.00    0.0    0.00000    0.00000    0.00000   0.00000  0.00000  0.00000  0.00000  0.00000  0.00000
2184 556732.000  -25.732023685   28.282633007  1387.8761   5  10   3.0350   2.5670   9.7290   0.5797  -2.3985   3.0035   0.00    0.0    0.00000    0.00000    0.00000   0.00000  0.00000  0.00000  0.00000  0.00000  0.00000
2184 556733.000  -25.732027313   28.282629964  1387.1432   5  10   3.0350   2.5670   9.7277   0.5805  -2.3978   3.0032   0.00    0.0    0.00000    0.00000    0.00000   0.00000  0.00000  0.00000  0.00000  0.00000  0.00000
2184 556734.000  -25.732025335   28.282630847  1387.2561   5  10   3.0351   2.5670   9.7263   0.5812  -2.3972   3.0029   0.00    0.0    0.00000    0.00000    0.00000   0.00000  0.00000  0.00000  0.00000  0.00000  0.00000
2184 556735.000  -25.732025842   28.282629648  1387.9219   5  10   3.0351   2.5671   9.7250   0.5819  -2.3965   3.0026   0.00    0.0    0.00000    0.00000    0.00000   0.00000  0.00000  0.00000  0.00000  0.00000  0.00000
2184 556736.000  -25.732027897   28.282632609  1386.5706   5  10   3.0351   2.5671   9.7237   0.5827  -2.3959   3.0023   0.00    0.0    0.00000    0.00000    0.00000   0.00000  0.00000  0.00000  0.00000  0.00000  0.00000
2184 556737.000  -25.732020487   28.282633327  1388.2958   5  10   3.0352   2.5671   9.7223   0.5834  -2.3952   3.0020   0.00    0.0    0.00000    0.00000    0.00000   0.00000  0.00000  0.00000  0.00000  0.00000  0.00000
2184 556738.000  -25.732025375   28.282634020  1387.4705   5  10   3.0352   2.5671   9.7210   0.5842  -2.3946   3.0016   0.00    0.0    0.00000    0.00000    0.00000   0.00000  0.00000  0.00000  0.00000  0.00000  0.00000
2184 556739.000  -25.732023430   28.282632128  1387.9672   5  10   3.0352   2.5671   9.7196   0.5849  -2.3939   3.0013   0.00    0.0    0.00000    0.00000    0.00000   0.00000  0.00000  0.00000  0.00000  0.00000  0.00000
2184 556740.000  -25.732023378   28.282632377  1388.2167   5  10   3.0352   2.5671   9.7183   0.5856  -2.3933   3.0010   0.00    0.0    0.00000    0.00000    0.00000   0.00000  0.00000  0.00000  0.00000  0.00000  0.00000
2184 556741.000  -25.732025935   28.282632394  1387.4983   5  10   3.0353   2.5671   9.7170   0.5864  -2.3926   3.0007   0.00    0.0    0.00000    0.00000    0.00000   0.00000  0.00000  0.00000  0.00000  0.00000  0.00000
2184 556742.000  -25.732026854   28.282631437  1386.3293   5  10   3.0353   2.5672   9.7156   0.5871  -2.3920   3.0004   0.00    0.0    0.00000    0.00000    0.00000   0.00000  0.00000  0.00000  0.00000  0.00000  0.00000
2184 556743.000  -25.732023537   28.282631879  1387.2224   5  10   3.0353   2.5672   9.7143   0.5878  -2.3913   3.0001   0.00    0.0    0.00000    0.00000    0.00000   0.00000  0.00000  0.00000  0.00000  0.00000  0.00000
2184 556744.000  -25.732023147   28.282631529  1387.9436   5  10   3.0354   2.5672   9.7129   0.5886  -2.3907   2.9998   0.00    0.0    0.00000    0.00000    0.00000   0.00000  0.00000  0.00000  0.00000  0.00000  0.00000
2184 556745.000  -25.732024786   28.282633395  1387.5723   5  10   3.0354   2.5672   9.7116   0.5893  -2.3900   2.9994   0.00    0.0    0.00000    0.00000    0.00000   0.00000  0.00000  0.00000  0.00000  0.00000  0.00000
2184 556746.000  -25.732023918   28.282631337  1387.4724   5  10   3.0354   2.5672   9.7102   0.5900  -2.3894   2.9991   0.00    0.0    0.00000    0.00000    0.00000   0.00000  0.00000  0.00000  0.00000  0.00000  0.00000
2184 556747.000  -25.732025299   28.282629973  1386.9406   5  10   3.0355   2.5672   9.7089   0.5908  -2.3887   2.9988   0.00    0.0    0.00000    0.00000    0.00000   0.00000  0.00000  0.00000  0.00000  0.00000  0.00000
2184 556748.000  -25.732023722   28.282629382  1387.5562   5  10   3.0355   2.5673   9.7075   0.5915  -2.3881   2.9985   0.00    0.0    0.00000    0.00000    0.00000   0.00000  0.00000  0.00000  0.00000  0.00000  0.00000
2184 556749.000  -25.732025745   28.282631538  1386.8706   5  10   3.0355   2.5673   9.7062   0.5922  -2.3874   2.9982   0.00    0.0    0.00000    0.00000    0.00000   0.00000  0.00000  0.00000  0.00000  0.00000  0.00000
2184 556750.000  -25.732025985   28.282633803  1388.5900   5  10   3.0356   2.5673   9.7048   0.5929  -2.3868   2.9979   0.00    0.0    0.00000    0.00000    0.00000   0.00000  0.00000  0.00000  0.00000  0.00000  0.00000
2184 556751.000  -25.732024584   28.282634782  1387.4573   5  10   3.0356   2.5673   9.7035   0.5937  -2.3861   2.9975   0.00    0.0    0.00000    0.00000    0.00000   0.00000  0.00000  0.00000  0.00000  0.00000  0.00000
2184 556752.000  -25.732024710   28.282637012  1387.5752   5  10   3.0356   2.5673   9.7021   0.5944  -2.3855   2.9972   0.00    0.0    0.00000    0.00000    0.00000   0.00000  0.00000  0.00000  0.00000  0.00000  0.00000
2184 556753.000  -25.732026784   28.282630223  1386.9857   5  10   3.0357   2.5673   9.7008   0.5951  -2.3848   2.9969   0.00    0.0    0.00000    0.00000    0.00000   0.00000  0.00000  0.00000  0.00000  0.00000  0.00000
2184 556754.000  -25.732025844   28.282631932  1387.7479   5  10   3.0357   2.5674   9.6994   0.5959  -2.3841   2.9966   0.00    0.0    0.00000    0.00000    0.00000   0.00000  0.00000  0.00000  0.00000  0.00000  0.00000
2184 556755.000  -25.732028115   28.282633161  1386.9955   5  10   3.0357   2.5674   9.6981   0.5966  -2.3835   2.9963   0.00    0.0    0.00000    0.00000    0.00000   0.00000  0.00000  0.00000  0.00000  0.00000  0.00000
2184 556756.000  -25.732024603   28.282633197  1387.8705   5  10   3.0358   2.5674   9.6967   0.5973  -2.3828   2.9960   0.00    0.0    0.00000    0.00000    0.00000   0.00000  0.00000  0.00000  0.00000  0.00000  0.00000
2184 556757.000  -25.732024926   28.282631593  1387.7613   5  10   3.0358   2.5674   9.6954   0.5980  -2.3822   2.9956   0.00    0.0    0.00000    0.00000    0.00000   0.00000  0.00000  0.00000  0.00000  0.00000  0.00000
2184 556758.000  -25.732028929   28.282632118  1386.9106   5  10   3.0358   2.5674   9.6940   0.5987  -2.3815   2.9953   0.00    0.0    0.00000    0.00000    0.00000   0.00000  0.00000  0.00000  0.00000  0.00000  0.00000
2184 556759.000  -25.732026891   28.282633151  1387.6705   5  10   3.0358   2.5674   9.6927   0.5995  -2.3809   2.9950   0.00    0.0    0.00000    0.00000    0.00000   0.00000  0.00000  0.00000  0.00000  0.00000  0.00000
2184 556760.000  -25.732024854   28.282633556  1387.6534   5  10   3.0359   2.5675   9.6913   0.6002  -2.3802   2.9947   0.00    0.0    0.00000    0.00000    0.00000   0.00000  0.00000  0.00000  0.00000  0.00000  0.00000
2184 556761.000  -25.732027504   28.282632098  1387.3489   5  10   3.0359   2.5675   9.6900   0.6009  -2.3795   2.9944   0.00    0.0    0.00000    0.00000    0.00000   0.00000  0.00000  0.00000  0.00000  0.00000  0.00000
2184 556762.000  -25.732023399   28.282630953  1387.9593   5  10   3.0359   2.5675   9.6886   0.6016  -2.3789   2.9940   0.00    0.0    0.00000    0.00000    0.00000   0.00000  0.00000  0.00000  0.00000  0.00000  0.00000
2184 556763.000  -25.732024601   28.282629540  1388.5074   5  10   3.0360   2.5675   9.6873   0.6024  -2.3782   2.9937   0.00    0.0    0.00000    0.00000    0.00000   0.00000  0.00000  0.00000  0.00000  0.00000  0.00000
2184 556764.000  -25.732024415   28.282632259  1387.9378   5  10   3.0360   2.5675   9.6859   0.6031  -2.3776   2.9934   0.00    0.0    0.00000    0.00000    0.00000   0.00000  0.00000  0.00000  0.00000  0.00000  0.00000
2184 556765.000  -25.732026019   28.282632663  1387.8719   5  10   3.0360   2.5675   9.6845   0.6038  -2.3769   2.9931   0.00    0.0    0.00000    0.00000    0.00000   0.00000  0.00000  0.00000  0.00000  0.00000  0.00000
2184 556766.000  -25.732022949   28.282632034  1388.2254   5  10   3.0361   2.5675   9.6832   0.6045  -2.3763   2.9928   0.00    0.0    0.00000    0.00000    0.00000   0.00000  0.00000  0.00000  0.00000  0.00000  0.00000
2184 556767.000  -25.732026027   28.282633020  1387.5471   5  10   3.0361   2.5676   9.6818   0.6052  -2.3756   2.9925   0.00    0.0    0.00000    0.00000    0.00000   0.00000  0.00000  0.00000  0.00000  0.00000  0.00000
2184 556768.000  -25.732027414   28.282632065  1387.0916   5  10   3.0361   2.5676   9.6805   0.6059  -2.3749   2.9921   0.00    0.0    0.00000    0.00000    0.00000   0.00000  0.00000  0.00000  0.00000  0.00000  0.00000
2184 556769.000  -25.732023923   28.282631820  1388.5395   5  10   3.0362   2.5676   9.6791   0.6067  -2.3743   2.9918   0.00    0.0    0.00000    0.00000    0.00000   0.00000  0.00000  0.00000  0.00000  0.00000  0.00000
2184 556770.000  -25.732026121   28.282632271  1387.6673   5  10   3.0362   2.5676   9.6777   0.6074  -2.3736   2.9915   0.00    0.0    0.00000    0.00000    0.00000   0.00000  0.00000  0.00000  0.00000  0.00000  0.00000
2184 556771.000  -25.732024273   28.282633187  1388.0997   5  10   3.0362   2.5676   9.6764   0.6081  -2.3730   2.9912   0.00    0.0    0.00000    0.00000    0.00000   0.00000  0.00000  0.00000  0.00000  0.00000  0.00000
2184 556772.000  -25.732025245   28.282634360  1386.8459   5  10   3.0363   2.5676   9.6750   0.6088  -2.3723   2.9909   0.00    0.0    0.00000    0.00000    0.00000   0.00000  0.00000  0.00000  0.00000  0.00000  0.00000
2184 556773.000  -25.732023782   28.282632094  1388.1061   5  10   3.0363   2.5677   9.6737   0.6095  -2.3716   2.9905   0.00    0.0    0.00000    0.00000    0.00000   0.00000  0.00000  0.00000  0.00000  0.00000  0.00000
2184 556774.000  -25.732025873   28.282632725  1388.1397   5  10   3.0363   2.5677   9.6723   0.6102  -2.3710   2.9902   0.00    0.0    0.00000    0.00000    0.00000   0.00000  0.00000  0.00000  0.00000  0.00000  0.00000
2184 556775.000  -25.732026137   28.282633182  1387.5833   5  10   3.0364   2.5677   9.6709   0.6109  -2.3703   2.9899   0.00    0.0    0.00000    0.00000    0.00000   0.00000  0.00000  0.00000  0.00000  0.00000  0.00000
2184 556776.000  -25.732027374   28.282633386  1387.5646   5  10   3.0364   2.5677   9.6696   0.6116  -2.3696   2.9896   0.00    0.0    0.00000    0.00000    0.00000   0.00000  0.00000  0.00000  0.00000  0.00000  0.00000
2184 556777.000  -25.732025375   28.282630579  1387.3446   5  10   3.0364   2.5677   9.6682   0.6123  -2.3690   2.9892   0.00    0.0    0.00000    0.00000    0.00000   0.00000  0.00000  0.00000  0.00000  0.00000  0.00000
2184 556778.000  -25.732024692   28.282634156  1387.7706   5  10   3.0365   2.5678   9.6668   0.6131  -2.3683   2.9889   0.00    0.0    0.00000    0.00000    0.00000   0.00000  0.00000  0.00000  0.00000  0.00000  0.00000
2184 556779.000  -25.732024604   28.282633479  1387.6277   5  10   3.0365   2.5678   9.6655   0.6138  -2.3676   2.9886   0.00    0.0    0.00000    0.00000    0.00000   0.00000  0.00000  0.00000  0.00000  0.00000  0.00000
2184 556780.000  -25.732025995   28.282632508  1387.6862   5  10   3.0365   2.5678   9.6641   0.6145  -2.3670   2.9883   0.00    0.0    0.00000    0.00000    0.00000   0.00000  0.00000  0.00000  0.00000  0.00000  0.00000
2184 556781.000  -25.732024625   28.282633708  1387.9917   5  10   3.0366   2.5678   9.6627   0.6152  -2.3663   2.9880   0.00    0.0    0.00000    0.00000    0.00000   0.00000  0.00000  0.00000  0.00000  0.00000  0.00000
2184 556782.000  -25.732025313   28.282632545  1387.4011   5  10   3.0366   2.5678   9.6614   0.6159  -2.3657   2.9876   0.00    0.0    0.00000    0.00000    0.00000   0.00000  0.00000  0.00000  0.00000  0.00000  0.00000
2184 556783.000  -25.732024977   28.282632305  1387.2581   5  10   3.0366   2.5678   9.6600   0.6166  -2.3650   2.9873   0.00    0.0    0.00000    0.00000    0.00000   0.00000  0.00000  0.00000  0.00000  0.00000  0.00000
2184 556784.000  -25.732025790   28.282633435  1387.2850   5  10   3.0367   2.5679   9.6586   0.6173  -2.3643   2.9870   0.00    0.0    0.00000    0.00000    0.00000   0.00000  0.00000  0.00000  0.00000  0.00000  0.00000
2184 556785.000  -25.732024752   28.282633796  1387.9172   5  10   3.0367   2.5679   9.6573   0.6180  -2.3637   2.9867   0.00    0.0    0.00000    0.00000    0.00000   0.00000  0.00000  0.00000  0.00000  0.00000  0.00000
2184 556786.000  -25.732022243   28.282634699  1387.9476   5  10   3.0367   2.5679   9.6559   0.6187  -2.3630   2.9863   0.00    0.0    0.00000    0.00000    0.00000   0.00000  0.00000  0.00000  0.00000  0.00000  0.00000
2184 556787.000  -25.732023348   28.282633398  1388.3920   5  10   3.0368   2.5679   9.6545   0.6194  -2.3623   2.9860   0.00    0.0    0.00000    0.00000    0.00000   0.00000  0.00000  0.00000  0.00000  0.00000  0.00000
2184 556788.000  -25.732024098   28.282634702  1387.3297   5  10   3.0368   2.5679   9.6532   0.6201  -2.3617   2.9857   0.00    0.0    0.00000    0.00000    0.00000   0.00000  0.00000  0.00000  0.00000  0.00000  0.00000
2184 556789.000  -25.732027873   28.282633439  1386.5996   5  10   3.0368   2.5679   9.6518   0.6208  -2.3610   2.9854   0.00    0.0    0.00000    0.00000    0.00000   0.00000  0.00000  0.00000  0.00000  0.00000  0.00000
2184 556790.000  -25.732024979   28.282634529  1388.3560   5  10   3.0369   2.5680   9.6504   0.6215  -2.3603   2.9851   0.00    0.0    0.00000    0.00000    0.00000   0.00000  0.00000  0.00000  0.00000  0.00000  0.00000
2184 556791.000  -25.732023511   28.282632565  1388.8328   5  10   3.0369   2.5680   9.6490   0.6222  -2.3597   2.9847   0.00    0.0    0.00000    0.00000    0.00000   0.00000  0.00000  0.00000  0.00000  0.00000  0.00000
2184 556792.000  -25.732024069   28.282633105  1387.3727   5  10   3.0369   2.5680   9.6477   0.6229  -2.3590   2.9844   0.00    0.0    0.00000    0.00000    0.00000   0.00000  0.00000  0.00000  0.00000  0.00000  0.00000
2184 556793.000  -25.732024799   28.282632455  1387.8833   5  10   3.0370   2.5680   9.6463   0.6236  -2.3583   2.9841   0.00    0.0    0.00000    0.00000    0.00000   0.00000  0.00000  0.00000  0.00000  0.00000  0.00000
2184 556794.000  -25.732023420   28.282635331  1387.8414   5  10   3.0370   2.5680   9.6449   0.6243  -2.3577   2.9838   0.00    0.0    0.00000    0.00000    0.00000   0.00000  0.00000  0.00000  0.00000  0.00000  0.00000
2184 556795.000  -25.732022819   28.282632107  1388.7048   5  10   3.0370   2.5681   9.6435   0.6250  -2.3570   2.9834   0.00    0.0    0.00000    0.00000    0.00000   0.00000  0.00000  0.00000  0.00000  0.00000  0.00000
2184 556796.000  -25.732024426   28.282634650  1388.3156   5  10   3.0371   2.5681   9.6422   0.6257  -2.3563   2.9831   0.00    0.0    0.00000    0.00000    0.00000   0.00000  0.00000  0.00000  0.00000  0.00000  0.00000
2184 556797.000  -25.732024275   28.282635378  1387.5513   5  10   3.0371   2.5681   9.6408   0.6264  -2.3556   2.9828   0.00    0.0    0.00000    0.00000    0.00000   0.00000  0.00000  0.00000  0.00000  0.00000  0.00000
2184 556798.000  -25.732023879   28.282633074  1388.0413   5  10   3.0371   2.5681   9.6394   0.6271  -2.3550   2.9825   0.00    0.0    0.00000    0.00000    0.00000   0.00000  0.00000  0.00000  0.00000  0.00000  0.00000
2184 556799.000  -25.732024698   28.282632955  1387.6638   5  10   3.0372   2.5681   9.6380   0.6278  -2.3543   2.9821   0.00    0.0    0.00000    0.00000    0.00000   0.00000  0.00000  0.00000  0.00000  0.00000  0.00000
2184 556800.000  -25.732025268   28.282632178  1387.4984   5  10   3.0372   2.5681   9.6366   0.6285  -2.3536   2.9818   0.00    0.0    0.00000    0.00000    0.00000   0.00000  0.00000  0.00000  0.00000  0.00000  0.00000
2184 556801.000  -25.732024853   28.282633136  1388.2904   5  10   3.0372   2.5682   9.6353   0.6292  -2.3530   2.9815   0.00    0.0    0.00000    0.00000    0.00000   0.00000  0.00000  0.00000  0.00000  0.00000  0.00000
2184 556802.000  -25.732025117   28.282634416  1387.9200   5  10   3.0373   2.5682   9.6339   0.6299  -2.3523   2.9812   0.00    0.0    0.00000    0.00000    0.00000   0.00000  0.00000  0.00000  0.00000  0.00000  0.00000
2184 556803.000  -25.732021768   28.282633701  1388.0753   5  10   3.0373   2.5682   9.6325   0.6306  -2.3516   2.9808   0.00    0.0    0.00000    0.00000    0.00000   0.00000  0.00000  0.00000  0.00000  0.00000  0.00000
2184 556804.000  -25.732022623   28.282632986  1386.9074   5  10   3.0373   2.5682   9.6311   0.6313  -2.3509   2.9805   0.00    0.0    0.00000    0.00000    0.00000   0.00000  0.00000  0.00000  0.00000  0.00000  0.00000
2184 556805.000  -25.732023613   28.282633180  1388.4849   5  10   3.0374   2.5682   9.6297   0.6320  -2.3503   2.9802   0.00    0.0    0.00000    0.00000    0.00000   0.00000  0.00000  0.00000  0.00000  0.00000  0.00000
2184 556806.000  -25.732022408   28.282632383  1389.1607   5  10   3.0374   2.5683   9.6284   0.6326  -2.3496   2.9799   0.00    0.0    0.00000    0.00000    0.00000   0.00000  0.00000  0.00000  0.00000  0.00000  0.00000
2184 556807.000  -25.732023523   28.282634653  1389.0253   5  10   3.0374   2.5683   9.6270   0.6333  -2.3489   2.9795   0.00    0.0    0.00000    0.00000    0.00000   0.00000  0.00000  0.00000  0.00000  0.00000  0.00000
2184 556808.000  -25.732024160   28.282635035  1387.6684   5  10   3.0375   2.5683   9.6256   0.6340  -2.3483   2.9792   0.00    0.0    0.00000    0.00000    0.00000   0.00000  0.00000  0.00000  0.00000  0.00000  0.00000
2184 556809.000  -25.732026126   28.282632692  1387.3083   5  10   3.0375   2.5683   9.6242   0.6347  -2.3476   2.9789   0.00    0.0    0.00000    0.00000    0.00000   0.00000  0.00000  0.00000  0.00000  0.00000  0.00000
2184 556810.000  -25.732023810   28.282632821  1388.0280   5  10   3.0375   2.5683   9.6228   0.6354  -2.3469   2.9785   0.00    0.0    0.00000    0.00000    0.00000   0.00000  0.00000  0.00000  0.00000  0.00000  0.00000
2184 556811.000  -25.732022039   28.282634636  1387.5816   5  10   3.0376   2.5684   9.6214   0.6361  -2.3462   2.9782   0.00    0.0    0.00000    0.00000    0.00000   0.00000  0.00000  0.00000  0.00000  0.00000  0.00000
2184 556812.000  -25.732026145   28.282635089  1387.4506   5  10   3.0376   2.5684   9.6201   0.6368  -2.3456   2.9779   0.00    0.0    0.00000    0.00000    0.00000   0.00000  0.00000  0.00000  0.00000  0.00000  0.00000
2184 556813.000  -25.732026840   28.282635882  1387.2539   5  10   3.0376   2.5684   9.6187   0.6375  -2.3449   2.9776   0.00    0.0    0.00000    0.00000    0.00000   0.00000  0.00000  0.00000  0.00000  0.00000  0.00000
2184 556814.000  -25.732024644   28.282637323  1387.4449   5  10   3.0377   2.5684   9.6173   0.6382  -2.3442   2.9772   0.00    0.0    0.00000    0.00000    0.00000   0.00000  0.00000  0.00000  0.00000  0.00000  0.00000
2184 556815.000  -25.732025289   28.282635613  1387.6802   5  10   3.0377   2.5684   9.6159   0.6388  -2.3435   2.9769   0.00    0.0    0.00000    0.00000    0.00000   0.00000  0.00000  0.00000  0.00000  0.00000  0.00000
2184 556816.000  -25.732022834   28.282634106  1387.9373   5  10   3.0378   2.5685   9.6145   0.6395  -2.3429   2.9766   0.00    0.0    0.00000    0.00000    0.00000   0.00000  0.00000  0.00000  0.00000  0.00000  0.00000
2184 556817.000  -25.732024224   28.282633243  1387.8895   5  10   3.0378   2.5685   9.6131   0.6402  -2.3422   2.9763   0.00    0.0    0.00000    0.00000    0.00000   0.00000  0.00000  0.00000  0.00000  0.00000  0.00000
2184 556818.000  -25.732022089   28.282634995  1388.5049   5  10   3.0378   2.5685   9.6117   0.6409  -2.3415   2.9759   0.00    0.0    0.00000    0.00000    0.00000   0.00000  0.00000  0.00000  0.00000  0.00000  0.00000
2184 556819.000  -25.732025244   28.282634805  1388.0178   5  10   3.0379   2.5685   9.6104   0.6416  -2.3408   2.9756   0.00    0.0    0.00000    0.00000    0.00000   0.00000  0.00000  0.00000  0.00000  0.00000  0.00000
2184 556820.000  -25.732023228   28.282635531  1388.4848   5  10   3.0379   2.5685   9.6090   0.6423  -2.3402   2.9753   0.00    0.0    0.00000    0.00000    0.00000   0.00000  0.00000  0.00000  0.00000  0.00000  0.00000
2184 556821.000  -25.732022317   28.282634074  1388.0934   5  10   3.0379   2.5685   9.6076   0.6429  -2.3395   2.9749   0.00    0.0    0.00000    0.00000    0.00000   0.00000  0.00000  0.00000  0.00000  0.00000  0.00000
2184 556822.000  -25.732026428   28.282633466  1387.1249   5  10   3.0380   2.5686   9.6062   0.6436  -2.3388   2.9746   0.00    0.0    0.00000    0.00000    0.00000   0.00000  0.00000  0.00000  0.00000  0.00000  0.00000
2184 556823.000  -25.732022860   28.282633164  1389.1964   5  10   3.0380   2.5686   9.6048   0.6443  -2.3381   2.9743   0.00    0.0    0.00000    0.00000    0.00000   0.00000  0.00000  0.00000  0.00000  0.00000  0.00000
2184 556824.000  -25.732024140   28.282636608  1388.0720   5  10   3.0380   2.5686   9.6034   0.6450  -2.3374   2.9740   0.00    0.0    0.00000    0.00000    0.00000   0.00000  0.00000  0.00000  0.00000  0.00000  0.00000
2184 556825.000  -25.732022748   28.282634509  1387.3062   5  10   3.0381   2.5686   9.6020   0.6457  -2.3368   2.9736   0.00    0.0    0.00000    0.00000    0.00000   0.00000  0.00000  0.00000  0.00000  0.00000  0.00000
2184 556826.000  -25.732022530   28.282637768  1387.2427   5  10   3.0381   2.5686   9.6006   0.6463  -2.3361   2.9733   0.00    0.0    0.00000    0.00000    0.00000   0.00000  0.00000  0.00000  0.00000  0.00000  0.00000
2184 556827.000  -25.732025037   28.282638774  1387.1639   5  10   3.0381   2.5687   9.5992   0.6470  -2.3354   2.9730   0.00    0.0    0.00000    0.00000    0.00000   0.00000  0.00000  0.00000  0.00000  0.00000  0.00000
2184 556828.000  -25.732022171   28.282635641  1388.5244   5  10   3.0382   2.5687   9.5978   0.6477  -2.3347   2.9726   0.00    0.0    0.00000    0.00000    0.00000   0.00000  0.00000  0.00000  0.00000  0.00000  0.00000
2184 556829.000  -25.732023322   28.282636525  1388.5248   5  10   3.0382   2.5687   9.5964   0.6484  -2.3340   2.9723   0.00    0.0    0.00000    0.00000    0.00000   0.00000  0.00000  0.00000  0.00000  0.00000  0.00000
2184 556830.000  -25.732020968   28.282635776  1388.6088   5  10   3.0382   2.5687   9.5950   0.6491  -2.3334   2.9720   0.00    0.0    0.00000    0.00000    0.00000   0.00000  0.00000  0.00000  0.00000  0.00000  0.00000
2184 556831.000  -25.732022495   28.282633155  1388.4925   5  10   3.0383   2.5688   9.5937   0.6497  -2.3327   2.9716   0.00    0.0    0.00000    0.00000    0.00000   0.00000  0.00000  0.00000  0.00000  0.00000  0.00000
2184 556832.000  -25.732024584   28.282633769  1387.7671   5  10   3.0383   2.5688   9.5923   0.6504  -2.3320   2.9713   0.00    0.0    0.00000    0.00000    0.00000   0.00000  0.00000  0.00000  0.00000  0.00000  0.00000
2184 556833.000  -25.732022748   28.282633931  1387.8734   5  10   3.0384   2.5688   9.5909   0.6511  -2.3313   2.9710   0.00    0.0    0.00000    0.00000    0.00000   0.00000  0.00000  0.00000  0.00000  0.00000  0.00000
2184 556834.000  -25.732022707   28.282634128  1388.0965   5  10   3.0384   2.5688   9.5895   0.6518  -2.3306   2.9707   0.00    0.0    0.00000    0.00000    0.00000   0.00000  0.00000  0.00000  0.00000  0.00000  0.00000
2184 556835.000  -25.732022400   28.282633293  1389.0352   5  10   3.0384   2.5688   9.5881   0.6524  -2.3300   2.9703   0.00    0.0    0.00000    0.00000    0.00000   0.00000  0.00000  0.00000  0.00000  0.00000  0.00000
2184 556836.000  -25.732023582   28.282635859  1387.4975   5  10   3.0385   2.5689   9.5867   0.6531  -2.3293   2.9700   0.00    0.0    0.00000    0.00000    0.00000   0.00000  0.00000  0.00000  0.00000  0.00000  0.00000
2184 556837.000  -25.732024603   28.282633855  1388.4912   5  10   3.0385   2.5689   9.5853   0.6538  -2.3286   2.9697   0.00    0.0    0.00000    0.00000    0.00000   0.00000  0.00000  0.00000  0.00000  0.00000  0.00000
2184 556838.000  -25.732022770   28.282635887  1388.4062   5  10   3.0385   2.5689   9.5839   0.6544  -2.3279   2.9693   0.00    0.0    0.00000    0.00000    0.00000   0.00000  0.00000  0.00000  0.00000  0.00000  0.00000
2184 556839.000  -25.732025647   28.282636236  1387.9828   5  10   3.0386   2.5689   9.5825   0.6551  -2.3272   2.9690   0.00    0.0    0.00000    0.00000    0.00000   0.00000  0.00000  0.00000  0.00000  0.00000  0.00000
2184 556840.000  -25.732024670   28.282635987  1388.2703   5  10   3.0386   2.5689   9.5811   0.6558  -2.3265   2.9687   0.00    0.0    0.00000    0.00000    0.00000   0.00000  0.00000  0.00000  0.00000  0.00000  0.00000
2184 556841.000  -25.732024086   28.282634760  1388.4127   5  10   3.0386   2.5690   9.5797   0.6565  -2.3259   2.9683   0.00    0.0    0.00000    0.00000    0.00000   0.00000  0.00000  0.00000  0.00000  0.00000  0.00000
2184 556842.000  -25.732027125   28.282635241  1387.6129   5  10   3.0387   2.5690   9.5783   0.6571  -2.3252   2.9680   0.00    0.0    0.00000    0.00000    0.00000   0.00000  0.00000  0.00000  0.00000  0.00000  0.00000
2184 556843.000  -25.732024866   28.282633952  1388.2584   5  10   3.0387   2.5690   9.5769   0.6578  -2.3245   2.9677   0.00    0.0    0.00000    0.00000    0.00000   0.00000  0.00000  0.00000  0.00000  0.00000  0.00000
2184 556844.000  -25.732024409   28.282634350  1388.2644   5  10   3.0388   2.5690   9.5755   0.6585  -2.3238   2.9673   0.00    0.0    0.00000    0.00000    0.00000   0.00000  0.00000  0.00000  0.00000  0.00000  0.00000
2184 556845.000  -25.732021291   28.282634769  1388.9127   5  10   3.0388   2.5690   9.5741   0.6591  -2.3231   2.9670   0.00    0.0    0.00000    0.00000    0.00000   0.00000  0.00000  0.00000  0.00000  0.00000  0.00000
2184 556846.000  -25.732022237   28.282637102  1388.8150   5  10   3.0388   2.5691   9.5727   0.6598  -2.3224   2.9667   0.00    0.0    0.00000    0.00000    0.00000   0.00000  0.00000  0.00000  0.00000  0.00000  0.00000
2184 556847.000  -25.732023424   28.282636187  1388.1690   5  10   3.0389   2.5691   9.5713   0.6605  -2.3218   2.9663   0.00    0.0    0.00000    0.00000    0.00000   0.00000  0.00000  0.00000  0.00000  0.00000  0.00000
2184 556848.000  -25.732023815   28.282634087  1388.5631   5  10   3.0389   2.5691   9.5699   0.6611  -2.3211   2.9660   0.00    0.0    0.00000    0.00000    0.00000   0.00000  0.00000  0.00000  0.00000  0.00000  0.00000
2184 556849.000  -25.732024571   28.282635293  1387.8409   5  10   3.0389   2.5691   9.5685   0.6618  -2.3204   2.9657   0.00    0.0    0.00000    0.00000    0.00000   0.00000  0.00000  0.00000  0.00000  0.00000  0.00000
2184 556850.000  -25.732024986   28.282635847  1388.1640   5  10   3.0390   2.5691   9.5671   0.6625  -2.3197   2.9653   0.00    0.0    0.00000    0.00000    0.00000   0.00000  0.00000  0.00000  0.00000  0.00000  0.00000
2184 556851.000  -25.732021043   28.282635393  1389.2916   5  10   3.0390   2.5692   9.5656   0.6631  -2.3190   2.9650   0.00    0.0    0.00000    0.00000    0.00000   0.00000  0.00000  0.00000  0.00000  0.00000  0.00000
2184 556852.000  -25.732021376   28.282634509  1389.1890   5  10   3.0390   2.5692   9.5642   0.6638  -2.3183   2.9647   0.00    0.0    0.00000    0.00000    0.00000   0.00000  0.00000  0.00000  0.00000  0.00000  0.00000
2184 556853.000  -25.732022517   28.282634358  1389.1399   5  10   3.0391   2.5692   9.5628   0.6645  -2.3176   2.9643   0.00    0.0    0.00000    0.00000    0.00000   0.00000  0.00000  0.00000  0.00000  0.00000  0.00000
2184 556854.000  -25.732023405   28.282634232  1389.3620   5  10   3.0391   2.5692   9.5614   0.6651  -2.3170   2.9640   0.00    0.0    0.00000    0.00000    0.00000   0.00000  0.00000  0.00000  0.00000  0.00000  0.00000
2184 556855.000  -25.732021204   28.282633788  1389.0110   5  10   3.0392   2.5693   9.5600   0.6658  -2.3163   2.9637   0.00    0.0    0.00000    0.00000    0.00000   0.00000  0.00000  0.00000  0.00000  0.00000  0.00000
2184 556856.000  -25.732020319   28.282635933  1389.1339   5  10   3.0392   2.5693   9.5586   0.6665  -2.3156   2.9633   0.00    0.0    0.00000    0.00000    0.00000   0.00000  0.00000  0.00000  0.00000  0.00000  0.00000
2184 556857.000  -25.732021903   28.282633853  1388.8691   5  10   3.0392   2.5693   9.5572   0.6671  -2.3149   2.9630   0.00    0.0    0.00000    0.00000    0.00000   0.00000  0.00000  0.00000  0.00000  0.00000  0.00000
2184 556858.000  -25.732025381   28.282636134  1387.8036   5  10   3.0393   2.5693   9.5558   0.6678  -2.3142   2.9627   0.00    0.0    0.00000    0.00000    0.00000   0.00000  0.00000  0.00000  0.00000  0.00000  0.00000
2184 556859.000  -25.732022610   28.282637174  1387.7929   5  10   3.0393   2.5693   9.5544   0.6684  -2.3135   2.9623   0.00    0.0    0.00000    0.00000    0.00000   0.00000  0.00000  0.00000  0.00000  0.00000  0.00000
2184 556860.000  -25.732022559   28.282637972  1389.3907   5  10   3.0393   2.5694   9.5530   0.6691  -2.3128   2.9620   0.00    0.0    0.00000    0.00000    0.00000   0.00000  0.00000  0.00000  0.00000  0.00000  0.00000
2184 556861.000  -25.732021980   28.282634054  1388.6809   5  10   3.0394   2.5694   9.5516   0.6698  -2.3121   2.9617   0.00    0.0    0.00000    0.00000    0.00000   0.00000  0.00000  0.00000  0.00000  0.00000  0.00000
2184 556862.000  -25.732019967   28.282635583  1389.8661   5  10   3.0394   2.5694   9.5502   0.6704  -2.3114   2.9613   0.00    0.0    0.00000    0.00000    0.00000   0.00000  0.00000  0.00000  0.00000  0.00000  0.00000
2184 556863.000  -25.732020948   28.282635719  1388.8883   5  10   3.0395   2.5694   9.5488   0.6711  -2.3108   2.9610   0.00    0.0    0.00000    0.00000    0.00000   0.00000  0.00000  0.00000  0.00000  0.00000  0.00000
2184 556864.000  -25.732022172   28.282634778  1389.6407   5  10   3.0395   2.5695   9.5473   0.6717  -2.3101   2.9607   0.00    0.0    0.00000    0.00000    0.00000   0.00000  0.00000  0.00000  0.00000  0.00000  0.00000
2184 556865.000  -25.732022078   28.282633155  1388.8927   5  10   3.0395   2.5695   9.5459   0.6724  -2.3094   2.9603   0.00    0.0    0.00000    0.00000    0.00000   0.00000  0.00000  0.00000  0.00000  0.00000  0.00000
2184 556866.000  -25.732018700   28.282635046  1388.9217   5  10   3.0396   2.5695   9.5445   0.6731  -2.3087   2.9600   0.00    0.0    0.00000    0.00000    0.00000   0.00000  0.00000  0.00000  0.00000  0.00000  0.00000
2184 556867.000  -25.732022373   28.282634677  1388.7996   5  10   3.0396   2.5695   9.5431   0.6737  -2.3080   2.9596   0.00    0.0    0.00000    0.00000    0.00000   0.00000  0.00000  0.00000  0.00000  0.00000  0.00000
2184 556868.000  -25.732023378   28.282634563  1389.4259   5  10   3.0396   2.5695   9.5417   0.6744  -2.3073   2.9593   0.00    0.0    0.00000    0.00000    0.00000   0.00000  0.00000  0.00000  0.00000  0.00000  0.00000
2184 556869.000  -25.732023065   28.282634451  1389.3549   5  10   3.0397   2.5696   9.5403   0.6750  -2.3066   2.9590   0.00    0.0    0.00000    0.00000    0.00000   0.00000  0.00000  0.00000  0.00000  0.00000  0.00000
2184 556870.000  -25.732021912   28.282635500  1388.6825   5  10   3.0397   2.5696   9.5389   0.6757  -2.3059   2.9586   0.00    0.0    0.00000    0.00000    0.00000   0.00000  0.00000  0.00000  0.00000  0.00000  0.00000
2184 556871.000  -25.732021308   28.282634622  1388.7980   5  10   3.0398   2.5696   9.5375   0.6763  -2.3052   2.9583   0.00    0.0    0.00000    0.00000    0.00000   0.00000  0.00000  0.00000  0.00000  0.00000  0.00000
2184 556872.000  -25.732022277   28.282638085  1388.4300   5  10   3.0398   2.5696   9.5360   0.6770  -2.3045   2.9580   0.00    0.0    0.00000    0.00000    0.00000   0.00000  0.00000  0.00000  0.00000  0.00000  0.00000
2184 556873.000  -25.732023951   28.282636050  1388.1882   5  10   3.0398   2.5697   9.5346   0.6777  -2.3038   2.9576   0.00    0.0    0.00000    0.00000    0.00000   0.00000  0.00000  0.00000  0.00000  0.00000  0.00000
2184 556874.000  -25.732024634   28.282635033  1387.9777   5  10   3.0399   2.5697   9.5332   0.6783  -2.3031   2.9573   0.00    0.0    0.00000    0.00000    0.00000   0.00000  0.00000  0.00000  0.00000  0.00000  0.00000
2184 556875.000  -25.732023570   28.282635629  1387.8540   5  10   3.0399   2.5697   9.5318   0.6790  -2.3024   2.9570   0.00    0.0    0.00000    0.00000    0.00000   0.00000  0.00000  0.00000  0.00000  0.00000  0.00000
2184 556876.000  -25.732019975   28.282632462  1389.1887   5  10   3.0399   2.5697   9.5304   0.6796  -2.3018   2.9566   0.00    0.0    0.00000    0.00000    0.00000   0.00000  0.00000  0.00000  0.00000  0.00000  0.00000
2184 556877.000  -25.732025003   28.282632759  1387.7304   5  10   3.0400   2.5697   9.5290   0.6803  -2.3011   2.9563   0.00    0.0    0.00000    0.00000    0.00000   0.00000  0.00000  0.00000  0.00000  0.00000  0.00000
2184 556878.000  -25.732024381   28.282635323  1389.3406   5  10   3.0400   2.5698   9.5275   0.6809  -2.3004   2.9559   0.00    0.0    0.00000    0.00000    0.00000   0.00000  0.00000  0.00000  0.00000  0.00000  0.00000
2184 556879.000  -25.732020023   28.282637380  1389.0719   5  10   3.0401   2.5698   9.5261   0.6816  -2.2997   2.9556   0.00    0.0    0.00000    0.00000    0.00000   0.00000  0.00000  0.00000  0.00000  0.00000  0.00000
2184 556880.000  -25.732022108   28.282634319  1388.8433   5  10   3.0401   2.5698   9.5247   0.6822  -2.2990   2.9553   0.00    0.0    0.00000    0.00000    0.00000   0.00000  0.00000  0.00000  0.00000  0.00000  0.00000
2184 556881.000  -25.732021673   28.282634901  1388.7151   5  10   3.0401   2.5698   9.5233   0.6829  -2.2983   2.9549   0.00    0.0    0.00000    0.00000    0.00000   0.00000  0.00000  0.00000  0.00000  0.00000  0.00000
2184 556882.000  -25.732022266   28.282633237  1389.2060   5  10   3.0402   2.5699   9.5219   0.6835  -2.2976   2.9546   0.00    0.0    0.00000    0.00000    0.00000   0.00000  0.00000  0.00000  0.00000  0.00000  0.00000
2184 556883.000  -25.732018820   28.282636098  1389.2922   5  10   3.0402   2.5699   9.5204   0.6842  -2.2969   2.9542   0.00    0.0    0.00000    0.00000    0.00000   0.00000  0.00000  0.00000  0.00000  0.00000  0.00000
2184 556884.000  -25.732019571   28.282635577  1388.8959   5  10   3.0402   2.5699   9.5190   0.6848  -2.2962   2.9539   0.00    0.0    0.00000    0.00000    0.00000   0.00000  0.00000  0.00000  0.00000  0.00000  0.00000
2184 556885.000  -25.732021207   28.282636129  1389.0776   5  10   3.0403   2.5699   9.5176   0.6855  -2.2955   2.9536   0.00    0.0    0.00000    0.00000    0.00000   0.00000  0.00000  0.00000  0.00000  0.00000  0.00000
2184 556886.000  -25.732022250   28.282636218  1389.2653   5  10   3.0403   2.5700   9.5162   0.6861  -2.2948   2.9532   0.00    0.0    0.00000    0.00000    0.00000   0.00000  0.00000  0.00000  0.00000  0.00000  0.00000
2184 556887.000  -25.732022018   28.282636175  1388.1998   5  10   3.0404   2.5700   9.5148   0.6868  -2.2941   2.9529   0.00    0.0    0.00000    0.00000    0.00000   0.00000  0.00000  0.00000  0.00000  0.00000  0.00000
2184 556888.000  -25.732019419   28.282635480  1390.1640   5  10   3.0404   2.5700   9.5133   0.6874  -2.2934   2.9526   0.00    0.0    0.00000    0.00000    0.00000   0.00000  0.00000  0.00000  0.00000  0.00000  0.00000
2184 556889.000  -25.732021986   28.282634342  1389.5360   5  10   3.0404   2.5700   9.5119   0.6881  -2.2927   2.9522   0.00    0.0    0.00000    0.00000    0.00000   0.00000  0.00000  0.00000  0.00000  0.00000  0.00000
2184 556890.000  -25.732022338   28.282634603  1389.0432   5  10   3.0405   2.5701   9.5105   0.6887  -2.2920   2.9519   0.00    0.0    0.00000    0.00000    0.00000   0.00000  0.00000  0.00000  0.00000  0.00000  0.00000
2184 556891.000  -25.732020792   28.282635231  1389.8354   5  10   3.0405   2.5701   9.5091   0.6893  -2.2913   2.9515   0.00    0.0    0.00000    0.00000    0.00000   0.00000  0.00000  0.00000  0.00000  0.00000  0.00000
2184 556892.000  -25.732020420   28.282635461  1389.5524   5  10   3.0406   2.5701   9.5077   0.6900  -2.2906   2.9512   0.00    0.0    0.00000    0.00000    0.00000   0.00000  0.00000  0.00000  0.00000  0.00000  0.00000
2184 556893.000  -25.732023178   28.282637659  1388.3023   5  10   3.0406   2.5701   9.5062   0.6906  -2.2899   2.9509   0.00    0.0    0.00000    0.00000    0.00000   0.00000  0.00000  0.00000  0.00000  0.00000  0.00000
2184 556894.000  -25.732020220   28.282636455  1389.1291   5  10   3.0406   2.5702   9.5048   0.6913  -2.2892   2.9505   0.00    0.0    0.00000    0.00000    0.00000   0.00000  0.00000  0.00000  0.00000  0.00000  0.00000
2184 556895.000  -25.732022283   28.282635930  1389.3303   5  10   3.0407   2.5702   9.5034   0.6919  -2.2885   2.9502   0.00    0.0    0.00000    0.00000    0.00000   0.00000  0.00000  0.00000  0.00000  0.00000  0.00000
2184 556896.000  -25.732019578   28.282635983  1388.7089   5  10   3.0407   2.5702   9.5020   0.6926  -2.2878   2.9498   0.00    0.0    0.00000    0.00000    0.00000   0.00000  0.00000  0.00000  0.00000  0.00000  0.00000
2184 556897.000  -25.732021314   28.282635297  1389.1806   5  10   3.0407   2.5702   9.5005   0.6932  -2.2871   2.9495   0.00    0.0    0.00000    0.00000    0.00000   0.00000  0.00000  0.00000  0.00000  0.00000  0.00000
2184 556898.000  -25.732024618   28.282634824  1388.4604   5  10   3.0408   2.5702   9.4991   0.6939  -2.2864   2.9492   0.00    0.0    0.00000    0.00000    0.00000   0.00000  0.00000  0.00000  0.00000  0.00000  0.00000
2184 556899.000  -25.732022181   28.282634877  1388.3744   5  10   3.0408   2.5703   9.4977   0.6945  -2.2857   2.9488   0.00    0.0    0.00000    0.00000    0.00000   0.00000  0.00000  0.00000  0.00000  0.00000  0.00000
2184 556900.000  -25.732020307   28.282637732  1388.5779   5  10   3.0409   2.5703   9.4963   0.6951  -2.2850   2.9485   0.00    0.0    0.00000    0.00000    0.00000   0.00000  0.00000  0.00000  0.00000  0.00000  0.00000
2184 556901.000  -25.732022019   28.282637496  1387.6918   5  10   3.0409   2.5703   9.4948   0.6958  -2.2843   2.9481   0.00    0.0    0.00000    0.00000    0.00000   0.00000  0.00000  0.00000  0.00000  0.00000  0.00000
2184 556902.000  -25.732022957   28.282635879  1389.3009   5  10   3.0409   2.5703   9.4934   0.6964  -2.2836   2.9478   0.00    0.0    0.00000    0.00000    0.00000   0.00000  0.00000  0.00000  0.00000  0.00000  0.00000
2184 556903.000  -25.732021779   28.282636849  1388.7864   5  10   3.0410   2.5704   9.4920   0.6971  -2.2829   2.9475   0.00    0.0    0.00000    0.00000    0.00000   0.00000  0.00000  0.00000  0.00000  0.00000  0.00000
2184 556904.000  -25.732025132   28.282636481  1388.4196   5  10   3.0410   2.5704   9.4905   0.6977  -2.2822   2.9471   0.00    0.0    0.00000    0.00000    0.00000   0.00000  0.00000  0.00000  0.00000  0.00000  0.00000
2184 556905.000  -25.732021875   28.282635503  1388.7391   5  10   3.0411   2.5704   9.4891   0.6983  -2.2815   2.9468   0.00    0.0    0.00000    0.00000    0.00000   0.00000  0.00000  0.00000  0.00000  0.00000  0.00000
2184 556906.000  -25.732022861   28.282636693  1387.9997   5  10   3.0411   2.5704   9.4877   0.6990  -2.2808   2.9464   0.00    0.0    0.00000    0.00000    0.00000   0.00000  0.00000  0.00000  0.00000  0.00000  0.00000
2184 556907.000  -25.732022820   28.282637606  1388.0498   5  10   3.0411   2.5705   9.4863   0.6996  -2.2801   2.9461   0.00    0.0    0.00000    0.00000    0.00000   0.00000  0.00000  0.00000  0.00000  0.00000  0.00000
2184 556908.000  -25.732019870   28.282637586  1387.7453   5  10   3.0412   2.5705   9.4848   0.7002  -2.2794   2.9457   0.00    0.0    0.00000    0.00000    0.00000   0.00000  0.00000  0.00000  0.00000  0.00000  0.00000
2184 556909.000  -25.732020662   28.282634333  1389.7369   5  10   3.0412   2.5705   9.4834   0.7009  -2.2787   2.9454   0.00    0.0    0.00000    0.00000    0.00000   0.00000  0.00000  0.00000  0.00000  0.00000  0.00000
2184 556910.000  -25.732020490   28.282636499  1389.7301   5  10   3.0413   2.5705   9.4820   0.7015  -2.2780   2.9451   0.00    0.0    0.00000    0.00000    0.00000   0.00000  0.00000  0.00000  0.00000  0.00000  0.00000
2184 556911.000  -25.732020519   28.282636177  1388.9605   5  10   3.0413   2.5706   9.4805   0.7022  -2.2773   2.9447   0.00    0.0    0.00000    0.00000    0.00000   0.00000  0.00000  0.00000  0.00000  0.00000  0.00000
2184 556912.000  -25.732021920   28.282633924  1388.7811   5  10   3.0413   2.5706   9.4791   0.7028  -2.2766   2.9444   0.00    0.0    0.00000    0.00000    0.00000   0.00000  0.00000  0.00000  0.00000  0.00000  0.00000
2184 556913.000  -25.732019352   28.282635616  1388.6180   5  10   3.0414   2.5706   9.4777   0.7034  -2.2759   2.9440   0.00    0.0    0.00000    0.00000    0.00000   0.00000  0.00000  0.00000  0.00000  0.00000  0.00000
2184 556914.000  -25.732022816   28.282637015  1388.7076   5  10   3.0414   2.5706   9.4762   0.7041  -2.2752   2.9437   0.00    0.0    0.00000    0.00000    0.00000   0.00000  0.00000  0.00000  0.00000  0.00000  0.00000
2184 556915.000  -25.732023759   28.282632886  1387.6156   5  10   3.0415   2.5707   9.4748   0.7047  -2.2745   2.9434   0.00    0.0    0.00000    0.00000    0.00000   0.00000  0.00000  0.00000  0.00000  0.00000  0.00000
2184 556916.000  -25.732022205   28.282634300  1388.5679   5  10   3.0415   2.5707   9.4734   0.7053  -2.2737   2.9430   0.00    0.0    0.00000    0.00000    0.00000   0.00000  0.00000  0.00000  0.00000  0.00000  0.00000
2184 556917.000  -25.732025543   28.282636115  1387.8473   5  10   3.0415   2.5707   9.4719   0.7060  -2.2730   2.9427   0.00    0.0    0.00000    0.00000    0.00000   0.00000  0.00000  0.00000  0.00000  0.00000  0.00000
2184 556918.000  -25.732022198   28.282637699  1388.6251   5  10   3.0416   2.5707   9.4705   0.7066  -2.2723   2.9423   0.00    0.0    0.00000    0.00000    0.00000   0.00000  0.00000  0.00000  0.00000  0.00000  0.00000
2184 556919.000  -25.732019295   28.282636756  1389.2861   5  10   3.0416   2.5708   9.4691   0.7072  -2.2716   2.9420   0.00    0.0    0.00000    0.00000    0.00000   0.00000  0.00000  0.00000  0.00000  0.00000  0.00000
2184 556920.000  -25.732019046   28.282636035  1389.5374   5  10   3.0417   2.5708   9.4676   0.7079  -2.2709   2.9416   0.00    0.0    0.00000    0.00000    0.00000   0.00000  0.00000  0.00000  0.00000  0.00000  0.00000
2184 556921.000  -25.732022249   28.282637179  1387.7415   5  10   3.0417   2.5708   9.4662   0.7085  -2.2702   2.9413   0.00    0.0    0.00000    0.00000    0.00000   0.00000  0.00000  0.00000  0.00000  0.00000  0.00000
2184 556922.000  -25.732023702   28.282633667  1389.7798   5  10   3.0417   2.5709   9.4648   0.7091  -2.2695   2.9409   0.00    0.0    0.00000    0.00000    0.00000   0.00000  0.00000  0.00000  0.00000  0.00000  0.00000
2184 556923.000  -25.732022093   28.282635000  1389.4637   5  10   3.0418   2.5709   9.4633   0.7098  -2.2688   2.9406   0.00    0.0    0.00000    0.00000    0.00000   0.00000  0.00000  0.00000  0.00000  0.00000  0.00000
2184 556924.000  -25.732020615   28.282633764  1389.1809   5  10   3.0418   2.5709   9.4619   0.7104  -2.2681   2.9403   0.00    0.0    0.00000    0.00000    0.00000   0.00000  0.00000  0.00000  0.00000  0.00000  0.00000
2184 556925.000  -25.732022984   28.282636736  1388.6765   5  10   3.0419   2.5709   9.4605   0.7110  -2.2674   2.9399   0.00    0.0    0.00000    0.00000    0.00000   0.00000  0.00000  0.00000  0.00000  0.00000  0.00000
2184 556926.000  -25.732024633   28.282635244  1389.0188   5  10   3.0419   2.5710   9.4590   0.7116  -2.2667   2.9396   0.00    0.0    0.00000    0.00000    0.00000   0.00000  0.00000  0.00000  0.00000  0.00000  0.00000
2184 556927.000  -25.732020741   28.282635699  1389.4819   5  10   3.0419   2.5710   9.4576   0.7123  -2.2660   2.9392   0.00    0.0    0.00000    0.00000    0.00000   0.00000  0.00000  0.00000  0.00000  0.00000  0.00000
2184 556928.000  -25.732022176   28.282634154  1388.4359   5  10   3.0420   2.5710   9.4562   0.7129  -2.2653   2.9389   0.00    0.0    0.00000    0.00000    0.00000   0.00000  0.00000  0.00000  0.00000  0.00000  0.00000
2184 556929.000  -25.732017920   28.282634260  1389.8246   5  10   3.0420   2.5710   9.4547   0.7135  -2.2645   2.9385   0.00    0.0    0.00000    0.00000    0.00000   0.00000  0.00000  0.00000  0.00000  0.00000  0.00000
2184 556930.000  -25.732017819   28.282636416  1388.7014   5  10   3.0421   2.5711   9.4533   0.7142  -2.2638   2.9382   0.00    0.0    0.00000    0.00000    0.00000   0.00000  0.00000  0.00000  0.00000  0.00000  0.00000
2184 556931.000  -25.732021043   28.282636832  1389.7549   5  10   3.0421   2.5711   9.4518   0.7148  -2.2631   2.9378   0.00    0.0    0.00000    0.00000    0.00000   0.00000  0.00000  0.00000  0.00000  0.00000  0.00000
2184 556932.000  -25.732021628   28.282636958  1388.5685   5  10   3.0422   2.5711   9.4504   0.7154  -2.2624   2.9375   0.00    0.0    0.00000    0.00000    0.00000   0.00000  0.00000  0.00000  0.00000  0.00000  0.00000
2184 556933.000  -25.732020881   28.282635310  1389.1503   5  10   3.0422   2.5711   9.4490   0.7160  -2.2617   2.9372   0.00    0.0    0.00000    0.00000    0.00000   0.00000  0.00000  0.00000  0.00000  0.00000  0.00000
2184 556934.000  -25.732023205   28.282636960  1388.5160   5  10   3.0422   2.5712   9.4475   0.7167  -2.2610   2.9368   0.00    0.0    0.00000    0.00000    0.00000   0.00000  0.00000  0.00000  0.00000  0.00000  0.00000
2184 556935.000  -25.732021430   28.282637702  1387.8671   5  10   3.0423   2.5712   9.4461   0.7173  -2.2603   2.9365   0.00    0.0    0.00000    0.00000    0.00000   0.00000  0.00000  0.00000  0.00000  0.00000  0.00000
2184 556936.000  -25.732020880   28.282634736  1389.2169   5  10   3.0423   2.5712   9.4446   0.7179  -2.2596   2.9361   0.00    0.0    0.00000    0.00000    0.00000   0.00000  0.00000  0.00000  0.00000  0.00000  0.00000
2184 556937.000  -25.732019386   28.282636005  1388.5800   5  10   3.0424   2.5712   9.4432   0.7185  -2.2589   2.9358   0.00    0.0    0.00000    0.00000    0.00000   0.00000  0.00000  0.00000  0.00000  0.00000  0.00000
2184 556938.000  -25.732020619   28.282634353  1389.5117   5  10   3.0424   2.5713   9.4418   0.7192  -2.2581   2.9354   0.00    0.0    0.00000    0.00000    0.00000   0.00000  0.00000  0.00000  0.00000  0.00000  0.00000
2184 556939.000  -25.732020122   28.282638066  1387.7777   5  10   3.0424   2.5713   9.4403   0.7198  -2.2574   2.9351   0.00    0.0    0.00000    0.00000    0.00000   0.00000  0.00000  0.00000  0.00000  0.00000  0.00000
2184 556940.000  -25.732021336   28.282635589  1388.8967   5  10   3.0425   2.5713   9.4389   0.7204  -2.2567   2.9347   0.00    0.0    0.00000    0.00000    0.00000   0.00000  0.00000  0.00000  0.00000  0.00000  0.00000
2184 556941.000  -25.732022540   28.282637985  1389.1963   5  10   3.0425   2.5714   9.4374   0.7210  -2.2560   2.9344   0.00    0.0    0.00000    0.00000    0.00000   0.00000  0.00000  0.00000  0.00000  0.00000  0.00000
2184 556942.000  -25.732018689   28.282635718  1389.7455   5  10   3.0426   2.5714   9.4360   0.7217  -2.2553   2.9340   0.00    0.0    0.00000    0.00000    0.00000   0.00000  0.00000  0.00000  0.00000  0.00000  0.00000
2184 556943.000  -25.732020285   28.282634485  1390.1076   5  10   3.0426   2.5714   9.4346   0.7223  -2.2546   2.9337   0.00    0.0    0.00000    0.00000    0.00000   0.00000  0.00000  0.00000  0.00000  0.00000  0.00000
2184 556944.000  -25.732019447   28.282635788  1389.6442   5  10   3.0426   2.5714   9.4331   0.7229  -2.2539   2.9334   0.00    0.0    0.00000    0.00000    0.00000   0.00000  0.00000  0.00000  0.00000  0.00000  0.00000
2184 556945.000  -25.732018656   28.282636262  1389.0224   5  10   3.0427   2.5715   9.4317   0.7235  -2.2532   2.9330   0.00    0.0    0.00000    0.00000    0.00000   0.00000  0.00000  0.00000  0.00000  0.00000  0.00000
2184 556946.000  -25.732020692   28.282633929  1389.7664   5  10   3.0427   2.5715   9.4302   0.7242  -2.2524   2.9327   0.00    0.0    0.00000    0.00000    0.00000   0.00000  0.00000  0.00000  0.00000  0.00000  0.00000
2184 556947.000  -25.732019454   28.282635675  1388.9788   5  10   3.0428   2.5715   9.4288   0.7248  -2.2517   2.9323   0.00    0.0    0.00000    0.00000    0.00000   0.00000  0.00000  0.00000  0.00000  0.00000  0.00000
2184 556948.000  -25.732021264   28.282634103  1388.9548   5  10   3.0428   2.5715   9.4273   0.7254  -2.2510   2.9320   0.00    0.0    0.00000    0.00000    0.00000   0.00000  0.00000  0.00000  0.00000  0.00000  0.00000
2184 556949.000  -25.732019383   28.282637143  1388.9938   5  10   3.0429   2.5716   9.4259   0.7260  -2.2503   2.9316   0.00    0.0    0.00000    0.00000    0.00000   0.00000  0.00000  0.00000  0.00000  0.00000  0.00000
2184 556950.000  -25.732019733   28.282636222  1389.5716   5  10   3.0429   2.5716   9.4244   0.7266  -2.2496   2.9313   0.00    0.0    0.00000    0.00000    0.00000   0.00000  0.00000  0.00000  0.00000  0.00000  0.00000
2184 556951.000  -25.732023128   28.282636961  1387.9285   5  10   3.0429   2.5716   9.4230   0.7272  -2.2489   2.9309   0.00    0.0    0.00000    0.00000    0.00000   0.00000  0.00000  0.00000  0.00000  0.00000  0.00000
2184 556952.000  -25.732022482   28.282635977  1388.5348   5  10   3.0430   2.5717   9.4216   0.7279  -2.2481   2.9306   0.00    0.0    0.00000    0.00000    0.00000   0.00000  0.00000  0.00000  0.00000  0.00000  0.00000
2184 556953.000  -25.732018756   28.282636012  1388.7393   5  10   3.0430   2.5717   9.4201   0.7285  -2.2474   2.9302   0.00    0.0    0.00000    0.00000    0.00000   0.00000  0.00000  0.00000  0.00000  0.00000  0.00000
2184 556954.000  -25.732020601   28.282636035  1388.8743   5  10   3.0431   2.5717   9.4187   0.7291  -2.2467   2.9299   0.00    0.0    0.00000    0.00000    0.00000   0.00000  0.00000  0.00000  0.00000  0.00000  0.00000
2184 556955.000  -25.732019550   28.282634897  1388.9468   5  10   3.0431   2.5717   9.4172   0.7297  -2.2460   2.9295   0.00    0.0    0.00000    0.00000    0.00000   0.00000  0.00000  0.00000  0.00000  0.00000  0.00000
2184 556956.000  -25.732020002   28.282634128  1389.8631   5  10   3.0431   2.5718   9.4158   0.7303  -2.2453   2.9292   0.00    0.0    0.00000    0.00000    0.00000   0.00000  0.00000  0.00000  0.00000  0.00000  0.00000
2184 556957.000  -25.732022105   28.282636177  1388.8955   5  10   3.0432   2.5718   9.4143   0.7310  -2.2446   2.9288   0.00    0.0    0.00000    0.00000    0.00000   0.00000  0.00000  0.00000  0.00000  0.00000  0.00000
2184 556958.000  -25.732021331   28.282634336  1388.0584   5  10   3.0432   2.5718   9.4129   0.7316  -2.2438   2.9285   0.00    0.0    0.00000    0.00000    0.00000   0.00000  0.00000  0.00000  0.00000  0.00000  0.00000
2184 556959.000  -25.732023442   28.282634208  1387.9900   5  10   3.0433   2.5719   9.4114   0.7322  -2.2431   2.9281   0.00    0.0    0.00000    0.00000    0.00000   0.00000  0.00000  0.00000  0.00000  0.00000  0.00000
2184 556960.000  -25.732019953   28.282634668  1388.4001   5  10   3.0433   2.5719   9.4100   0.7328  -2.2424   2.9278   0.00    0.0    0.00000    0.00000    0.00000   0.00000  0.00000  0.00000  0.00000  0.00000  0.00000
2184 556961.000  -25.732021394   28.282632826  1389.1634   5  10   3.0434   2.5719   9.4085   0.7334  -2.2417   2.9274   0.00    0.0    0.00000    0.00000    0.00000   0.00000  0.00000  0.00000  0.00000  0.00000  0.00000
2184 556962.000  -25.732022048   28.282636129  1388.3036   5  10   3.0434   2.5719   9.4071   0.7340  -2.2410   2.9271   0.00    0.0    0.00000    0.00000    0.00000   0.00000  0.00000  0.00000  0.00000  0.00000  0.00000
2184 556963.000  -25.732022721   28.282634163  1388.2869   5  10   3.0434   2.5720   9.4056   0.7346  -2.2403   2.9268   0.00    0.0    0.00000    0.00000    0.00000   0.00000  0.00000  0.00000  0.00000  0.00000  0.00000
2184 556964.000  -25.732018755   28.282634355  1388.9234   5  10   3.0435   2.5720   9.4042   0.7353  -2.2395   2.9264   0.00    0.0    0.00000    0.00000    0.00000   0.00000  0.00000  0.00000  0.00000  0.00000  0.00000
2184 556965.000  -25.732022116   28.282633214  1389.4187   5  10   3.0435   2.5720   9.4027   0.7359  -2.2388   2.9261   0.00    0.0    0.00000    0.00000    0.00000   0.00000  0.00000  0.00000  0.00000  0.00000  0.00000
2184 556966.000  -25.732023887   28.282634557  1388.1651   5  10   3.0436   2.5721   9.4013   0.7365  -2.2381   2.9257   0.00    0.0    0.00000    0.00000    0.00000   0.00000  0.00000  0.00000  0.00000  0.00000  0.00000
2184 556967.000  -25.732020215   28.282632371  1388.8625   5  10   3.0436   2.5721   9.3998   0.7371  -2.2374   2.9254   0.00    0.0    0.00000    0.00000    0.00000   0.00000  0.00000  0.00000  0.00000  0.00000  0.00000
2184 556968.000  -25.732019129   28.282636156  1388.5525   5  10   3.0437   2.5721   9.3984   0.7377  -2.2367   2.9250   0.00    0.0    0.00000    0.00000    0.00000   0.00000  0.00000  0.00000  0.00000  0.00000  0.00000
