% program   : RTKPOST ver.2.4.3 b34
% inp file  : C:\rtklib_realTime_PPP\to_obs-nav_dop\CTWN00ZAF0_A00GMV0_202408130603\CTWN00ZAF0_obs_202408130603.obs
% inp file  : C:\rtklib_realTime_PPP\to_obs-nav_dop\CTWN00ZAF0_A00GMV0_202408130603\CTWN00ZAF_nav_202408130603.nav
% inp file  : C:\rtklib_realTime_PPP\to_obs-nav_dop
% obs start : 2024/08/13 06:03:31.0 GPST (week2327 194611.0s)
% obs end   : 2024/08/13 12:05:28.0 GPST (week2327 216328.0s)
% pos mode  : Single
% elev mask : 15.0 deg
% ionos opt : Iono-Free LC
% tropo opt : Saastamoinen
% ephemeris : Broadcast
% navi sys  : GPS
%
% (lat/lon/height=WGS84/ellipsoidal,Q=1:fix,2:float,3:sbas,4:dgps,5:single,6:ppp,ns=# of satellites)
%  GPST          latitude(deg) longitude(deg)  height(m)   Q  ns   sdn(m)   sde(m)   sdu(m)  sdne(m)  sdeu(m)  sdun(m) age(s)  ratio
2327 194611.000  -33.951449998   18.468563167    85.7778   5   8   2.1122   2.0125   4.7422   0.5706   1.6712  -1.2566   0.00    0.0
2327 194612.000  -33.951456162   18.468562972    83.8107   5   8   2.1123   2.0126   4.7425   0.5705   1.6716  -1.2571   0.00    0.0
2327 194613.000  -33.951455592   18.468557259    83.9834   5   8   2.1124   2.0127   4.7427   0.5704   1.6720  -1.2576   0.00    0.0
2327 194614.000  -33.951452221   18.468554109    81.7058   5   8   2.1125   2.0128   4.7430   0.5703   1.6724  -1.2582   0.00    0.0
2327 194615.000  -33.951445401   18.468567056    84.3465   5   8   2.1127   2.0128   4.7433   0.5702   1.6728  -1.2587   0.00    0.0
2327 194616.000  -33.951447127   18.468556521    84.8081   5   8   2.1128   2.0129   4.7436   0.5701   1.6732  -1.2592   0.00    0.0
2327 194617.000  -33.951446478   18.468561453    85.6687   5   8   2.1129   2.0130   4.7438   0.5700   1.6735  -1.2597   0.00    0.0
2327 194618.000  -33.951451122   18.468562226    84.3136   5   8   2.1130   2.0131   4.7441   0.5699   1.6739  -1.2603   0.00    0.0
2327 194619.000  -33.951453773   18.468566760    83.4850   5   8   2.1131   2.0131   4.7444   0.5698   1.6743  -1.2608   0.00    0.0
2327 194620.000  -33.951444052   18.468571015    84.9476   5   8   2.1133   2.0132   4.7447   0.5697   1.6747  -1.2613   0.00    0.0
2327 194621.000  -33.951443663   18.468559766    85.3325   5   8   2.1134   2.0133   4.7449   0.5696   1.6751  -1.2619   0.00    0.0
2327 194622.000  -33.951440888   18.468557741    84.4588   5   8   2.1135   2.0134   4.7452   0.5694   1.6755  -1.2624   0.00    0.0
2327 194623.000  -33.951440333   18.468553215    83.5920   5   8   2.1136   2.0134   4.7455   0.5693   1.6758  -1.2629   0.00    0.0
2327 194624.000  -33.951440228   18.468551622    83.1214   5   8   2.1138   2.0135   4.7458   0.5692   1.6762  -1.2634   0.00    0.0
2327 194625.000  -33.951444852   18.468564706    85.2816   5   8   2.1139   2.0136   4.7461   0.5691   1.6766  -1.2640   0.00    0.0
2327 194626.000  -33.951443144   18.468558223    84.6761   5   8   2.1140   2.0137   4.7463   0.5690   1.6770  -1.2645   0.00    0.0
2327 194627.000  -33.951441100   18.468560144    84.0689   5   8   2.1141   2.0138   4.7466   0.5689   1.6774  -1.2650   0.00    0.0
2327 194628.000  -33.951444691   18.468557888    86.5284   5   8   2.1142   2.0138   4.7469   0.5688   1.6778  -1.2655   0.00    0.0
2327 194629.000  -33.951452689   18.468560106    84.0446   5   8   2.1144   2.0139   4.7472   0.5687   1.6781  -1.2661   0.00    0.0
2327 194630.000  -33.951449083   18.468556108    84.1255   5   8   2.1145   2.0140   4.7474   0.5686   1.6785  -1.2666   0.00    0.0
2327 194631.000  -33.951445839   18.468555922    84.9337   5   8   2.1146   2.0141   4.7477   0.5685   1.6789  -1.2671   0.00    0.0
2327 194632.000  -33.951449445   18.468565568    84.4735   5   8   2.1147   2.0141   4.7480   0.5684   1.6793  -1.2676   0.00    0.0
2327 194633.000  -33.951438031   18.468552204    84.1044   5   8   2.1148   2.0142   4.7483   0.5683   1.6797  -1.2682   0.00    0.0
2327 194634.000  -33.951440292   18.468547395    84.8118   5   8   2.1150   2.0143   4.7485   0.5682   1.6801  -1.2687   0.00    0.0
2327 194635.000  -33.951452180   18.468558198    86.6119   5   8   2.1151   2.0144   4.7488   0.5680   1.6804  -1.2692   0.00    0.0
2327 194636.000  -33.951442720   18.468558401    85.1412   5   8   2.1152   2.0144   4.7491   0.5679   1.6808  -1.2697   0.00    0.0
2327 194637.000  -33.951444230   18.468557392    84.5807   5   8   2.1153   2.0145   4.7493   0.5678   1.6812  -1.2703   0.00    0.0
2327 194638.000  -33.951442230   18.468559881    84.0597   5   8   2.1155   2.0146   4.7496   0.5677   1.6816  -1.2708   0.00    0.0
2327 194639.000  -33.951444353   18.468557548    85.4390   5   8   2.1156   2.0147   4.7499   0.5676   1.6820  -1.2713   0.00    0.0
2327 194640.000  -33.951443352   18.468563335    85.4434   5   8   2.1157   2.0148   4.7502   0.5675   1.6824  -1.2718   0.00    0.0
2327 194641.000  -33.951446869   18.468559149    85.3477   5   8   2.1158   2.0148   4.7504   0.5674   1.6827  -1.2723   0.00    0.0
2327 194642.000  -33.951435640   18.468560743    86.4609   5   8   2.1159   2.0149   4.7507   0.5673   1.6831  -1.2729   0.00    0.0
2327 194643.000  -33.951449665   18.468555684    85.3935   5   8   2.1161   2.0150   4.7510   0.5672   1.6835  -1.2734   0.00    0.0
2327 194644.000  -33.951441840   18.468562477    86.0476   5   8   2.1162   2.0151   4.7513   0.5671   1.6839  -1.2739   0.00    0.0
2327 194645.000  -33.951448076   18.468560078    85.6982   5   8   2.1163   2.0151   4.7515   0.5670   1.6843  -1.2744   0.00    0.0
2327 194646.000  -33.951445635   18.468563528    84.4168   5   8   2.1164   2.0152   4.7518   0.5668   1.6846  -1.2749   0.00    0.0
2327 194647.000  -33.951452015   18.468556804    86.2146   5   8   2.1166   2.0153   4.7521   0.5667   1.6850  -1.2755   0.00    0.0
2327 194648.000  -33.951444645   18.468556303    87.6324   5   8   2.1167   2.0154   4.7523   0.5666   1.6854  -1.2760   0.00    0.0
2327 194649.000  -33.951439082   18.468548720    83.3281   5   8   2.1168   2.0154   4.7526   0.5665   1.6858  -1.2765   0.00    0.0
2327 194650.000  -33.951446453   18.468559584    83.8171   5   8   2.1169   2.0155   4.7529   0.5664   1.6862  -1.2770   0.00    0.0
2327 194651.000  -33.951449184   18.468564603    86.3392   5   8   2.1170   2.0156   4.7532   0.5663   1.6866  -1.2775   0.00    0.0
2327 194652.000  -33.951455070   18.468560092    85.6335   5   8   2.1172   2.0157   4.7534   0.5662   1.6869  -1.2781   0.00    0.0
2327 194653.000  -33.951453348   18.468559312    83.8475   5   8   2.1173   2.0158   4.7537   0.5661   1.6873  -1.2786   0.00    0.0
2327 194654.000  -33.951445365   18.468553062    83.5843   5   8   2.1174   2.0158   4.7540   0.5660   1.6877  -1.2791   0.00    0.0
2327 194655.000  -33.951448201   18.468556552    85.4378   5   8   2.1175   2.0159   4.7542   0.5659   1.6881  -1.2796   0.00    0.0
2327 194656.000  -33.951450124   18.468557474    83.2531   5   8   2.1177   2.0160   4.7545   0.5658   1.6885  -1.2801   0.00    0.0
2327 194657.000  -33.951441762   18.468545943    83.0146   5   8   2.1178   2.0161   4.7548   0.5656   1.6888  -1.2806   0.00    0.0
2327 194658.000  -33.951452974   18.468551586    85.3680   5   8   2.1179   2.0161   4.7550   0.5655   1.6892  -1.2812   0.00    0.0
2327 194659.000  -33.951453190   18.468563627    86.3559   5   8   2.1180   2.0162   4.7553   0.5654   1.6896  -1.2817   0.00    0.0
2327 194660.000  -33.951449293   18.468566184    83.8688   5   8   2.1182   2.0163   4.7556   0.5653   1.6900  -1.2822   0.00    0.0
2327 194661.000  -33.951447635   18.468565570    83.2143   5   8   2.1183   2.0164   4.7558   0.5652   1.6904  -1.2827   0.00    0.0
2327 194662.000  -33.951446797   18.468561532    84.4270   5   8   2.1184   2.0165   4.7561   0.5651   1.6908  -1.2832   0.00    0.0
2327 194663.000  -33.951443884   18.468557801    82.8747   5   8   2.1185   2.0165   4.7564   0.5650   1.6911  -1.2837   0.00    0.0
2327 194664.000  -33.951440746   18.468554159    84.8151   5   8   2.1186   2.0166   4.7567   0.5649   1.6915  -1.2842   0.00    0.0
2327 194665.000  -33.951447549   18.468556252    84.2939   5   8   2.1188   2.0167   4.7569   0.5648   1.6919  -1.2848   0.00    0.0
2327 194666.000  -33.951445425   18.468560529    84.5497   5   8   2.1189   2.0168   4.7572   0.5647   1.6923  -1.2853   0.00    0.0
2327 194667.000  -33.951440963   18.468552918    84.5796   5   8   2.1190   2.0168   4.7575   0.5645   1.6927  -1.2858   0.00    0.0
2327 194668.000  -33.951437995   18.468562286    84.4142   5   8   2.1191   2.0169   4.7577   0.5644   1.6930  -1.2863   0.00    0.0
2327 194669.000  -33.951451141   18.468555266    83.4422   5   8   2.1193   2.0170   4.7580   0.5643   1.6934  -1.2868   0.00    0.0
2327 194670.000  -33.951452516   18.468553559    86.3170   5   8   2.1194   2.0171   4.7583   0.5642   1.6938  -1.2873   0.00    0.0
2327 194671.000  -33.951444071   18.468557257    84.9874   5   8   2.1195   2.0172   4.7585   0.5641   1.6942  -1.2878   0.00    0.0
2327 194672.000  -33.951447933   18.468556071    85.2390   5   8   2.1196   2.0172   4.7588   0.5640   1.6946  -1.2883   0.00    0.0
2327 194673.000  -33.951456678   18.468551380    84.3202   5   8   2.1198   2.0173   4.7591   0.5639   1.6949  -1.2889   0.00    0.0
2327 194674.000  -33.951447041   18.468555280    84.8780   5   8   2.1199   2.0174   4.7593   0.5638   1.6953  -1.2894   0.00    0.0
2327 194675.000  -33.951444810   18.468561256    81.7605   5   8   2.1200   2.0175   4.7596   0.5637   1.6957  -1.2899   0.00    0.0
2327 194676.000  -33.951439083   18.468552687    83.2796   5   8   2.1201   2.0176   4.7599   0.5636   1.6961  -1.2904   0.00    0.0
2327 194677.000  -33.951445817   18.468555054    83.7392   5   8   2.1203   2.0176   4.7601   0.5634   1.6965  -1.2909   0.00    0.0
2327 194678.000  -33.951438860   18.468560803    85.4304   5   8   2.1204   2.0177   4.7604   0.5633   1.6968  -1.2914   0.00    0.0
2327 194679.000  -33.951438324   18.468554171    84.4285   5   8   2.1205   2.0178   4.7607   0.5632   1.6972  -1.2919   0.00    0.0
2327 194680.000  -33.951447498   18.468561403    84.0307   5   8   2.1206   2.0179   4.7609   0.5631   1.6976  -1.2924   0.00    0.0
2327 194681.000  -33.951446603   18.468554445    81.3076   5   8   2.1208   2.0179   4.7612   0.5630   1.6980  -1.2929   0.00    0.0
2327 194682.000  -33.951455344   18.468548515    85.2962   5   8   2.1209   2.0180   4.7615   0.5629   1.6984  -1.2934   0.00    0.0
2327 194683.000  -33.951444083   18.468551267    84.1944   5   8   2.1210   2.0181   4.7617   0.5628   1.6987  -1.2939   0.00    0.0
2327 194684.000  -33.951453589   18.468556126    85.3382   5   8   2.1211   2.0182   4.7620   0.5627   1.6991  -1.2945   0.00    0.0
2327 194685.000  -33.951440777   18.468557790    83.3062   5   8   2.1213   2.0183   4.7622   0.5626   1.6995  -1.2950   0.00    0.0
2327 194686.000  -33.951447736   18.468552793    82.6213   5   8   2.1214   2.0183   4.7625   0.5624   1.6999  -1.2955   0.00    0.0
2327 194687.000  -33.951453448   18.468552865    84.8544   5   8   2.1215   2.0184   4.7628   0.5623   1.7002  -1.2960   0.00    0.0
2327 194688.000  -33.951447671   18.468553568    84.7575   5   8   2.1216   2.0185   4.7630   0.5622   1.7006  -1.2965   0.00    0.0
2327 194689.000  -33.951446389   18.468557128    85.5014   5   8   2.1217   2.0186   4.7633   0.5621   1.7010  -1.2970   0.00    0.0
2327 194690.000  -33.951450489   18.468561742    85.8085   5   8   2.1219   2.0187   4.7636   0.5620   1.7014  -1.2975   0.00    0.0
2327 194691.000  -33.951444943   18.468555140    84.8547   5   8   2.1220   2.0187   4.7638   0.5619   1.7018  -1.2980   0.00    0.0
2327 194692.000  -33.951445013   18.468552699    84.1388   5   8   2.1221   2.0188   4.7641   0.5618   1.7021  -1.2985   0.00    0.0
2327 194693.000  -33.951442112   18.468550610    85.2377   5   8   2.1222   2.0189   4.7644   0.5617   1.7025  -1.2990   0.00    0.0
2327 194694.000  -33.951450115   18.468552193    82.5665   5   8   2.1224   2.0190   4.7646   0.5616   1.7029  -1.2995   0.00    0.0
2327 194695.000  -33.951445660   18.468559656    85.1819   5   8   2.1225   2.0190   4.7649   0.5614   1.7033  -1.3000   0.00    0.0
2327 194696.000  -33.951450067   18.468553190    85.9911   5   8   2.1226   2.0191   4.7651   0.5613   1.7037  -1.3005   0.00    0.0
2327 194697.000  -33.951447499   18.468547509    87.8313   5   8   2.1227   2.0192   4.7654   0.5612   1.7040  -1.3010   0.00    0.0
2327 194698.000  -33.951451283   18.468549845    85.3578   5   8   2.1229   2.0193   4.7657   0.5611   1.7044  -1.3015   0.00    0.0
2327 194699.000  -33.951445185   18.468563540    85.0111   5   8   2.1230   2.0194   4.7659   0.5610   1.7048  -1.3020   0.00    0.0
2327 194700.000  -33.951455689   18.468556039    84.1129   5   8   2.1231   2.0194   4.7662   0.5609   1.7052  -1.3025   0.00    0.0
2327 194701.000  -33.951455038   18.468557226    82.9502   5   8   2.1232   2.0195   4.7664   0.5608   1.7055  -1.3030   0.00    0.0
2327 194702.000  -33.951449528   18.468553926    85.6129   5   8   2.1234   2.0196   4.7667   0.5607   1.7059  -1.3035   0.00    0.0
2327 194703.000  -33.951449245   18.468556770    84.3879   5   8   2.1235   2.0197   4.7670   0.5605   1.7063  -1.3040   0.00    0.0
2327 194704.000  -33.951442541   18.468562060    82.8515   5   8   2.1236   2.0198   4.7672   0.5604   1.7067  -1.3045   0.00    0.0
2327 194705.000  -33.951448603   18.468555136    83.8702   5   8   2.1238   2.0198   4.7675   0.5603   1.7070  -1.3050   0.00    0.0
2327 194706.000  -33.951446848   18.468558540    83.7231   5   8   2.1239   2.0199   4.7678   0.5602   1.7074  -1.3055   0.00    0.0
2327 194707.000  -33.951446786   18.468552869    82.8562   5   8   2.1240   2.0200   4.7680   0.5601   1.7078  -1.3060   0.00    0.0
2327 194708.000  -33.951441659   18.468544248    84.4448   5   8   2.1241   2.0201   4.7683   0.5600   1.7082  -1.3065   0.00    0.0
2327 194709.000  -33.951443135   18.468554632    85.0230   5   8   2.1243   2.0202   4.7685   0.5599   1.7086  -1.3070   0.00    0.0
2327 194710.000  -33.951448839   18.468557473    83.5342   5   8   2.1244   2.0202   4.7688   0.5598   1.7089  -1.3075   0.00    0.0
2327 194711.000  -33.951437586   18.468548260    83.2538   5   8   2.1245   2.0203   4.7691   0.5596   1.7093  -1.3080   0.00    0.0
2327 194712.000  -33.951447664   18.468558033    85.5450   5   8   2.1246   2.0204   4.7693   0.5595   1.7097  -1.3085   0.00    0.0
2327 194713.000  -33.951435703   18.468549881    83.1988   5   8   2.1248   2.0205   4.7696   0.5594   1.7101  -1.3090   0.00    0.0
2327 194714.000  -33.951444991   18.468564343    84.5694   5   8   2.1249   2.0206   4.7698   0.5593   1.7104  -1.3095   0.00    0.0
2327 194715.000  -33.951452423   18.468556681    82.7131   5   8   2.1250   2.0206   4.7701   0.5592   1.7108  -1.3100   0.00    0.0
2327 194716.000  -33.951454789   18.468561117    83.4539   5   8   2.1251   2.0207   4.7703   0.5591   1.7112  -1.3105   0.00    0.0
2327 194717.000  -33.951441285   18.468556029    82.2101   5   8   2.1253   2.0208   4.7706   0.5590   1.7116  -1.3110   0.00    0.0
2327 194718.000  -33.951440380   18.468564169    85.2469   5   8   2.1254   2.0209   4.7709   0.5589   1.7119  -1.3115   0.00    0.0
2327 194719.000  -33.951438987   18.468558771    83.0256   5   8   2.1255   2.0210   4.7711   0.5587   1.7123  -1.3120   0.00    0.0
2327 194720.000  -33.951437196   18.468555648    82.8960   5   8   2.1256   2.0210   4.7714   0.5586   1.7127  -1.3125   0.00    0.0
2327 194721.000  -33.951447897   18.468552736    83.0012   5   8   2.1258   2.0211   4.7716   0.5585   1.7131  -1.3130   0.00    0.0
2327 194722.000  -33.951440987   18.468556632    84.1687   5   8   2.1259   2.0212   4.7719   0.5584   1.7134  -1.3135   0.00    0.0
2327 194723.000  -33.951436675   18.468562666    84.6893   5   8   2.1260   2.0213   4.7721   0.5583   1.7138  -1.3140   0.00    0.0
2327 194724.000  -33.951443566   18.468556298    83.6106   5   8   2.1261   2.0214   4.7724   0.5582   1.7142  -1.3145   0.00    0.0
2327 194725.000  -33.951439509   18.468555686    84.5596   5   8   2.1263   2.0214   4.7727   0.5581   1.7146  -1.3150   0.00    0.0
2327 194726.000  -33.951442212   18.468549908    83.0504   5   8   2.1264   2.0215   4.7729   0.5580   1.7150  -1.3155   0.00    0.0
2327 194727.000  -33.951446200   18.468555265    84.8590   5   8   2.1265   2.0216   4.7732   0.5578   1.7153  -1.3160   0.00    0.0
2327 194728.000  -33.951449830   18.468557828    86.1611   5   8   2.1267   2.0217   4.7734   0.5577   1.7157  -1.3165   0.00    0.0
2327 194729.000  -33.951437639   18.468552584    84.9084   5   8   2.1268   2.0218   4.7737   0.5576   1.7161  -1.3170   0.00    0.0
2327 194730.000  -33.951447185   18.468550437    84.2503   5   8   2.1269   2.0218   4.7739   0.5575   1.7165  -1.3174   0.00    0.0
2327 194731.000  -33.951436503   18.468557245    82.1492   5   8   2.1270   2.0219   4.7742   0.5574   1.7168  -1.3179   0.00    0.0
2327 194732.000  -33.951443112   18.468544723    84.2390   5   8   2.1272   2.0220   4.7745   0.5573   1.7172  -1.3184   0.00    0.0
2327 194733.000  -33.951448224   18.468548713    82.9482   5   8   2.1273   2.0221   4.7747   0.5572   1.7176  -1.3189   0.00    0.0
2327 194734.000  -33.951438375   18.468541986    82.4978   5   8   2.1274   2.0222   4.7750   0.5570   1.7180  -1.3194   0.00    0.0
2327 194735.000  -33.951449352   18.468546474    83.6203   5   8   2.1275   2.0222   4.7752   0.5569   1.7183  -1.3199   0.00    0.0
2327 194736.000  -33.951442958   18.468547766    83.4767   5   8   2.1277   2.0223   4.7755   0.5568   1.7187  -1.3204   0.00    0.0
2327 194737.000  -33.951438085   18.468544667    83.4001   5   8   2.1278   2.0224   4.7757   0.5567   1.7191  -1.3209   0.00    0.0
2327 194738.000  -33.951437126   18.468547289    83.5071   5   8   2.1279   2.0225   4.7760   0.5566   1.7195  -1.3214   0.00    0.0
2327 194739.000  -33.951436860   18.468535128    82.0419   5   8   2.1280   2.0226   4.7762   0.5565   1.7198  -1.3219   0.00    0.0
2327 194740.000  -33.951438887   18.468549648    84.1751   5   8   2.1282   2.0227   4.7765   0.5564   1.7202  -1.3224   0.00    0.0
2327 194741.000  -33.951443658   18.468553744    83.9357   5   8   2.1283   2.0227   4.7767   0.5562   1.7206  -1.3228   0.00    0.0
2327 194742.000  -33.951447202   18.468539806    84.9213   5   8   2.1284   2.0228   4.7770   0.5561   1.7209  -1.3233   0.00    0.0
2327 194743.000  -33.951444117   18.468538988    85.0982   5   8   2.1286   2.0229   4.7772   0.5560   1.7213  -1.3238   0.00    0.0
2327 194744.000  -33.951444663   18.468550947    84.5051   5   8   2.1287   2.0230   4.7775   0.5559   1.7217  -1.3243   0.00    0.0
2327 194745.000  -33.951448933   18.468545110    83.1250   5   8   2.1288   2.0231   4.7777   0.5558   1.7221  -1.3248   0.00    0.0
2327 194746.000  -33.951441397   18.468554560    83.5181   5   8   2.1289   2.0231   4.7780   0.5557   1.7224  -1.3253   0.00    0.0
2327 194747.000  -33.951439918   18.468551008    83.8423   5   8   2.1291   2.0232   4.7783   0.5556   1.7228  -1.3258   0.00    0.0
2327 194748.000  -33.951445833   18.468547885    82.1952   5   8   2.1292   2.0233   4.7785   0.5554   1.7232  -1.3263   0.00    0.0
2327 194749.000  -33.951437679   18.468548044    82.9794   5   8   2.1293   2.0234   4.7788   0.5553   1.7236  -1.3267   0.00    0.0
2327 194750.000  -33.951443990   18.468546954    83.0208   5   8   2.1294   2.0235   4.7790   0.5552   1.7239  -1.3272   0.00    0.0
2327 194751.000  -33.951444528   18.468545657    81.4162   5   8   2.1296   2.0235   4.7793   0.5551   1.7243  -1.3277   0.00    0.0
2327 194752.000  -33.951438334   18.468548331    84.1657   5   8   2.1297   2.0236   4.7795   0.5550   1.7247  -1.3282   0.00    0.0
2327 194753.000  -33.951438715   18.468548928    83.7871   5   8   2.1298   2.0237   4.7798   0.5549   1.7251  -1.3287   0.00    0.0
2327 194754.000  -33.951438717   18.468547688    81.7156   5   8   2.1300   2.0238   4.7800   0.5548   1.7254  -1.3292   0.00    0.0
2327 194755.000  -33.951443474   18.468536797    82.9408   5   8   2.1301   2.0239   4.7803   0.5546   1.7258  -1.3297   0.00    0.0
2327 194756.000  -33.951433355   18.468539313    81.5179   5   8   2.1302   2.0240   4.7805   0.5545   1.7262  -1.3301   0.00    0.0
2327 194757.000  -33.951439746   18.468549224    84.1265   5   8   2.1303   2.0240   4.7808   0.5544   1.7265  -1.3306   0.00    0.0
2327 194758.000  -33.951438340   18.468546361    83.7401   5   8   2.1305   2.0241   4.7810   0.5543   1.7269  -1.3311   0.00    0.0
2327 194759.000  -33.951439318   18.468543175    83.5968   5   8   2.1306   2.0242   4.7813   0.5542   1.7273  -1.3316   0.00    0.0
2327 194760.000  -33.951440592   18.468548207    83.7695   5   8   2.1307   2.0243   4.7815   0.5541   1.7277  -1.3321   0.00    0.0
2327 194761.000  -33.951436927   18.468545005    83.5654   5   8   2.1309   2.0244   4.7818   0.5540   1.7280  -1.3326   0.00    0.0
2327 194762.000  -33.951440321   18.468548679    85.4025   5   8   2.1310   2.0244   4.7820   0.5538   1.7284  -1.3330   0.00    0.0
2327 194763.000  -33.951434256   18.468535251    81.8290   5   8   2.1311   2.0245   4.7823   0.5537   1.7288  -1.3335   0.00    0.0
2327 194764.000  -33.951441248   18.468545435    82.5640   5   8   2.1312   2.0246   4.7825   0.5536   1.7292  -1.3340   0.00    0.0
2327 194765.000  -33.951450387   18.468548932    85.5789   5   8   2.1314   2.0247   4.7828   0.5535   1.7295  -1.3345   0.00    0.0
2327 194766.000  -33.951440276   18.468544832    85.2421   5   8   2.1315   2.0248   4.7830   0.5534   1.7299  -1.3350   0.00    0.0
2327 194767.000  -33.951451029   18.468531775    85.8007   5   8   2.1316   2.0249   4.7833   0.5533   1.7303  -1.3355   0.00    0.0
2327 194768.000  -33.951450790   18.468547975    85.4655   5   8   2.1318   2.0249   4.7835   0.5531   1.7306  -1.3359   0.00    0.0
2327 194769.000  -33.951445425   18.468554721    84.6933   5   8   2.1319   2.0250   4.7837   0.5530   1.7310  -1.3364   0.00    0.0
2327 194770.000  -33.951452242   18.468549372    84.5533   5   8   2.1320   2.0251   4.7840   0.5529   1.7314  -1.3369   0.00    0.0
2327 194771.000  -33.951442995   18.468542534    85.1006   5   8   2.1321   2.0252   4.7842   0.5528   1.7318  -1.3374   0.00    0.0
2327 194772.000  -33.951436475   18.468548591    83.3419   5   8   2.1323   2.0253   4.7845   0.5527   1.7321  -1.3379   0.00    0.0
2327 194773.000  -33.951445586   18.468542941    83.6649   5   8   2.1324   2.0253   4.7847   0.5526   1.7325  -1.3383   0.00    0.0
2327 194774.000  -33.951447094   18.468557317    85.6012   5   8   2.1325   2.0254   4.7850   0.5525   1.7329  -1.3388   0.00    0.0
2327 194775.000  -33.951439494   18.468552366    84.5644   5   8   2.1327   2.0255   4.7852   0.5523   1.7332  -1.3393   0.00    0.0
2327 194776.000  -33.951443037   18.468547904    84.3696   5   8   2.1328   2.0256   4.7855   0.5522   1.7336  -1.3398   0.00    0.0
2327 194777.000  -33.951441019   18.468546180    84.4369   5   8   2.1329   2.0257   4.7857   0.5521   1.7340  -1.3402   0.00    0.0
2327 194778.000  -33.951433852   18.468551946    84.7319   5   8   2.1330   2.0258   4.7860   0.5520   1.7344  -1.3407   0.00    0.0
2327 194779.000  -33.951441309   18.468547268    85.2505   5   8   2.1332   2.0258   4.7862   0.5519   1.7347  -1.3412   0.00    0.0
2327 194780.000  -33.951449014   18.468546205    85.0029   5   8   2.1333   2.0259   4.7865   0.5518   1.7351  -1.3417   0.00    0.0
2327 194781.000  -33.951447614   18.468550444    82.4769   5   8   2.1334   2.0260   4.7867   0.5516   1.7355  -1.3422   0.00    0.0
2327 194782.000  -33.951445158   18.468540105    83.0887   5   8   2.1336   2.0261   4.7869   0.5515   1.7358  -1.3426   0.00    0.0
2327 194783.000  -33.951448416   18.468547728    84.2207   5   8   2.1337   2.0262   4.7872   0.5514   1.7362  -1.3431   0.00    0.0
2327 194784.000  -33.951437367   18.468544135    84.1156   5   8   2.1338   2.0262   4.7874   0.5513   1.7366  -1.3436   0.00    0.0
2327 194785.000  -33.951439790   18.468553508    85.4442   5   8   2.1339   2.0263   4.7877   0.5512   1.7369  -1.3441   0.00    0.0
2327 194786.000  -33.951437550   18.468540077    83.7924   5   8   2.1341   2.0264   4.7879   0.5511   1.7373  -1.3445   0.00    0.0
2327 194787.000  -33.951446488   18.468542514    84.9157   5   8   2.1342   2.0265   4.7882   0.5509   1.7377  -1.3450   0.00    0.0
2327 194788.000  -33.951441827   18.468550519    85.8852   5   8   2.1343   2.0266   4.7884   0.5508   1.7381  -1.3455   0.00    0.0
2327 194789.000  -33.951441831   18.468550398    86.3828   5   8   2.1345   2.0267   4.7887   0.5507   1.7384  -1.3460   0.00    0.0
2327 194790.000  -33.951446748   18.468550837    84.7035   5   8   2.1346   2.0267   4.7889   0.5506   1.7388  -1.3464   0.00    0.0
2327 194791.000  -33.951439549   18.468547195    85.0224   5   8   2.1347   2.0268   4.7891   0.5505   1.7392  -1.3469   0.00    0.0
2327 194792.000  -33.951443155   18.468552352    87.2033   5   8   2.1349   2.0269   4.7894   0.5504   1.7395  -1.3474   0.00    0.0
2327 194793.000  -33.951435280   18.468545232    86.5486   5   8   2.1350   2.0270   4.7896   0.5502   1.7399  -1.3478   0.00    0.0
2327 194794.000  -33.951438848   18.468530216    83.4510   5   8   2.1351   2.0271   4.7899   0.5501   1.7403  -1.3483   0.00    0.0
2327 194795.000  -33.951440065   18.468538683    84.9629   5   8   2.1352   2.0272   4.7901   0.5500   1.7406  -1.3488   0.00    0.0
2327 194796.000  -33.951441668   18.468550763    85.4904   5   8   2.1354   2.0272   4.7904   0.5499   1.7410  -1.3493   0.00    0.0
2327 194797.000  -33.951448734   18.468542157    85.6894   5   8   2.1355   2.0273   4.7906   0.5498   1.7414  -1.3497   0.00    0.0
2327 194798.000  -33.951445140   18.468545580    85.0538   5   8   2.1356   2.0274   4.7908   0.5497   1.7417  -1.3502   0.00    0.0
2327 194799.000  -33.951441558   18.468555413    85.8248   5   8   2.1358   2.0275   4.7911   0.5495   1.7421  -1.3507   0.00    0.0
2327 194800.000  -33.951445539   18.468553106    83.6224   5   8   2.1359   2.0276   4.7913   0.5494   1.7425  -1.3511   0.00    0.0
2327 194801.000  -33.951446827   18.468545614    84.8983   5   8   2.1360   2.0277   4.7916   0.5493   1.7429  -1.3516   0.00    0.0
2327 194802.000  -33.951438760   18.468553867    85.4507   5   8   2.1362   2.0277   4.7918   0.5492   1.7432  -1.3521   0.00    0.0
2327 194803.000  -33.951444440   18.468549916    84.9841   5   8   2.1363   2.0278   4.7920   0.5491   1.7436  -1.3526   0.00    0.0
2327 194804.000  -33.951448961   18.468542208    83.7747   5   8   2.1364   2.0279   4.7923   0.5490   1.7440  -1.3530   0.00    0.0
2327 194805.000  -33.951441442   18.468548154    85.3122   5   8   2.1365   2.0280   4.7925   0.5488   1.7443  -1.3535   0.00    0.0
2327 194806.000  -33.951448778   18.468552210    85.7262   5   8   2.1367   2.0281   4.7928   0.5487   1.7447  -1.3540   0.00    0.0
2327 194807.000  -33.951444709   18.468560116    87.4964   5   8   2.1368   2.0282   4.7930   0.5486   1.7451  -1.3544   0.00    0.0
2327 194808.000  -33.951443953   18.468554980    84.5856   5   8   2.1369   2.0282   4.7932   0.5485   1.7454  -1.3549   0.00    0.0
2327 194809.000  -33.951443214   18.468546663    86.7537   5   8   2.1371   2.0283   4.7935   0.5484   1.7458  -1.3554   0.00    0.0
2327 194810.000  -33.951445999   18.468548531    86.8538   5   8   2.1372   2.0284   4.7937   0.5483   1.7462  -1.3558   0.00    0.0
2327 194811.000  -33.951446726   18.468543656    86.0999   5   8   2.1373   2.0285   4.7940   0.5481   1.7465  -1.3563   0.00    0.0
2327 194812.000  -33.951437549   18.468541016    84.1792   5   8   2.1375   2.0286   4.7942   0.5480   1.7469  -1.3568   0.00    0.0
2327 194813.000  -33.951447833   18.468543802    85.5126   5   8   2.1376   2.0287   4.7944   0.5479   1.7473  -1.3572   0.00    0.0
2327 194814.000  -33.951450806   18.468533966    83.6251   5   8   2.1377   2.0287   4.7947   0.5478   1.7476  -1.3577   0.00    0.0
2327 194815.000  -33.951447389   18.468544026    86.1787   5   8   2.1378   2.0288   4.7949   0.5477   1.7480  -1.3582   0.00    0.0
2327 194816.000  -33.951448364   18.468544064    86.1133   5   8   2.1380   2.0289   4.7952   0.5476   1.7484  -1.3586   0.00    0.0
2327 194817.000  -33.951451147   18.468552397    85.2367   5   8   2.1381   2.0290   4.7954   0.5474   1.7487  -1.3591   0.00    0.0
2327 194818.000  -33.951441207   18.468547946    86.1489   5   8   2.1382   2.0291   4.7956   0.5473   1.7491  -1.3596   0.00    0.0
2327 194819.000  -33.951439013   18.468550570    86.0983   5   8   2.1384   2.0292   4.7959   0.5472   1.7495  -1.3600   0.00    0.0
2327 194820.000  -33.951448435   18.468545098    86.4860   5   8   2.1385   2.0292   4.7961   0.5471   1.7498  -1.3605   0.00    0.0
2327 194821.000  -33.951446408   18.468553040    86.3788   5   8   2.1386   2.0293   4.7963   0.5470   1.7502  -1.3609   0.00    0.0
2327 194822.000  -33.951441079   18.468545113    85.6042   5   8   2.1388   2.0294   4.7966   0.5469   1.7506  -1.3614   0.00    0.0
2327 194823.000  -33.951448358   18.468551844    84.1570   5   8   2.1389   2.0295   4.7968   0.5467   1.7509  -1.3619   0.00    0.0
2327 194824.000  -33.951445610   18.468545008    83.9899   5   8   2.1390   2.0296   4.7970   0.5466   1.7513  -1.3623   0.00    0.0
2327 194825.000  -33.951446774   18.468554037    86.0111   5   8   2.1392   2.0297   4.7973   0.5465   1.7517  -1.3628   0.00    0.0
2327 194826.000  -33.951450936   18.468557677    87.6639   5   8   2.1393   2.0297   4.7975   0.5464   1.7520  -1.3633   0.00    0.0
2327 194827.000  -33.951452848   18.468549945    85.2504   5   8   2.1394   2.0298   4.7978   0.5463   1.7524  -1.3637   0.00    0.0
2327 194828.000  -33.951446142   18.468559775    85.1786   5   8   2.1395   2.0299   4.7980   0.5461   1.7528  -1.3642   0.00    0.0
2327 194829.000  -33.951443561   18.468555706    84.5191   5   8   2.1397   2.0300   4.7982   0.5460   1.7531  -1.3646   0.00    0.0
2327 194830.000  -33.951448459   18.468535844    84.7300   5   8   2.1398   2.0301   4.7985   0.5459   1.7535  -1.3651   0.00    0.0
2327 194831.000  -33.951443602   18.468547988    85.2350   5   8   2.1399   2.0302   4.7987   0.5458   1.7539  -1.3656   0.00    0.0
2327 194832.000  -33.951445335   18.468547485    86.9449   5   8   2.1401   2.0303   4.7989   0.5457   1.7542  -1.3660   0.00    0.0
2327 194833.000  -33.951448549   18.468545563    88.2887   5   8   2.1402   2.0303   4.7992   0.5456   1.7546  -1.3665   0.00    0.0
2327 194834.000  -33.951447640   18.468547973    87.4356   5   8   2.1403   2.0304   4.7994   0.5454   1.7550  -1.3669   0.00    0.0
2327 194835.000  -33.951451755   18.468550826    84.4924   5   8   2.1405   2.0305   4.7996   0.5453   1.7553  -1.3674   0.00    0.0
2327 194836.000  -33.951453241   18.468565542    87.8201   5   8   2.1406   2.0306   4.7999   0.5452   1.7557  -1.3679   0.00    0.0
2327 194837.000  -33.951444348   18.468554235    86.3147   5   8   2.1407   2.0307   4.8001   0.5451   1.7561  -1.3683   0.00    0.0
2327 194838.000  -33.951446956   18.468553666    84.7193   5   8   2.1409   2.0308   4.8003   0.5450   1.7564  -1.3688   0.00    0.0
2327 194839.000  -33.951443821   18.468551298    87.4642   5   8   2.1410   2.0308   4.8006   0.5448   1.7568  -1.3692   0.00    0.0
2327 194840.000  -33.951453537   18.468558044    88.2508   5   8   2.1411   2.0309   4.8008   0.5447   1.7572  -1.3697   0.00    0.0
2327 194841.000  -33.951444275   18.468548542    86.0759   5   8   2.1413   2.0310   4.8010   0.5446   1.7575  -1.3702   0.00    0.0
2327 194842.000  -33.951453346   18.468559087    86.3901   5   8   2.1414   2.0311   4.8013   0.5445   1.7579  -1.3706   0.00    0.0
2327 194843.000  -33.951445442   18.468555442    85.5436   5   8   2.1415   2.0312   4.8015   0.5444   1.7582  -1.3711   0.00    0.0
2327 194844.000  -33.951452858   18.468568005    86.1373   5   8   2.1417   2.0313   4.8017   0.5443   1.7586  -1.3715   0.00    0.0
2327 194845.000  -33.951458067   18.468556529    86.6718   5   8   2.1418   2.0314   4.8020   0.5441   1.7590  -1.3720   0.00    0.0
2327 194846.000  -33.951457899   18.468553474    85.5488   5   8   2.1419   2.0314   4.8022   0.5440   1.7593  -1.3724   0.00    0.0
2327 194847.000  -33.951445438   18.468547248    86.2399   5   8   2.1420   2.0315   4.8024   0.5439   1.7597  -1.3729   0.00    0.0
2327 194848.000  -33.951449685   18.468559496    86.0688   5   8   2.1422   2.0316   4.8027   0.5438   1.7601  -1.3733   0.00    0.0
2327 194849.000  -33.951442722   18.468552365    84.4905   5   8   2.1423   2.0317   4.8029   0.5437   1.7604  -1.3738   0.00    0.0
2327 194850.000  -33.951444653   18.468533134    85.3601   5   8   2.1424   2.0318   4.8031   0.5435   1.7608  -1.3743   0.00    0.0
2327 194851.000  -33.951446781   18.468554228    84.8198   5   8   2.1426   2.0319   4.8033   0.5434   1.7612  -1.3747   0.00    0.0
2327 194852.000  -33.951443322   18.468555496    85.0345   5   8   2.1427   2.0319   4.8036   0.5433   1.7615  -1.3752   0.00    0.0
2327 194853.000  -33.951447543   18.468558453    86.3950   5   8   2.1428   2.0320   4.8038   0.5432   1.7619  -1.3756   0.00    0.0
2327 194854.000  -33.951456288   18.468541172    84.7764   5   8   2.1430   2.0321   4.8040   0.5431   1.7622  -1.3761   0.00    0.0
2327 194855.000  -33.951445289   18.468552370    85.6194   5   8   2.1431   2.0322   4.8043   0.5430   1.7626  -1.3765   0.00    0.0
2327 194856.000  -33.951442067   18.468558014    86.3328   5   8   2.1432   2.0323   4.8045   0.5428   1.7630  -1.3770   0.00    0.0
2327 194857.000  -33.951448753   18.468558808    85.6218   5   8   2.1434   2.0324   4.8047   0.5427   1.7633  -1.3774   0.00    0.0
2327 194858.000  -33.951441271   18.468561085    86.8859   5   8   2.1435   2.0325   4.8050   0.5426   1.7637  -1.3779   0.00    0.0
2327 194859.000  -33.951447166   18.468555248    87.5658   5   8   2.1436   2.0325   4.8052   0.5425   1.7641  -1.3783   0.00    0.0
2327 194860.000  -33.951446399   18.468549418    87.7906   5   8   2.1438   2.0326   4.8054   0.5424   1.7644  -1.3788   0.00    0.0
2327 194861.000  -33.951452363   18.468552978    87.1070   5   8   2.1439   2.0327   4.8056   0.5422   1.7648  -1.3792   0.00    0.0
2327 194862.000  -33.951450700   18.468551048    85.8404   5   8   2.1440   2.0328   4.8059   0.5421   1.7651  -1.3797   0.00    0.0
2327 194863.000  -33.951449836   18.468553415    84.6842   5   8   2.1442   2.0329   4.8061   0.5420   1.7655  -1.3801   0.00    0.0
2327 194864.000  -33.951451851   18.468559744    88.4565   5   8   2.1443   2.0330   4.8063   0.5419   1.7659  -1.3806   0.00    0.0
2327 194865.000  -33.951448395   18.468553193    86.4530   5   8   2.1444   2.0331   4.8065   0.5418   1.7662  -1.3810   0.00    0.0
2327 194866.000  -33.951435947   18.468549493    87.6545   5   8   2.1446   2.0331   4.8068   0.5416   1.7666  -1.3815   0.00    0.0
2327 194867.000  -33.951448421   18.468542863    84.3373   5   8   2.1447   2.0332   4.8070   0.5415   1.7670  -1.3819   0.00    0.0
2327 194868.000  -33.951451135   18.468556906    85.5288   5   8   2.1448   2.0333   4.8072   0.5414   1.7673  -1.3824   0.00    0.0
2327 194869.000  -33.951445188   18.468557878    85.7454   5   8   2.1450   2.0334   4.8075   0.5413   1.7677  -1.3828   0.00    0.0
2327 194870.000  -33.951438516   18.468554688    85.3865   5   8   2.1451   2.0335   4.8077   0.5412   1.7680  -1.3833   0.00    0.0
2327 194871.000  -33.951446307   18.468550814    86.8612   5   8   2.1452   2.0336   4.8079   0.5410   1.7684  -1.3837   0.00    0.0
2327 194872.000  -33.951444595   18.468557890    84.3274   5   8   2.1454   2.0337   4.8081   0.5409   1.7688  -1.3842   0.00    0.0
2327 194873.000  -33.951451540   18.468549043    86.1365   5   8   2.1455   2.0337   4.8084   0.5408   1.7691  -1.3846   0.00    0.0
2327 194874.000  -33.951441282   18.468542766    86.1556   5   8   2.1456   2.0338   4.8086   0.5407   1.7695  -1.3851   0.00    0.0
2327 194875.000  -33.951447583   18.468552430    87.5193   5   8   2.1458   2.0339   4.8088   0.5406   1.7699  -1.3855   0.00    0.0
2327 194876.000  -33.951440165   18.468550246    84.7723   5   8   2.1459   2.0340   4.8090   0.5404   1.7702  -1.3859   0.00    0.0
2327 194877.000  -33.951445675   18.468555150    86.1908   5   8   2.1460   2.0341   4.8093   0.5403   1.7706  -1.3864   0.00    0.0
2327 194878.000  -33.951447718   18.468546100    85.8813   5   8   2.1462   2.0342   4.8095   0.5402   1.7709  -1.3868   0.00    0.0
2327 194879.000  -33.951449561   18.468559108    89.2126   5   8   2.1463   2.0343   4.8097   0.5401   1.7713  -1.3873   0.00    0.0
2327 194880.000  -33.951452766   18.468547672    86.7693   5   8   2.1464   2.0343   4.8099   0.5400   1.7717  -1.3877   0.00    0.0
2327 194881.000  -33.951451177   18.468550222    86.8579   5   8   2.1466   2.0344   4.8102   0.5399   1.7720  -1.3882   0.00    0.0
2327 194882.000  -33.951437391   18.468561537    85.4238   5   8   2.1467   2.0345   4.8104   0.5397   1.7724  -1.3886   0.00    0.0
2327 194883.000  -33.951441999   18.468550629    86.5051   5   8   2.1468   2.0346   4.8106   0.5396   1.7727  -1.3891   0.00    0.0
2327 194884.000  -33.951442063   18.468543753    85.8877   5   8   2.1470   2.0347   4.8108   0.5395   1.7731  -1.3895   0.00    0.0
2327 194885.000  -33.951449285   18.468547645    87.5186   5   8   2.1471   2.0348   4.8110   0.5394   1.7735  -1.3899   0.00    0.0
2327 194886.000  -33.951444067   18.468555097    86.8119   5   8   2.1472   2.0349   4.8113   0.5393   1.7738  -1.3904   0.00    0.0
2327 194887.000  -33.951443870   18.468554044    86.3742   5   8   2.1474   2.0349   4.8115   0.5391   1.7742  -1.3908   0.00    0.0
2327 194888.000  -33.951439356   18.468556924    85.9591   5   8   2.1475   2.0350   4.8117   0.5390   1.7745  -1.3913   0.00    0.0
2327 194889.000  -33.951448593   18.468543353    85.5942   5   8   2.1476   2.0351   4.8119   0.5389   1.7749  -1.3917   0.00    0.0
2327 194890.000  -33.951452764   18.468545831    84.9960   5   8   2.1478   2.0352   4.8122   0.5388   1.7753  -1.3922   0.00    0.0
2327 194891.000  -33.951439489   18.468547373    84.7914   5   8   2.1479   2.0353   4.8124   0.5387   1.7756  -1.3926   0.00    0.0
2327 194892.000  -33.951441741   18.468553105    85.3154   5   8   2.1480   2.0354   4.8126   0.5385   1.7760  -1.3930   0.00    0.0
2327 194893.000  -33.951449390   18.468565702    85.0789   5   8   2.1482   2.0355   4.8128   0.5384   1.7763  -1.3935   0.00    0.0
2327 194894.000  -33.951444912   18.468546845    85.7765   5   8   2.1483   2.0355   4.8130   0.5383   1.7767  -1.3939   0.00    0.0
2327 194895.000  -33.951447896   18.468553488    84.8226   5   8   2.1484   2.0356   4.8133   0.5382   1.7771  -1.3944   0.00    0.0
2327 194896.000  -33.951450444   18.468551264    85.7089   5   8   2.1486   2.0357   4.8135   0.5381   1.7774  -1.3948   0.00    0.0
2327 194897.000  -33.951443077   18.468549022    89.2138   5   8   2.1487   2.0358   4.8137   0.5379   1.7778  -1.3952   0.00    0.0
2327 194898.000  -33.951438146   18.468542177    85.9084   5   8   2.1488   2.0359   4.8139   0.5378   1.7781  -1.3957   0.00    0.0
2327 194899.000  -33.951452847   18.468555878    86.6164   5   8   2.1490   2.0360   4.8141   0.5377   1.7785  -1.3961   0.00    0.0
2327 194900.000  -33.951446900   18.468547496    84.2400   5   8   2.1491   2.0361   4.8144   0.5376   1.7788  -1.3966   0.00    0.0
2327 194901.000  -33.951441247   18.468542332    84.7339   5   8   2.1492   2.0361   4.8146   0.5375   1.7792  -1.3970   0.00    0.0
2327 194902.000  -33.951448029   18.468538628    84.7848   5   8   2.1494   2.0362   4.8148   0.5373   1.7796  -1.3974   0.00    0.0
2327 194903.000  -33.951444838   18.468546435    85.6844   5   8   2.1495   2.0363   4.8150   0.5372   1.7799  -1.3979   0.00    0.0
2327 194904.000  -33.951446726   18.468545783    85.1925   5   8   2.1496   2.0364   4.8152   0.5371   1.7803  -1.3983   0.00    0.0
2327 194905.000  -33.951448247   18.468551209    87.6478   5   8   2.1498   2.0365   4.8155   0.5370   1.7806  -1.3987   0.00    0.0
2327 194906.000  -33.951448068   18.468566748    88.8199   5   8   2.1499   2.0366   4.8157   0.5369   1.7810  -1.3992   0.00    0.0
2327 194907.000  -33.951446596   18.468549463    84.8958   5   8   2.1500   2.0367   4.8159   0.5367   1.7813  -1.3996   0.00    0.0
2327 194908.000  -33.951443373   18.468552087    85.4882   5   8   2.1502   2.0368   4.8161   0.5366   1.7817  -1.4000   0.00    0.0
2327 194909.000  -33.951442938   18.468554357    86.4019   5   8   2.1503   2.0368   4.8163   0.5365   1.7821  -1.4005   0.00    0.0
2327 194910.000  -33.951442574   18.468564890    88.4698   5   8   2.1504   2.0369   4.8165   0.5364   1.7824  -1.4009   0.00    0.0
2327 194911.000  -33.951438060   18.468554248    86.5544   5   8   2.1506   2.0370   4.8168   0.5362   1.7828  -1.4014   0.00    0.0
2327 194912.000  -33.951439282   18.468545498    86.7031   5   8   2.1507   2.0371   4.8170   0.5361   1.7831  -1.4018   0.00    0.0
2327 194913.000  -33.951440730   18.468540311    84.9879   5   8   2.1508   2.0372   4.8172   0.5360   1.7835  -1.4022   0.00    0.0
2327 194914.000  -33.951442757   18.468549929    84.4767   5   8   2.1510   2.0373   4.8174   0.5359   1.7839  -1.4027   0.00    0.0
2327 194915.000  -33.951450390   18.468548880    86.8581   5   8   2.1511   2.0374   4.8176   0.5358   1.7842  -1.4031   0.00    0.0
2327 194916.000  -33.951440014   18.468553009    85.4188   5   8   2.1512   2.0375   4.8178   0.5356   1.7846  -1.4035   0.00    0.0
2327 194917.000  -33.951442791   18.468546633    87.4165   5   8   2.1514   2.0375   4.8181   0.5355   1.7849  -1.4040   0.00    0.0
2327 194918.000  -33.951444750   18.468551029    85.8624   5   8   2.1515   2.0376   4.8183   0.5354   1.7853  -1.4044   0.00    0.0
2327 194919.000  -33.951445269   18.468546907    86.0984   5   8   2.1517   2.0377   4.8185   0.5353   1.7856  -1.4048   0.00    0.0
2327 194920.000  -33.951448781   18.468562465    87.9693   5   8   2.1518   2.0378   4.8187   0.5352   1.7860  -1.4052   0.00    0.0
2327 194921.000  -33.951439066   18.468548451    83.5715   5   8   2.1519   2.0379   4.8189   0.5350   1.7863  -1.4057   0.00    0.0
2327 194922.000  -33.951432900   18.468548274    85.7584   5   8   2.1521   2.0380   4.8191   0.5349   1.7867  -1.4061   0.00    0.0
2327 194923.000  -33.951445370   18.468545682    84.2207   5   8   2.1522   2.0381   4.8193   0.5348   1.7871  -1.4065   0.00    0.0
2327 194924.000  -33.951446986   18.468549812    85.8213   5   8   2.1523   2.0381   4.8196   0.5347   1.7874  -1.4070   0.00    0.0
2327 194925.000  -33.951450892   18.468541565    86.2500   5   8   2.1525   2.0382   4.8198   0.5346   1.7878  -1.4074   0.00    0.0
2327 194926.000  -33.951440233   18.468550564    86.3105   5   8   2.1526   2.0383   4.8200   0.5344   1.7881  -1.4078   0.00    0.0
2327 194927.000  -33.951441190   18.468553531    87.3596   5   8   2.1527   2.0384   4.8202   0.5343   1.7885  -1.4083   0.00    0.0
2327 194928.000  -33.951443423   18.468549711    88.1318   5   8   2.1529   2.0385   4.8204   0.5342   1.7888  -1.4087   0.00    0.0
2327 194929.000  -33.951447927   18.468548688    85.8404   5   8   2.1530   2.0386   4.8206   0.5341   1.7892  -1.4091   0.00    0.0
2327 194930.000  -33.951448602   18.468551014    86.6605   5   8   2.1531   2.0387   4.8208   0.5340   1.7895  -1.4095   0.00    0.0
2327 194931.000  -33.951441816   18.468549336    88.5145   5   8   2.1533   2.0388   4.8211   0.5338   1.7899  -1.4100   0.00    0.0
2327 194932.000  -33.951442377   18.468550942    85.8701   5   8   2.1534   2.0388   4.8213   0.5337   1.7903  -1.4104   0.00    0.0
2327 194933.000  -33.951443357   18.468557389    84.1175   5   8   2.1535   2.0389   4.8215   0.5336   1.7906  -1.4108   0.00    0.0
2327 194934.000  -33.951435797   18.468554567    84.4761   5   8   2.1537   2.0390   4.8217   0.5335   1.7910  -1.4113   0.00    0.0
2327 194935.000  -33.951444689   18.468551632    82.6751   5   8   2.1538   2.0391   4.8219   0.5334   1.7913  -1.4117   0.00    0.0
2327 194936.000  -33.951453587   18.468550777    84.5020   5   8   2.1539   2.0392   4.8221   0.5332   1.7917  -1.4121   0.00    0.0
2327 194937.000  -33.951447341   18.468548389    86.0938   5   8   2.1541   2.0393   4.8223   0.5331   1.7920  -1.4125   0.00    0.0
2327 194938.000  -33.951445653   18.468556226    84.6805   5   8   2.1542   2.0394   4.8225   0.5330   1.7924  -1.4130   0.00    0.0
2327 194939.000  -33.951442430   18.468560108    87.3699   5   8   2.1544   2.0395   4.8227   0.5329   1.7927  -1.4134   0.00    0.0
2327 194940.000  -33.951445928   18.468549533    85.1830   5   8   2.1545   2.0395   4.8230   0.5327   1.7931  -1.4138   0.00    0.0
2327 194941.000  -33.951437707   18.468547400    86.5491   5   8   2.1546   2.0396   4.8232   0.5326   1.7934  -1.4142   0.00    0.0
2327 194942.000  -33.951441620   18.468547744    84.4273   5   8   2.1548   2.0397   4.8234   0.5325   1.7938  -1.4147   0.00    0.0
2327 194943.000  -33.951446680   18.468551516    85.1047   5   8   2.1549   2.0398   4.8236   0.5324   1.7942  -1.4151   0.00    0.0
2327 194944.000  -33.951447738   18.468553756    85.6618   5   8   2.1550   2.0399   4.8238   0.5323   1.7945  -1.4155   0.00    0.0
2327 194945.000  -33.951444660   18.468558362    85.5399   5   8   2.1552   2.0400   4.8240   0.5321   1.7949  -1.4159   0.00    0.0
2327 194946.000  -33.951445442   18.468543737    86.2522   5   8   2.1553   2.0401   4.8242   0.5320   1.7952  -1.4164   0.00    0.0
2327 194947.000  -33.951439925   18.468539768    83.4136   5   8   2.1554   2.0402   4.8244   0.5319   1.7956  -1.4168   0.00    0.0
2327 194948.000  -33.951445173   18.468539089    83.9837   5   8   2.1556   2.0403   4.8246   0.5318   1.7959  -1.4172   0.00    0.0
2327 194949.000  -33.951450460   18.468538366    84.7033   5   8   2.1557   2.0403   4.8248   0.5317   1.7963  -1.4176   0.00    0.0
2327 194950.000  -33.951440178   18.468556940    87.1181   5   8   2.1558   2.0404   4.8250   0.5315   1.7966  -1.4181   0.00    0.0
2327 194951.000  -33.951437632   18.468559006    86.4961   5   8   2.1560   2.0405   4.8253   0.5314   1.7970  -1.4185   0.00    0.0
2327 194952.000  -33.951444449   18.468546337    84.3673   5   8   2.1561   2.0406   4.8255   0.5313   1.7973  -1.4189   0.00    0.0
2327 194953.000  -33.951435510   18.468541465    83.4354   5   8   2.1563   2.0407   4.8257   0.5312   1.7977  -1.4193   0.00    0.0
2327 194954.000  -33.951442207   18.468551425    85.1298   5   8   2.1564   2.0408   4.8259   0.5310   1.7980  -1.4197   0.00    0.0
2327 194955.000  -33.951449023   18.468554846    84.0689   5   8   2.1565   2.0409   4.8261   0.5309   1.7984  -1.4202   0.00    0.0
2327 194956.000  -33.951444008   18.468556816    84.2520   5   8   2.1567   2.0410   4.8263   0.5308   1.7987  -1.4206   0.00    0.0
2327 194957.000  -33.951438143   18.468549592    85.0590   5   8   2.1568   2.0410   4.8265   0.5307   1.7991  -1.4210   0.00    0.0
2327 194958.000  -33.951445703   18.468552331    87.8721   5   8   2.1569   2.0411   4.8267   0.5306   1.7994  -1.4214   0.00    0.0
2327 194959.000  -33.951437527   18.468547093    83.4648   5   8   2.1571   2.0412   4.8269   0.5304   1.7998  -1.4218   0.00    0.0
2327 194960.000  -33.951438787   18.468550779    85.8697   5   8   2.1572   2.0413   4.8271   0.5303   1.8001  -1.4223   0.00    0.0
2327 194961.000  -33.951439194   18.468549869    84.3975   5   8   2.1573   2.0414   4.8273   0.5302   1.8005  -1.4227   0.00    0.0
2327 194962.000  -33.951445433   18.468549932    85.5111   5   8   2.1575   2.0415   4.8275   0.5301   1.8008  -1.4231   0.00    0.0
2327 194963.000  -33.951445916   18.468550105    85.6415   5   8   2.1576   2.0416   4.8277   0.5300   1.8012  -1.4235   0.00    0.0
2327 194964.000  -33.951444820   18.468555740    86.8549   5   8   2.1578   2.0417   4.8279   0.5298   1.8016  -1.4239   0.00    0.0
2327 194965.000  -33.951441167   18.468555287    86.9091   5   8   2.1579   2.0418   4.8281   0.5297   1.8019  -1.4243   0.00    0.0
2327 194966.000  -33.951443468   18.468556129    84.2903   5   8   2.1580   2.0418   4.8283   0.5296   1.8023  -1.4248   0.00    0.0
2327 194967.000  -33.951437299   18.468544929    85.0503   5   8   2.1582   2.0419   4.8286   0.5295   1.8026  -1.4252   0.00    0.0
2327 194968.000  -33.951436866   18.468552748    84.6730   5   8   2.1583   2.0420   4.8288   0.5293   1.8030  -1.4256   0.00    0.0
2327 194969.000  -33.951436358   18.468556452    84.3280   5   8   2.1584   2.0421   4.8290   0.5292   1.8033  -1.4260   0.00    0.0
2327 194970.000  -33.951433759   18.468555520    84.5396   5   8   2.1586   2.0422   4.8292   0.5291   1.8037  -1.4264   0.00    0.0
2327 194971.000  -33.951435480   18.468548793    84.2729   5   8   2.1587   2.0423   4.8294   0.5290   1.8040  -1.4268   0.00    0.0
2327 194972.000  -33.951435248   18.468541081    83.6786   5   8   2.1588   2.0424   4.8296   0.5289   1.8044  -1.4273   0.00    0.0
2327 194973.000  -33.951440726   18.468546089    84.6485   5   8   2.1590   2.0425   4.8298   0.5287   1.8047  -1.4277   0.00    0.0
2327 194974.000  -33.951433266   18.468561598    83.6440   5   8   2.1591   2.0426   4.8300   0.5286   1.8051  -1.4281   0.00    0.0
2327 194975.000  -33.951427486   18.468552801    85.6025   5   8   2.1593   2.0426   4.8302   0.5285   1.8054  -1.4285   0.00    0.0
2327 194976.000  -33.951440946   18.468556872    87.9959   5   8   2.1594   2.0427   4.8304   0.5284   1.8058  -1.4289   0.00    0.0
2327 194977.000  -33.951447425   18.468540163    84.5715   5   8   2.1595   2.0428   4.8306   0.5283   1.8061  -1.4293   0.00    0.0
2327 194978.000  -33.951446733   18.468552706    87.6297   5   8   2.1597   2.0429   4.8308   0.5281   1.8065  -1.4297   0.00    0.0
2327 194979.000  -33.951438597   18.468554290    85.3815   5   8   2.1598   2.0430   4.8310   0.5280   1.8068  -1.4301   0.00    0.0
2327 194980.000  -33.951433110   18.468550951    84.7455   5   8   2.1599   2.0431   4.8312   0.5279   1.8072  -1.4306   0.00    0.0
2327 194981.000  -33.951434917   18.468550380    86.0825   5   8   2.1601   2.0432   4.8314   0.5278   1.8075  -1.4310   0.00    0.0
2327 194982.000  -33.951433702   18.468554059    85.6689   5   8   2.1602   2.0433   4.8316   0.5276   1.8079  -1.4314   0.00    0.0
2327 194983.000  -33.951436935   18.468552825    87.3919   5   8   2.1603   2.0434   4.8318   0.5275   1.8082  -1.4318   0.00    0.0
2327 194984.000  -33.951430473   18.468549306    86.4356   5   8   2.1605   2.0434   4.8320   0.5274   1.8086  -1.4322   0.00    0.0
2327 194985.000  -33.951443814   18.468544584    84.7627   5   8   2.1606   2.0435   4.8322   0.5273   1.8089  -1.4326   0.00    0.0
2327 194986.000  -33.951445375   18.468542515    83.4021   5   8   2.1608   2.0436   4.8324   0.5272   1.8093  -1.4330   0.00    0.0
2327 194987.000  -33.951440574   18.468552458    84.1750   5   8   2.1609   2.0437   4.8326   0.5270   1.8096  -1.4334   0.00    0.0
2327 194988.000  -33.951430298   18.468551521    85.1059   5   8   2.1610   2.0438   4.8328   0.5269   1.8099  -1.4338   0.00    0.0
2327 194989.000  -33.951438429   18.468550889    87.7752   5   8   2.1612   2.0439   4.8330   0.5268   1.8103  -1.4343   0.00    0.0
2327 194990.000  -33.951431359   18.468549005    84.7497   5   8   2.1613   2.0440   4.8332   0.5267   1.8106  -1.4347   0.00    0.0
2327 194991.000  -33.951433713   18.468551215    87.1032   5   8   2.1614   2.0441   4.8334   0.5265   1.8110  -1.4351   0.00    0.0
2327 194992.000  -33.951438103   18.468546188    85.6472   5   8   2.1616   2.0442   4.8336   0.5264   1.8113  -1.4355   0.00    0.0
2327 194993.000  -33.951442596   18.468550574    85.3226   5   8   2.1617   2.0442   4.8338   0.5263   1.8117  -1.4359   0.00    0.0
2327 194994.000  -33.951446007   18.468547156    84.3330   5   8   2.1619   2.0443   4.8340   0.5262   1.8120  -1.4363   0.00    0.0
2327 194995.000  -33.951453038   18.468542700    86.3629   5   8   2.1620   2.0444   4.8342   0.5261   1.8124  -1.4367   0.00    0.0
2327 194996.000  -33.951435734   18.468548592    86.8170   5   8   2.1621   2.0445   4.8344   0.5259   1.8127  -1.4371   0.00    0.0
2327 194997.000  -33.951432173   18.468556146    87.8230   5   8   2.1623   2.0446   4.8346   0.5258   1.8131  -1.4375   0.00    0.0
2327 194998.000  -33.951441225   18.468561417    86.8790   5   8   2.1624   2.0447   4.8348   0.5257   1.8134  -1.4379   0.00    0.0
2327 194999.000  -33.951440837   18.468555498    84.4067   5   8   2.1625   2.0448   4.8350   0.5256   1.8138  -1.4383   0.00    0.0
2327 195000.000  -33.951441542   18.468555401    85.5735   5   8   2.1627   2.0449   4.8352   0.5255   1.8141  -1.4387   0.00    0.0
2327 195001.000  -33.951445544   18.468550253    85.4109   5   8   2.1628   2.0450   4.8354   0.5253   1.8145  -1.4391   0.00    0.0
2327 195002.000  -33.951443240   18.468550327    84.1494   5   8   2.1630   2.0450   4.8356   0.5252   1.8148  -1.4395   0.00    0.0
2327 195003.000  -33.951442311   18.468548837    86.0235   5   8   2.1631   2.0451   4.8357   0.5251   1.8152  -1.4399   0.00    0.0
2327 195004.000  -33.951449816   18.468553293    85.4767   5   8   2.1632   2.0452   4.8359   0.5250   1.8155  -1.4403   0.00    0.0
2327 195005.000  -33.951442520   18.468550865    84.2479   5   8   2.1634   2.0453   4.8361   0.5248   1.8159  -1.4408   0.00    0.0
2327 195006.000  -33.951446941   18.468557236    85.1716   5   8   2.1635   2.0454   4.8363   0.5247   1.8162  -1.4412   0.00    0.0
2327 195007.000  -33.951433019   18.468558943    84.2034   5   8   2.1636   2.0455   4.8365   0.5246   1.8165  -1.4416   0.00    0.0
2327 195008.000  -33.951443322   18.468551287    85.4097   5   8   2.1638   2.0456   4.8367   0.5245   1.8169  -1.4420   0.00    0.0
2327 195009.000  -33.951436896   18.468558201    85.1506   5   8   2.1639   2.0457   4.8369   0.5244   1.8172  -1.4424   0.00    0.0
2327 195010.000  -33.951440441   18.468554019    85.8601   5   8   2.1641   2.0458   4.8371   0.5242   1.8176  -1.4428   0.00    0.0
2327 195011.000  -33.951449665   18.468557220    85.3712   5   8   2.1642   2.0459   4.8373   0.5241   1.8179  -1.4432   0.00    0.0
2327 195012.000  -33.951443540   18.468550288    84.7706   5   8   2.1643   2.0459   4.8375   0.5240   1.8183  -1.4436   0.00    0.0
2327 195013.000  -33.951442258   18.468556409    85.1326   5   8   2.1645   2.0460   4.8377   0.5239   1.8186  -1.4440   0.00    0.0
2327 195014.000  -33.951443038   18.468554625    87.1139   5   8   2.1646   2.0461   4.8379   0.5237   1.8190  -1.4444   0.00    0.0
2327 195015.000  -33.951442026   18.468554740    86.5586   5   8   2.1647   2.0462   4.8381   0.5236   1.8193  -1.4448   0.00    0.0
2327 195016.000  -33.951437233   18.468554530    85.4294   5   8   2.1649   2.0463   4.8383   0.5235   1.8197  -1.4452   0.00    0.0
2327 195017.000  -33.951442791   18.468557478    85.4253   5   8   2.1650   2.0464   4.8385   0.5234   1.8200  -1.4456   0.00    0.0
2327 195018.000  -33.951439003   18.468556814    85.7256   5   8   2.1652   2.0465   4.8387   0.5233   1.8203  -1.4460   0.00    0.0
2327 195019.000  -33.951444941   18.468550865    86.7419   5   8   2.1653   2.0466   4.8388   0.5231   1.8207  -1.4464   0.00    0.0
2327 195020.000  -33.951438021   18.468549098    85.3009   5   8   2.1654   2.0467   4.8390   0.5230   1.8210  -1.4468   0.00    0.0
2327 195021.000  -33.951441846   18.468555973    86.0605   5   8   2.1656   2.0468   4.8392   0.5229   1.8214  -1.4472   0.00    0.0
2327 195022.000  -33.951439283   18.468565579    86.5864   5   8   2.1657   2.0468   4.8394   0.5228   1.8217  -1.4476   0.00    0.0
2327 195023.000  -33.951442177   18.468559426    86.4226   5   8   2.1659   2.0469   4.8396   0.5226   1.8221  -1.4480   0.00    0.0
2327 195024.000  -33.951437055   18.468554720    85.9882   5   8   2.1660   2.0470   4.8398   0.5225   1.8224  -1.4484   0.00    0.0
2327 195025.000  -33.951437076   18.468555069    85.9986   5   8   2.1661   2.0471   4.8400   0.5224   1.8228  -1.4488   0.00    0.0
2327 195026.000  -33.951436998   18.468551673    85.5801   5   8   2.1663   2.0472   4.8402   0.5223   1.8231  -1.4492   0.00    0.0
2327 195027.000  -33.951444559   18.468552196    85.1175   5   8   2.1664   2.0473   4.8404   0.5222   1.8234  -1.4496   0.00    0.0
2327 195028.000  -33.951441476   18.468545541    86.3622   5   8   2.1665   2.0474   4.8406   0.5220   1.8238  -1.4500   0.00    0.0
2327 195029.000  -33.951447653   18.468546575    86.0587   5   8   2.1667   2.0475   4.8408   0.5219   1.8241  -1.4503   0.00    0.0
2327 195030.000  -33.951442922   18.468553756    86.3808   5   8   2.1668   2.0476   4.8409   0.5218   1.8245  -1.4507   0.00    0.0
2327 195031.000  -33.951437701   18.468554755    86.9546   5   8   2.1670   2.0477   4.8411   0.5217   1.8248  -1.4511   0.00    0.0
2327 195032.000  -33.951437825   18.468555684    85.2058   5   8   2.1671   2.0477   4.8413   0.5215   1.8252  -1.4515   0.00    0.0
2327 195033.000  -33.951439546   18.468557984    85.9513   5   8   2.1672   2.0478   4.8415   0.5214   1.8255  -1.4519   0.00    0.0
2327 195034.000  -33.951444791   18.468548990    85.7380   5   8   2.1674   2.0479   4.8417   0.5213   1.8258  -1.4523   0.00    0.0
2327 195035.000  -33.951444474   18.468557934    88.0232   5   8   2.1675   2.0480   4.8419   0.5212   1.8262  -1.4527   0.00    0.0
2327 195036.000  -33.951438643   18.468551830    83.5650   5   8   2.1676   2.0481   4.8421   0.5211   1.8265  -1.4531   0.00    0.0
2327 195037.000  -33.951441151   18.468563252    85.3630   5   8   2.1678   2.0482   4.8423   0.5209   1.8269  -1.4535   0.00    0.0
2327 195038.000  -33.951444669   18.468558506    86.4209   5   8   2.1679   2.0483   4.8424   0.5208   1.8272  -1.4539   0.00    0.0
2327 195039.000  -33.951445212   18.468551050    85.0426   5   8   2.1681   2.0484   4.8426   0.5207   1.8276  -1.4543   0.00    0.0
2327 195040.000  -33.951437016   18.468565969    86.0623   5   8   2.1682   2.0485   4.8428   0.5206   1.8279  -1.4547   0.00    0.0
2327 195041.000  -33.951440208   18.468564866    85.3325   5   8   2.1683   2.0486   4.8430   0.5204   1.8282  -1.4551   0.00    0.0
2327 195042.000  -33.951439904   18.468571606    87.0760   5   8   2.1685   2.0487   4.8432   0.5203   1.8286  -1.4555   0.00    0.0
2327 195043.000  -33.951440310   18.468552111    87.4470   5   8   2.1686   2.0487   4.8434   0.5202   1.8289  -1.4559   0.00    0.0
2327 195044.000  -33.951437546   18.468546856    85.8566   5   8   2.1688   2.0488   4.8436   0.5201   1.8293  -1.4563   0.00    0.0
2327 195045.000  -33.951444196   18.468548618    84.4556   5   8   2.1689   2.0489   4.8438   0.5200   1.8296  -1.4566   0.00    0.0
2327 195046.000  -33.951455275   18.468555598    86.2438   5   8   2.1690   2.0490   4.8439   0.5198   1.8299  -1.4570   0.00    0.0
2327 195047.000  -33.951443261   18.468559963    83.9359   5   8   2.1692   2.0491   4.8441   0.5197   1.8303  -1.4574   0.00    0.0
2327 195048.000  -33.951447532   18.468543851    84.4766   5   8   2.1693   2.0492   4.8443   0.5196   1.8306  -1.4578   0.00    0.0
2327 195049.000  -33.951444544   18.468551392    84.2115   5   8   2.1695   2.0493   4.8445   0.5195   1.8310  -1.4582   0.00    0.0
2327 195050.000  -33.951444521   18.468546392    85.3502   5   8   2.1696   2.0494   4.8447   0.5193   1.8313  -1.4586   0.00    0.0
2327 195051.000  -33.951445049   18.468551126    85.1729   5   8   2.1697   2.0495   4.8449   0.5192   1.8317  -1.4590   0.00    0.0
