% program   : RTKPOST ver.2.4.3 b34
% inp file  : C:\rtklib_realTime_PPP\to_obs-nav_dop\CTWN00ZAF0_A00GMV0_202408130603\CTWN00ZAF0_obs_202408130603.obs
% inp file  : C:\rtklib_realTime_PPP\to_obs-nav_dop\CTWN00ZAF0_A00GMV0_202408130603\CTWN00ZAF_nav_202408130603.nav
% inp file  : C:\rtklib_realTime_PPP\to_obs-nav_dop\CTWN00ZAF0_A00GMV0_202408130603\IGS0OPSULT_20242260600_02D_15M_ORB.SP3
% obs start : 2024/08/13 06:03:31.0 GPST (week2327 194611.0s)
% obs end   : 2024/08/13 12:05:28.0 GPST (week2327 216328.0s)
% pos mode  : Single
% elev mask : 15.0 deg
% ionos opt : Iono-Free LC
% tropo opt : Saastamoinen
% ephemeris : Precise
% navi sys  : GPS
%
% (lat/lon/height=WGS84/ellipsoidal,Q=1:fix,2:float,3:sbas,4:dgps,5:single,6:ppp,ns=# of satellites)
%  GPST          latitude(deg) longitude(deg)  height(m)   Q  ns   sdn(m)   sde(m)   sdu(m)  sdne(m)  sdeu(m)  sdun(m) age(s)  ratio
2327 194611.000  -33.951450897   18.468566421    86.6558   5   8   1.1626   1.1406   2.6284   0.2706   0.8755  -0.6143   0.00    0.0
2327 194612.000  -33.951455514   18.468566310    84.7643   5   8   1.1627   1.1407   2.6287   0.2705   0.8758  -0.6145   0.00    0.0
2327 194613.000  -33.951456089   18.468561506    84.7859   5   8   1.1628   1.1408   2.6291   0.2705   0.8760  -0.6148   0.00    0.0
2327 194614.000  -33.951452172   18.468559028    82.4507   5   8   1.1630   1.1410   2.6294   0.2705   0.8763  -0.6150   0.00    0.0
2327 194615.000  -33.951446744   18.468569588    85.3117   5   8   1.1631   1.1411   2.6297   0.2705   0.8766  -0.6153   0.00    0.0
2327 194616.000  -33.951447119   18.468559568    85.7305   5   8   1.1633   1.1412   2.6300   0.2704   0.8768  -0.6155   0.00    0.0
2327 194617.000  -33.951447715   18.468564458    86.5614   5   8   1.1634   1.1413   2.6304   0.2704   0.8771  -0.6158   0.00    0.0
2327 194618.000  -33.951451964   18.468565272    85.1599   5   8   1.1635   1.1414   2.6307   0.2704   0.8774  -0.6160   0.00    0.0
2327 194619.000  -33.951454578   18.468569532    84.4790   5   8   1.1637   1.1415   2.6310   0.2704   0.8776  -0.6163   0.00    0.0
2327 194620.000  -33.951444777   18.468575103    85.7803   5   8   1.1638   1.1417   2.6314   0.2703   0.8779  -0.6165   0.00    0.0
2327 194621.000  -33.951444247   18.468563029    86.2310   5   8   1.1640   1.1418   2.6317   0.2703   0.8781  -0.6168   0.00    0.0
2327 194622.000  -33.951441524   18.468563313    85.1215   5   8   1.1641   1.1419   2.6320   0.2703   0.8784  -0.6170   0.00    0.0
2327 194623.000  -33.951441607   18.468556835    84.4656   5   8   1.1643   1.1420   2.6324   0.2703   0.8787  -0.6173   0.00    0.0
2327 194624.000  -33.951441261   18.468555106    84.0244   5   8   1.1644   1.1421   2.6327   0.2702   0.8789  -0.6175   0.00    0.0
2327 194625.000  -33.951445991   18.468567152    86.1848   5   8   1.1646   1.1422   2.6331   0.2702   0.8792  -0.6178   0.00    0.0
2327 194626.000  -33.951444370   18.468561886    85.5613   5   8   1.1647   1.1424   2.6334   0.2702   0.8795  -0.6180   0.00    0.0
2327 194627.000  -33.951442647   18.468563378    84.9626   5   8   1.1648   1.1425   2.6337   0.2702   0.8797  -0.6183   0.00    0.0
2327 194628.000  -33.951445769   18.468561128    87.3900   5   8   1.1650   1.1426   2.6341   0.2701   0.8800  -0.6185   0.00    0.0
2327 194629.000  -33.951452935   18.468562904    85.0195   5   8   1.1651   1.1427   2.6344   0.2701   0.8803  -0.6188   0.00    0.0
2327 194630.000  -33.951451544   18.468558409    85.1027   5   8   1.1653   1.1428   2.6348   0.2701   0.8805  -0.6191   0.00    0.0
2327 194631.000  -33.951448069   18.468559673    85.8122   5   8   1.1654   1.1430   2.6351   0.2701   0.8808  -0.6193   0.00    0.0
2327 194632.000  -33.951450130   18.468568211    85.4450   5   8   1.1656   1.1431   2.6354   0.2701   0.8811  -0.6196   0.00    0.0
2327 194633.000  -33.951439608   18.468555369    84.9744   5   8   1.1657   1.1432   2.6358   0.2700   0.8813  -0.6198   0.00    0.0
2327 194634.000  -33.951442474   18.468552453    85.5306   5   8   1.1659   1.1433   2.6361   0.2700   0.8816  -0.6201   0.00    0.0
2327 194635.000  -33.951452481   18.468561328    87.5534   5   8   1.1660   1.1435   2.6365   0.2700   0.8819  -0.6203   0.00    0.0
2327 194636.000  -33.951443888   18.468561659    86.0449   5   8   1.1662   1.1436   2.6368   0.2700   0.8821  -0.6206   0.00    0.0
2327 194637.000  -33.951444550   18.468560672    85.4132   5   8   1.1663   1.1437   2.6372   0.2699   0.8824  -0.6208   0.00    0.0
2327 194638.000  -33.951443152   18.468562022    85.0660   5   8   1.1665   1.1438   2.6375   0.2699   0.8827  -0.6211   0.00    0.0
2327 194639.000  -33.951445234   18.468560621    86.3495   5   8   1.1666   1.1440   2.6379   0.2699   0.8830  -0.6214   0.00    0.0
2327 194640.000  -33.951444761   18.468566050    86.3657   5   8   1.1668   1.1441   2.6382   0.2699   0.8832  -0.6216   0.00    0.0
2327 194641.000  -33.951447989   18.468562182    86.3325   5   8   1.1669   1.1442   2.6386   0.2699   0.8835  -0.6219   0.00    0.0
2327 194642.000  -33.951436759   18.468563068    87.4359   5   8   1.1671   1.1443   2.6390   0.2698   0.8838  -0.6221   0.00    0.0
2327 194643.000  -33.951450746   18.468558640    86.2847   5   8   1.1673   1.1445   2.6393   0.2698   0.8840  -0.6224   0.00    0.0
2327 194644.000  -33.951443212   18.468565160    86.9658   5   8   1.1674   1.1446   2.6397   0.2698   0.8843  -0.6226   0.00    0.0
2327 194645.000  -33.951448439   18.468563322    86.5478   5   8   1.1676   1.1447   2.6400   0.2698   0.8846  -0.6229   0.00    0.0
2327 194646.000  -33.951447616   18.468566088    85.2751   5   8   1.1677   1.1449   2.6404   0.2698   0.8849  -0.6232   0.00    0.0
2327 194647.000  -33.951452349   18.468560399    87.0893   5   8   1.1679   1.1450   2.6408   0.2697   0.8851  -0.6234   0.00    0.0
2327 194648.000  -33.951445990   18.468559488    88.4910   5   8   1.1680   1.1451   2.6411   0.2697   0.8854  -0.6237   0.00    0.0
2327 194649.000  -33.951439427   18.468552828    84.1713   5   8   1.1682   1.1453   2.6415   0.2697   0.8857  -0.6239   0.00    0.0
2327 194650.000  -33.951447103   18.468562971    84.6377   5   8   1.1684   1.1454   2.6418   0.2697   0.8860  -0.6242   0.00    0.0
2327 194651.000  -33.951448944   18.468566519    87.3580   5   8   1.1685   1.1455   2.6422   0.2697   0.8862  -0.6245   0.00    0.0
2327 194652.000  -33.951456224   18.468562828    86.5293   5   8   1.1687   1.1456   2.6426   0.2697   0.8865  -0.6247   0.00    0.0
2327 194653.000  -33.951453170   18.468561702    84.8177   5   8   1.1688   1.1458   2.6429   0.2696   0.8868  -0.6250   0.00    0.0
2327 194654.000  -33.951445954   18.468556353    84.5174   5   8   1.1690   1.1459   2.6433   0.2696   0.8871  -0.6252   0.00    0.0
2327 194655.000  -33.951449944   18.468560232    86.2371   5   8   1.1692   1.1460   2.6437   0.2696   0.8873  -0.6255   0.00    0.0
2327 194656.000  -33.951451160   18.468560324    84.1853   5   8   1.1693   1.1462   2.6440   0.2696   0.8876  -0.6258   0.00    0.0
2327 194657.000  -33.951442582   18.468548991    83.8707   5   8   1.1695   1.1463   2.6444   0.2696   0.8879  -0.6260   0.00    0.0
2327 194658.000  -33.951453723   18.468554321    86.3135   5   8   1.1696   1.1464   2.6448   0.2695   0.8882  -0.6263   0.00    0.0
2327 194659.000  -33.951454232   18.468565278    87.3843   5   8   1.1698   1.1466   2.6452   0.2695   0.8885  -0.6265   0.00    0.0
2327 194660.000  -33.951449685   18.468567756    84.9401   5   8   1.1700   1.1467   2.6455   0.2695   0.8887  -0.6268   0.00    0.0
2327 194661.000  -33.951449090   18.468567730    84.1951   5   8   1.1701   1.1469   2.6459   0.2695   0.8890  -0.6271   0.00    0.0
2327 194662.000  -33.951448689   18.468563955    85.3651   5   8   1.1703   1.1470   2.6463   0.2695   0.8893  -0.6273   0.00    0.0
2327 194663.000  -33.951446585   18.468561162    83.7149   5   8   1.1705   1.1471   2.6467   0.2695   0.8896  -0.6276   0.00    0.0
2327 194664.000  -33.951442165   18.468555909    85.8900   5   8   1.1706   1.1473   2.6470   0.2694   0.8899  -0.6279   0.00    0.0
2327 194665.000  -33.951448124   18.468558121    85.3279   5   8   1.1708   1.1474   2.6474   0.2694   0.8901  -0.6281   0.00    0.0
2327 194666.000  -33.951445220   18.468563800    85.4454   5   8   1.1710   1.1475   2.6478   0.2694   0.8904  -0.6284   0.00    0.0
2327 194667.000  -33.951442261   18.468555956    85.5109   5   8   1.1711   1.1477   2.6482   0.2694   0.8907  -0.6287   0.00    0.0
2327 194668.000  -33.951439744   18.468565048    85.3636   5   8   1.1713   1.1478   2.6486   0.2694   0.8910  -0.6289   0.00    0.0
2327 194669.000  -33.951452127   18.468557690    84.4043   5   8   1.1715   1.1480   2.6489   0.2694   0.8913  -0.6292   0.00    0.0
2327 194670.000  -33.951452440   18.468557602    87.1504   5   8   1.1716   1.1481   2.6493   0.2693   0.8915  -0.6294   0.00    0.0
2327 194671.000  -33.951445262   18.468560148    85.8454   5   8   1.1718   1.1482   2.6497   0.2693   0.8918  -0.6297   0.00    0.0
2327 194672.000  -33.951449013   18.468557331    86.2867   5   8   1.1720   1.1484   2.6501   0.2693   0.8921  -0.6300   0.00    0.0
2327 194673.000  -33.951457127   18.468554221    85.1600   5   8   1.1721   1.1485   2.6505   0.2693   0.8924  -0.6302   0.00    0.0
2327 194674.000  -33.951448587   18.468558053    85.7616   5   8   1.1723   1.1487   2.6509   0.2693   0.8927  -0.6305   0.00    0.0
2327 194675.000  -33.951446246   18.468563291    82.6946   5   8   1.1725   1.1488   2.6513   0.2693   0.8930  -0.6308   0.00    0.0
2327 194676.000  -33.951440378   18.468555241    84.1775   5   8   1.1727   1.1490   2.6517   0.2693   0.8933  -0.6310   0.00    0.0
2327 194677.000  -33.951447312   18.468557830    84.6905   5   8   1.1728   1.1491   2.6520   0.2692   0.8935  -0.6313   0.00    0.0
2327 194678.000  -33.951440104   18.468563224    86.3482   5   8   1.1730   1.1492   2.6524   0.2692   0.8938  -0.6316   0.00    0.0
2327 194679.000  -33.951439340   18.468558044    85.3000   5   8   1.1732   1.1494   2.6528   0.2692   0.8941  -0.6318   0.00    0.0
2327 194680.000  -33.951448126   18.468564136    84.9591   5   8   1.1734   1.1495   2.6532   0.2692   0.8944  -0.6321   0.00    0.0
2327 194681.000  -33.951447701   18.468557046    82.2648   5   8   1.1735   1.1497   2.6536   0.2692   0.8947  -0.6324   0.00    0.0
2327 194682.000  -33.951455216   18.468552402    86.0909   5   8   1.1737   1.1498   2.6540   0.2692   0.8950  -0.6326   0.00    0.0
2327 194683.000  -33.951444914   18.468553039    85.2050   5   8   1.1739   1.1500   2.6544   0.2692   0.8953  -0.6329   0.00    0.0
2327 194684.000  -33.951455200   18.468559445    86.1927   5   8   1.1741   1.1501   2.6548   0.2691   0.8956  -0.6332   0.00    0.0
2327 194685.000  -33.951440860   18.468560995    84.1510   5   8   1.1742   1.1503   2.6552   0.2691   0.8958  -0.6335   0.00    0.0
2327 194686.000  -33.951448437   18.468556573    83.4579   5   8   1.1744   1.1504   2.6556   0.2691   0.8961  -0.6337   0.00    0.0
2327 194687.000  -33.951453335   18.468555907    85.7469   5   8   1.1746   1.1506   2.6560   0.2691   0.8964  -0.6340   0.00    0.0
2327 194688.000  -33.951449139   18.468556799    85.6256   5   8   1.1748   1.1507   2.6564   0.2691   0.8967  -0.6343   0.00    0.0
2327 194689.000  -33.951447203   18.468559532    86.3413   5   8   1.1749   1.1509   2.6568   0.2691   0.8970  -0.6345   0.00    0.0
2327 194690.000  -33.951451466   18.468564642    86.6172   5   8   1.1751   1.1510   2.6572   0.2691   0.8973  -0.6348   0.00    0.0
2327 194691.000  -33.951445834   18.468557302    85.7834   5   8   1.1753   1.1511   2.6576   0.2691   0.8976  -0.6351   0.00    0.0
2327 194692.000  -33.951447218   18.468554919    85.1001   5   8   1.1755   1.1513   2.6580   0.2691   0.8979  -0.6353   0.00    0.0
2327 194693.000  -33.951442527   18.468553907    86.0643   5   8   1.1757   1.1515   2.6584   0.2690   0.8982  -0.6356   0.00    0.0
2327 194694.000  -33.951450705   18.468554439    83.5144   5   8   1.1758   1.1516   2.6589   0.2690   0.8985  -0.6359   0.00    0.0
2327 194695.000  -33.951445591   18.468561646    86.1591   5   8   1.1760   1.1518   2.6593   0.2690   0.8988  -0.6362   0.00    0.0
2327 194696.000  -33.951451147   18.468556917    86.7880   5   8   1.1762   1.1519   2.6597   0.2690   0.8991  -0.6364   0.00    0.0
2327 194697.000  -33.951448135   18.468551475    88.6486   5   8   1.1764   1.1521   2.6601   0.2690   0.8993  -0.6367   0.00    0.0
2327 194698.000  -33.951452702   18.468554015    86.1165   5   8   1.1766   1.1522   2.6605   0.2690   0.8996  -0.6370   0.00    0.0
2327 194699.000  -33.951446530   18.468566796    85.8197   5   8   1.1768   1.1524   2.6609   0.2690   0.8999  -0.6372   0.00    0.0
2327 194700.000  -33.951456657   18.468558643    85.0532   5   8   1.1769   1.1525   2.6613   0.2690   0.9002  -0.6375   0.00    0.0
2327 194701.000  -33.951455128   18.468559522    83.9723   5   8   1.1771   1.1527   2.6617   0.2690   0.9005  -0.6378   0.00    0.0
2327 194702.000  -33.951449984   18.468556656    86.5153   5   8   1.1773   1.1528   2.6622   0.2689   0.9008  -0.6381   0.00    0.0
2327 194703.000  -33.951449994   18.468558968    85.3394   5   8   1.1775   1.1530   2.6626   0.2689   0.9011  -0.6383   0.00    0.0
2327 194704.000  -33.951443370   18.468564713    83.7802   5   8   1.1777   1.1531   2.6630   0.2689   0.9014  -0.6386   0.00    0.0
2327 194705.000  -33.951449790   18.468557433    84.7615   5   8   1.1779   1.1533   2.6634   0.2689   0.9017  -0.6389   0.00    0.0
2327 194706.000  -33.951448321   18.468561223    84.5977   5   8   1.1781   1.1534   2.6638   0.2689   0.9020  -0.6392   0.00    0.0
2327 194707.000  -33.951448147   18.468556091    83.6566   5   8   1.1783   1.1536   2.6643   0.2689   0.9023  -0.6394   0.00    0.0
2327 194708.000  -33.951442803   18.468547595    85.2132   5   8   1.1784   1.1538   2.6647   0.2689   0.9026  -0.6397   0.00    0.0
2327 194709.000  -33.951444610   18.468556662    85.9946   5   8   1.1786   1.1539   2.6651   0.2689   0.9029  -0.6400   0.00    0.0
2327 194710.000  -33.951450084   18.468560898    84.3757   5   8   1.1788   1.1541   2.6655   0.2689   0.9032  -0.6403   0.00    0.0
2327 194711.000  -33.951438247   18.468551238    84.1329   5   8   1.1790   1.1542   2.6660   0.2689   0.9035  -0.6405   0.00    0.0
2327 194712.000  -33.951448476   18.468561631    86.3492   5   8   1.1792   1.1544   2.6664   0.2689   0.9038  -0.6408   0.00    0.0
2327 194713.000  -33.951437168   18.468553128    84.0245   5   8   1.1794   1.1546   2.6668   0.2688   0.9041  -0.6411   0.00    0.0
2327 194714.000  -33.951445897   18.468565722    85.6618   5   8   1.1796   1.1547   2.6672   0.2688   0.9044  -0.6414   0.00    0.0
2327 194715.000  -33.951452595   18.468559970    83.5746   5   8   1.1798   1.1549   2.6677   0.2688   0.9047  -0.6417   0.00    0.0
2327 194716.000  -33.951455049   18.468564200    84.2946   5   8   1.1800   1.1550   2.6681   0.2688   0.9050  -0.6419   0.00    0.0
2327 194717.000  -33.951442377   18.468558692    83.0727   5   8   1.1802   1.1552   2.6685   0.2688   0.9053  -0.6422   0.00    0.0
2327 194718.000  -33.951440804   18.468566629    86.1637   5   8   1.1804   1.1554   2.6690   0.2688   0.9056  -0.6425   0.00    0.0
2327 194719.000  -33.951439940   18.468562888    83.7834   5   8   1.1806   1.1555   2.6694   0.2688   0.9059  -0.6428   0.00    0.0
2327 194720.000  -33.951439171   18.468557879    83.8680   5   8   1.1808   1.1557   2.6698   0.2688   0.9062  -0.6430   0.00    0.0
2327 194721.000  -33.951448769   18.468555125    83.9669   5   8   1.1809   1.1559   2.6703   0.2688   0.9065  -0.6433   0.00    0.0
2327 194722.000  -33.951443371   18.468559263    85.0022   5   8   1.1811   1.1560   2.6707   0.2688   0.9068  -0.6436   0.00    0.0
2327 194723.000  -33.951438622   18.468564780    85.6242   5   8   1.1813   1.1562   2.6712   0.2688   0.9071  -0.6439   0.00    0.0
2327 194724.000  -33.951445377   18.468557757    84.6174   5   8   1.1815   1.1563   2.6716   0.2688   0.9074  -0.6442   0.00    0.0
2327 194725.000  -33.951440454   18.468558356    85.4690   5   8   1.1817   1.1565   2.6720   0.2688   0.9078  -0.6444   0.00    0.0
2327 194726.000  -33.951444324   18.468552538    83.9813   5   8   1.1819   1.1567   2.6725   0.2688   0.9081  -0.6447   0.00    0.0
2327 194727.000  -33.951446671   18.468558508    85.7530   5   8   1.1821   1.1568   2.6729   0.2688   0.9084  -0.6450   0.00    0.0
2327 194728.000  -33.951450719   18.468560764    87.0973   5   8   1.1823   1.1570   2.6734   0.2688   0.9087  -0.6453   0.00    0.0
2327 194729.000  -33.951439480   18.468555921    85.7562   5   8   1.1825   1.1572   2.6738   0.2687   0.9090  -0.6456   0.00    0.0
2327 194730.000  -33.951447920   18.468553202    85.1687   5   8   1.1827   1.1573   2.6742   0.2687   0.9093  -0.6458   0.00    0.0
2327 194731.000  -33.951437438   18.468558729    83.1704   5   8   1.1829   1.1575   2.6747   0.2687   0.9096  -0.6461   0.00    0.0
2327 194732.000  -33.951443617   18.468547425    85.1023   5   8   1.1831   1.1577   2.6751   0.2687   0.9099  -0.6464   0.00    0.0
2327 194733.000  -33.951449059   18.468552761    83.6833   5   8   1.1833   1.1578   2.6756   0.2687   0.9102  -0.6467   0.00    0.0
2327 194734.000  -33.951439478   18.468545576    83.2735   5   8   1.1835   1.1580   2.6760   0.2687   0.9105  -0.6470   0.00    0.0
2327 194735.000  -33.951450220   18.468549439    84.4907   5   8   1.1837   1.1582   2.6765   0.2687   0.9108  -0.6473   0.00    0.0
2327 194736.000  -33.951443658   18.468550564    84.3803   5   8   1.1839   1.1584   2.6769   0.2687   0.9111  -0.6475   0.00    0.0
2327 194737.000  -33.951439860   18.468546761    84.3529   5   8   1.1841   1.1585   2.6774   0.2687   0.9115  -0.6478   0.00    0.0
2327 194738.000  -33.951438752   18.468549624    84.3852   5   8   1.1844   1.1587   2.6778   0.2687   0.9118  -0.6481   0.00    0.0
2327 194739.000  -33.951438176   18.468538292    82.9062   5   8   1.1846   1.1589   2.6783   0.2687   0.9121  -0.6484   0.00    0.0
2327 194740.000  -33.951440229   18.468552460    84.9941   5   8   1.1848   1.1590   2.6788   0.2687   0.9124  -0.6487   0.00    0.0
2327 194741.000  -33.951444355   18.468556905    84.8112   5   8   1.1850   1.1592   2.6792   0.2687   0.9127  -0.6490   0.00    0.0
2327 194742.000  -33.951449508   18.468542241    85.7647   5   8   1.1852   1.1594   2.6797   0.2687   0.9130  -0.6492   0.00    0.0
2327 194743.000  -33.951445867   18.468542663    85.9008   5   8   1.1854   1.1596   2.6801   0.2687   0.9133  -0.6495   0.00    0.0
2327 194744.000  -33.951445166   18.468552156    85.5704   5   8   1.1856   1.1597   2.6806   0.2687   0.9136  -0.6498   0.00    0.0
2327 194745.000  -33.951450064   18.468547422    84.1260   5   8   1.1858   1.1599   2.6810   0.2687   0.9140  -0.6501   0.00    0.0
2327 194746.000  -33.951442114   18.468557482    84.4337   5   8   1.1860   1.1601   2.6815   0.2687   0.9143  -0.6504   0.00    0.0
2327 194747.000  -33.951440615   18.468553614    84.8143   5   8   1.1862   1.1603   2.6820   0.2687   0.9146  -0.6507   0.00    0.0
2327 194748.000  -33.951446094   18.468550253    83.1995   5   8   1.1864   1.1604   2.6824   0.2687   0.9149  -0.6510   0.00    0.0
2327 194749.000  -33.951439333   18.468549851    83.9994   5   8   1.1866   1.1606   2.6829   0.2687   0.9152  -0.6512   0.00    0.0
2327 194750.000  -33.951444073   18.468549676    83.9386   5   8   1.1868   1.1608   2.6834   0.2687   0.9155  -0.6515   0.00    0.0
2327 194751.000  -33.951444518   18.468548793    82.2851   5   8   1.1871   1.1610   2.6838   0.2687   0.9158  -0.6518   0.00    0.0
2327 194752.000  -33.951439312   18.468550281    85.1886   5   8   1.1873   1.1611   2.6843   0.2687   0.9162  -0.6521   0.00    0.0
2327 194753.000  -33.951440341   18.468551099    84.7552   5   8   1.1875   1.1613   2.6848   0.2687   0.9165  -0.6524   0.00    0.0
2327 194754.000  -33.951439602   18.468549477    82.6929   5   8   1.1877   1.1615   2.6852   0.2687   0.9168  -0.6527   0.00    0.0
2327 194755.000  -33.951444238   18.468541468    83.5809   5   8   1.1879   1.1617   2.6857   0.2687   0.9171  -0.6530   0.00    0.0
2327 194756.000  -33.951434873   18.468541886    82.4140   5   8   1.1881   1.1618   2.6862   0.2687   0.9174  -0.6533   0.00    0.0
2327 194757.000  -33.951441662   18.468552650    84.9117   5   8   1.1883   1.1620   2.6866   0.2687   0.9178  -0.6536   0.00    0.0
2327 194758.000  -33.951440244   18.468548987    84.5755   5   8   1.1885   1.1622   2.6871   0.2687   0.9181  -0.6538   0.00    0.0
2327 194759.000  -33.951440808   18.468545381    84.4820   5   8   1.1888   1.1624   2.6876   0.2687   0.9184  -0.6541   0.00    0.0
2327 194760.000  -33.951441158   18.468551158    84.6584   5   8   1.1890   1.1626   2.6881   0.2687   0.9187  -0.6544   0.00    0.0
2327 194761.000  -33.951439141   18.468546863    84.5395   5   8   1.1892   1.1627   2.6885   0.2687   0.9190  -0.6547   0.00    0.0
2327 194762.000  -33.951442454   18.468551031    86.3041   5   8   1.1894   1.1629   2.6890   0.2687   0.9194  -0.6550   0.00    0.0
2327 194763.000  -33.951435831   18.468538777    82.6207   5   8   1.1896   1.1631   2.6895   0.2687   0.9197  -0.6553   0.00    0.0
2327 194764.000  -33.951442221   18.468547449    83.4706   5   8   1.1898   1.1633   2.6900   0.2687   0.9200  -0.6556   0.00    0.0
2327 194765.000  -33.951450761   18.468552324    86.4007   5   8   1.1901   1.1635   2.6905   0.2687   0.9203  -0.6559   0.00    0.0
2327 194766.000  -33.951441641   18.468548074    86.0465   5   8   1.1903   1.1637   2.6909   0.2687   0.9206  -0.6562   0.00    0.0
2327 194767.000  -33.951450407   18.468535649    86.6023   5   8   1.1905   1.1638   2.6914   0.2687   0.9210  -0.6565   0.00    0.0
2327 194768.000  -33.951450996   18.468550449    86.4450   5   8   1.1907   1.1640   2.6919   0.2687   0.9213  -0.6568   0.00    0.0
2327 194769.000  -33.951446448   18.468555963    85.7605   5   8   1.1909   1.1642   2.6924   0.2687   0.9216  -0.6570   0.00    0.0
2327 194770.000  -33.951452613   18.468552113    85.4428   5   8   1.1912   1.1644   2.6929   0.2687   0.9219  -0.6573   0.00    0.0
2327 194771.000  -33.951443542   18.468544692    86.0821   5   8   1.1914   1.1646   2.6934   0.2687   0.9223  -0.6576   0.00    0.0
2327 194772.000  -33.951437019   18.468551939    84.2129   5   8   1.1916   1.1648   2.6939   0.2687   0.9226  -0.6579   0.00    0.0
2327 194773.000  -33.951445675   18.468546008    84.4805   5   8   1.1918   1.1650   2.6943   0.2687   0.9229  -0.6582   0.00    0.0
2327 194774.000  -33.951447931   18.468559703    86.4713   5   8   1.1921   1.1651   2.6948   0.2687   0.9232  -0.6585   0.00    0.0
2327 194775.000  -33.951440077   18.468554967    85.5159   5   8   1.1923   1.1653   2.6953   0.2687   0.9236  -0.6588   0.00    0.0
2327 194776.000  -33.951442695   18.468550106    85.3970   5   8   1.1925   1.1655   2.6958   0.2687   0.9239  -0.6591   0.00    0.0
2327 194777.000  -33.951441382   18.468548245    85.3273   5   8   1.1927   1.1657   2.6963   0.2687   0.9242  -0.6594   0.00    0.0
2327 194778.000  -33.951435353   18.468553726    85.6528   5   8   1.1930   1.1659   2.6968   0.2687   0.9245  -0.6597   0.00    0.0
2327 194779.000  -33.951442346   18.468549880    86.1697   5   8   1.1932   1.1661   2.6973   0.2687   0.9249  -0.6600   0.00    0.0
2327 194780.000  -33.951449470   18.468549328    85.8595   5   8   1.1934   1.1663   2.6978   0.2687   0.9252  -0.6603   0.00    0.0
2327 194781.000  -33.951447177   18.468552720    83.4263   5   8   1.1936   1.1665   2.6983   0.2687   0.9255  -0.6606   0.00    0.0
2327 194782.000  -33.951446242   18.468543275    83.9298   5   8   1.1939   1.1667   2.6988   0.2687   0.9259  -0.6609   0.00    0.0
2327 194783.000  -33.951448919   18.468550706    85.1347   5   8   1.1941   1.1668   2.6993   0.2687   0.9262  -0.6612   0.00    0.0
2327 194784.000  -33.951438887   18.468546266    85.0422   5   8   1.1943   1.1670   2.6998   0.2687   0.9265  -0.6615   0.00    0.0
2327 194785.000  -33.951440858   18.468555179    86.4320   5   8   1.1945   1.1672   2.7003   0.2687   0.9268  -0.6618   0.00    0.0
2327 194786.000  -33.951439502   18.468543561    84.5191   5   8   1.1948   1.1674   2.7008   0.2687   0.9272  -0.6621   0.00    0.0
2327 194787.000  -33.951447551   18.468546259    85.6913   5   8   1.1950   1.1676   2.7013   0.2687   0.9275  -0.6624   0.00    0.0
2327 194788.000  -33.951443798   18.468553264    86.7417   5   8   1.1952   1.1678   2.7018   0.2687   0.9278  -0.6627   0.00    0.0
2327 194789.000  -33.951442643   18.468552605    87.3295   5   8   1.1955   1.1680   2.7023   0.2687   0.9282  -0.6630   0.00    0.0
2327 194790.000  -33.951447461   18.468552945    85.6602   5   8   1.1957   1.1682   2.7028   0.2687   0.9285  -0.6633   0.00    0.0
2327 194791.000  -33.951440264   18.468549569    85.8788   5   8   1.1959   1.1684   2.7033   0.2687   0.9288  -0.6636   0.00    0.0
2327 194792.000  -33.951444161   18.468554347    88.1376   5   8   1.1962   1.1686   2.7038   0.2687   0.9292  -0.6639   0.00    0.0
2327 194793.000  -33.951436798   18.468547922    87.3782   5   8   1.1964   1.1688   2.7043   0.2688   0.9295  -0.6642   0.00    0.0
2327 194794.000  -33.951439476   18.468533273    84.2924   5   8   1.1966   1.1690   2.7048   0.2688   0.9298  -0.6645   0.00    0.0
2327 194795.000  -33.951441399   18.468541671    85.6848   5   8   1.1969   1.1692   2.7053   0.2688   0.9302  -0.6648   0.00    0.0
2327 194796.000  -33.951441931   18.468552839    86.4621   5   8   1.1971   1.1694   2.7058   0.2688   0.9305  -0.6651   0.00    0.0
2327 194797.000  -33.951448475   18.468546373    86.4091   5   8   1.1973   1.1696   2.7064   0.2688   0.9308  -0.6654   0.00    0.0
2327 194798.000  -33.951445481   18.468548528    85.8534   5   8   1.1976   1.1698   2.7069   0.2688   0.9312  -0.6657   0.00    0.0
2327 194799.000  -33.951442210   18.468557691    86.7556   5   8   1.1978   1.1700   2.7074   0.2688   0.9315  -0.6660   0.00    0.0
2327 194800.000  -33.951446143   18.468555649    84.5216   5   8   1.1980   1.1702   2.7079   0.2688   0.9319  -0.6663   0.00    0.0
2327 194801.000  -33.951447793   18.468547654    85.8195   5   8   1.1983   1.1704   2.7084   0.2688   0.9322  -0.6666   0.00    0.0
2327 194802.000  -33.951439358   18.468556401    86.3910   5   8   1.1985   1.1706   2.7089   0.2688   0.9325  -0.6669   0.00    0.0
2327 194803.000  -33.951445513   18.468551719    85.9546   5   8   1.1987   1.1708   2.7094   0.2688   0.9329  -0.6672   0.00    0.0
2327 194804.000  -33.951450091   18.468544347    84.6449   5   8   1.1990   1.1710   2.7100   0.2688   0.9332  -0.6675   0.00    0.0
2327 194805.000  -33.951442361   18.468549986    86.2609   5   8   1.1992   1.1712   2.7105   0.2688   0.9335  -0.6678   0.00    0.0
2327 194806.000  -33.951448490   18.468554319    86.7102   5   8   1.1995   1.1714   2.7110   0.2688   0.9339  -0.6681   0.00    0.0
2327 194807.000  -33.951444993   18.468561665    88.4523   5   8   1.1997   1.1716   2.7115   0.2688   0.9342  -0.6684   0.00    0.0
2327 194808.000  -33.951445207   18.468557584    85.3612   5   8   1.1999   1.1718   2.7121   0.2688   0.9346  -0.6687   0.00    0.0
2327 194809.000  -33.951443548   18.468549508    87.5721   5   8   1.2002   1.1720   2.7126   0.2689   0.9349  -0.6690   0.00    0.0
2327 194810.000  -33.951446739   18.468550411    87.7863   5   8   1.2004   1.1722   2.7131   0.2689   0.9353  -0.6693   0.00    0.0
2327 194811.000  -33.951446692   18.468546236    86.9988   5   8   1.2007   1.1724   2.7136   0.2689   0.9356  -0.6696   0.00    0.0
2327 194812.000  -33.951438828   18.468543705    84.9960   5   8   1.2009   1.1726   2.7142   0.2689   0.9359  -0.6699   0.00    0.0
2327 194813.000  -33.951448337   18.468546720    86.2955   5   8   1.2011   1.1728   2.7147   0.2689   0.9363  -0.6702   0.00    0.0
2327 194814.000  -33.951451444   18.468536730    84.4879   5   8   1.2014   1.1730   2.7152   0.2689   0.9366  -0.6705   0.00    0.0
2327 194815.000  -33.951447331   18.468546835    87.0679   5   8   1.2016   1.1732   2.7157   0.2689   0.9370  -0.6708   0.00    0.0
2327 194816.000  -33.951448121   18.468546022    87.1435   5   8   1.2019   1.1734   2.7163   0.2689   0.9373  -0.6711   0.00    0.0
2327 194817.000  -33.951450424   18.468554066    86.2112   5   8   1.2021   1.1736   2.7168   0.2689   0.9376  -0.6715   0.00    0.0
2327 194818.000  -33.951441822   18.468550589    87.0060   5   8   1.2024   1.1738   2.7173   0.2689   0.9380  -0.6718   0.00    0.0
2327 194819.000  -33.951439308   18.468551647    87.1603   5   8   1.2026   1.1740   2.7179   0.2689   0.9383  -0.6721   0.00    0.0
2327 194820.000  -33.951448795   18.468547333    87.3404   5   8   1.2029   1.1742   2.7184   0.2689   0.9387  -0.6724   0.00    0.0
2327 194821.000  -33.951446305   18.468554777    87.3768   5   8   1.2031   1.1744   2.7189   0.2690   0.9390  -0.6727   0.00    0.0
2327 194822.000  -33.951441434   18.468547017    86.5228   5   8   1.2034   1.1746   2.7195   0.2690   0.9394  -0.6730   0.00    0.0
2327 194823.000  -33.951447825   18.468553162    85.1889   5   8   1.2036   1.1748   2.7200   0.2690   0.9397  -0.6733   0.00    0.0
2327 194824.000  -33.951446041   18.468546344    84.9905   5   8   1.2039   1.1751   2.7206   0.2690   0.9401  -0.6736   0.00    0.0
2327 194825.000  -33.951446909   18.468555897    86.9493   5   8   1.2041   1.1753   2.7211   0.2690   0.9404  -0.6739   0.00    0.0
2327 194826.000  -33.951451507   18.468560303    88.5039   5   8   1.2044   1.1755   2.7216   0.2690   0.9408  -0.6742   0.00    0.0
2327 194827.000  -33.951453316   18.468551048    86.2409   5   8   1.2046   1.1757   2.7222   0.2690   0.9411  -0.6745   0.00    0.0
2327 194828.000  -33.951447005   18.468561736    86.0562   5   8   1.2049   1.1759   2.7227   0.2690   0.9415  -0.6749   0.00    0.0
2327 194829.000  -33.951444599   18.468557417    85.4274   5   8   1.2051   1.1761   2.7233   0.2690   0.9418  -0.6752   0.00    0.0
2327 194830.000  -33.951448693   18.468539139    85.5005   5   8   1.2054   1.1763   2.7238   0.2690   0.9422  -0.6755   0.00    0.0
2327 194831.000  -33.951443938   18.468549846    86.1311   5   8   1.2056   1.1765   2.7244   0.2691   0.9425  -0.6758   0.00    0.0
2327 194832.000  -33.951445315   18.468550263    87.8391   5   8   1.2059   1.1767   2.7249   0.2691   0.9429  -0.6761   0.00    0.0
2327 194833.000  -33.951449067   18.468548038    89.1146   5   8   1.2061   1.1769   2.7254   0.2691   0.9432  -0.6764   0.00    0.0
2327 194834.000  -33.951447047   18.468550634    88.2501   5   8   1.2064   1.1772   2.7260   0.2691   0.9436  -0.6767   0.00    0.0
2327 194835.000  -33.951452333   18.468552206    85.5194   5   8   1.2066   1.1774   2.7265   0.2691   0.9439  -0.6770   0.00    0.0
2327 194836.000  -33.951453451   18.468567001    88.8369   5   8   1.2069   1.1776   2.7271   0.2691   0.9443  -0.6773   0.00    0.0
2327 194837.000  -33.951444330   18.468555070    87.3756   5   8   1.2071   1.1778   2.7276   0.2691   0.9446  -0.6777   0.00    0.0
2327 194838.000  -33.951446556   18.468556024    85.6248   5   8   1.2074   1.1780   2.7282   0.2691   0.9450  -0.6780   0.00    0.0
2327 194839.000  -33.951443982   18.468553157    88.3239   5   8   1.2076   1.1782   2.7287   0.2692   0.9453  -0.6783   0.00    0.0
2327 194840.000  -33.951452900   18.468561666    89.0273   5   8   1.2079   1.1785   2.7293   0.2692   0.9457  -0.6786   0.00    0.0
2327 194841.000  -33.951444586   18.468550653    86.9639   5   8   1.2082   1.1787   2.7299   0.2692   0.9460  -0.6789   0.00    0.0
2327 194842.000  -33.951453236   18.468561307    87.2617   5   8   1.2084   1.1789   2.7304   0.2692   0.9464  -0.6792   0.00    0.0
2327 194843.000  -33.951445586   18.468557956    86.5098   5   8   1.2087   1.1791   2.7310   0.2692   0.9467  -0.6795   0.00    0.0
2327 194844.000  -33.951453570   18.468568901    87.1731   5   8   1.2089   1.1793   2.7315   0.2692   0.9471  -0.6799   0.00    0.0
2327 194845.000  -33.951457391   18.468558311    87.6844   5   8   1.2092   1.1795   2.7321   0.2692   0.9474  -0.6802   0.00    0.0
2327 194846.000  -33.951458586   18.468555065    86.5300   5   8   1.2095   1.1798   2.7326   0.2692   0.9478  -0.6805   0.00    0.0
2327 194847.000  -33.951445151   18.468549786    87.1026   5   8   1.2097   1.1800   2.7332   0.2693   0.9482  -0.6808   0.00    0.0
2327 194848.000  -33.951449371   18.468562159    86.9270   5   8   1.2100   1.1802   2.7338   0.2693   0.9485  -0.6811   0.00    0.0
2327 194849.000  -33.951442848   18.468555742    85.2599   5   8   1.2102   1.1804   2.7343   0.2693   0.9489  -0.6814   0.00    0.0
2327 194850.000  -33.951445544   18.468536378    86.1381   5   8   1.2105   1.1806   2.7349   0.2693   0.9492  -0.6818   0.00    0.0
2327 194851.000  -33.951447173   18.468555705    85.7881   5   8   1.2104   1.1805   2.7346   0.2692   0.9493  -0.6818   0.00    0.0
2327 194852.000  -33.951442938   18.468557303    86.0595   5   8   1.2102   1.1803   2.7342   0.2691   0.9493  -0.6818   0.00    0.0
2327 194853.000  -33.951446453   18.468560604    87.3926   5   8   1.2100   1.1802   2.7339   0.2689   0.9493  -0.6817   0.00    0.0
2327 194854.000  -33.951455945   18.468544551    85.5884   5   8   1.2099   1.1800   2.7335   0.2688   0.9492  -0.6817   0.00    0.0
2327 194855.000  -33.951445107   18.468554180    86.5759   5   8   1.2097   1.1799   2.7331   0.2687   0.9492  -0.6817   0.00    0.0
2327 194856.000  -33.951442692   18.468559306    87.2797   5   8   1.2095   1.1797   2.7328   0.2686   0.9492  -0.6817   0.00    0.0
2327 194857.000  -33.951448553   18.468561219    86.5017   5   8   1.2094   1.1795   2.7324   0.2685   0.9492  -0.6817   0.00    0.0
2327 194858.000  -33.951440884   18.468562693    87.8923   5   8   1.2092   1.1794   2.7321   0.2683   0.9492  -0.6817   0.00    0.0
2327 194859.000  -33.951447133   18.468557069    88.5164   5   8   1.2090   1.1792   2.7317   0.2682   0.9492  -0.6817   0.00    0.0
2327 194860.000  -33.951446724   18.468551102    88.7166   5   8   1.2089   1.1790   2.7313   0.2681   0.9492  -0.6817   0.00    0.0
2327 194861.000  -33.951450953   18.468555005    88.0888   5   8   1.2087   1.1789   2.7310   0.2680   0.9492  -0.6816   0.00    0.0
2327 194862.000  -33.951450932   18.468553025    86.7863   5   8   1.2086   1.1787   2.7306   0.2679   0.9492  -0.6816   0.00    0.0
2327 194863.000  -33.951449819   18.468555533    85.5781   5   8   1.2084   1.1786   2.7303   0.2677   0.9492  -0.6816   0.00    0.0
2327 194864.000  -33.951451214   18.468562087    89.3369   5   8   1.2082   1.1784   2.7299   0.2676   0.9492  -0.6816   0.00    0.0
2327 194865.000  -33.951447578   18.468555549    87.3779   5   8   1.2081   1.1783   2.7296   0.2675   0.9492  -0.6816   0.00    0.0
2327 194866.000  -33.951436779   18.468552153    88.4361   5   8   1.2079   1.1781   2.7292   0.2674   0.9492  -0.6816   0.00    0.0
2327 194867.000  -33.951447465   18.468545669    85.2749   5   8   1.2078   1.1779   2.7288   0.2673   0.9492  -0.6816   0.00    0.0
2327 194868.000  -33.951450834   18.468558842    86.4571   5   8   1.2076   1.1778   2.7285   0.2671   0.9492  -0.6815   0.00    0.0
2327 194869.000  -33.951445564   18.468560189    86.5992   5   8   1.2074   1.1776   2.7281   0.2670   0.9492  -0.6815   0.00    0.0
2327 194870.000  -33.951438445   18.468557100    86.2988   5   8   1.2073   1.1775   2.7278   0.2669   0.9492  -0.6815   0.00    0.0
2327 194871.000  -33.951445732   18.468553647    87.7220   5   8   1.2071   1.1773   2.7274   0.2668   0.9492  -0.6815   0.00    0.0
2327 194872.000  -33.951444543   18.468559676    85.2883   5   8   1.2070   1.1772   2.7271   0.2667   0.9492  -0.6815   0.00    0.0
2327 194873.000  -33.951451557   18.468551912    86.9173   5   8   1.2068   1.1770   2.7267   0.2665   0.9492  -0.6815   0.00    0.0
2327 194874.000  -33.951441171   18.468545142    86.9884   5   8   1.2067   1.1769   2.7264   0.2664   0.9492  -0.6815   0.00    0.0
2327 194875.000  -33.951447759   18.468555312    88.3342   5   8   1.2065   1.1767   2.7260   0.2663   0.9492  -0.6815   0.00    0.0
2327 194876.000  -33.951440063   18.468551658    85.7544   5   8   1.2064   1.1765   2.7257   0.2662   0.9492  -0.6814   0.00    0.0
2327 194877.000  -33.951445603   18.468557516    87.0429   5   8   1.2062   1.1764   2.7254   0.2661   0.9492  -0.6814   0.00    0.0
2327 194878.000  -33.951447257   18.468548977    86.7015   5   8   1.2060   1.1762   2.7250   0.2660   0.9492  -0.6814   0.00    0.0
2327 194879.000  -33.951449580   18.468562254    89.9688   5   8   1.2059   1.1761   2.7247   0.2659   0.9492  -0.6814   0.00    0.0
2327 194880.000  -33.951452589   18.468551105    87.4495   5   8   1.2057   1.1759   2.7243   0.2657   0.9492  -0.6814   0.00    0.0
2327 194881.000  -33.951450288   18.468552912    87.7290   5   8   1.2056   1.1758   2.7240   0.2656   0.9493  -0.6814   0.00    0.0
2327 194882.000  -33.951438087   18.468563417    86.3233   5   8   1.2054   1.1756   2.7236   0.2655   0.9493  -0.6814   0.00    0.0
2327 194883.000  -33.951442311   18.468552422    87.4054   5   8   1.2053   1.1755   2.7233   0.2654   0.9493  -0.6813   0.00    0.0
2327 194884.000  -33.951441491   18.468546590    86.6962   5   8   1.2051   1.1753   2.7230   0.2653   0.9493  -0.6813   0.00    0.0
2327 194885.000  -33.951449217   18.468550640    88.2740   5   8   1.2050   1.1752   2.7226   0.2652   0.9493  -0.6813   0.00    0.0
2327 194886.000  -33.951444024   18.468557702    87.6514   5   8   1.2048   1.1750   2.7223   0.2650   0.9493  -0.6813   0.00    0.0
2327 194887.000  -33.951444003   18.468556158    87.3404   5   8   1.2047   1.1749   2.7219   0.2649   0.9493  -0.6813   0.00    0.0
2327 194888.000  -33.951439286   18.468558698    86.8837   5   8   1.2045   1.1747   2.7216   0.2648   0.9493  -0.6813   0.00    0.0
2327 194889.000  -33.951448861   18.468545755    86.4791   5   8   1.2044   1.1746   2.7213   0.2647   0.9493  -0.6813   0.00    0.0
2327 194890.000  -33.951451750   18.468547846    85.9934   5   8   1.2042   1.1744   2.7209   0.2646   0.9493  -0.6813   0.00    0.0
2327 194891.000  -33.951438642   18.468549205    85.7787   5   8   1.2041   1.1743   2.7206   0.2645   0.9493  -0.6812   0.00    0.0
2327 194892.000  -33.951441301   18.468556132    86.1311   5   8   1.2039   1.1741   2.7203   0.2644   0.9493  -0.6812   0.00    0.0
2327 194893.000  -33.951449327   18.468567403    86.0048   5   8   1.2038   1.1740   2.7199   0.2643   0.9493  -0.6812   0.00    0.0
2327 194894.000  -33.951443969   18.468549625    86.6030   5   8   1.2036   1.1739   2.7196   0.2641   0.9493  -0.6812   0.00    0.0
2327 194895.000  -33.951447686   18.468556145    85.7186   5   8   1.2035   1.1737   2.7193   0.2640   0.9493  -0.6812   0.00    0.0
2327 194896.000  -33.951449705   18.468554648    86.4566   5   8   1.2033   1.1736   2.7190   0.2639   0.9493  -0.6812   0.00    0.0
2327 194897.000  -33.951443780   18.468552952    89.8577   5   8   1.2032   1.1734   2.7186   0.2638   0.9493  -0.6812   0.00    0.0
2327 194898.000  -33.951438244   18.468545937    86.4997   5   8   1.2031   1.1733   2.7183   0.2637   0.9493  -0.6812   0.00    0.0
2327 194899.000  -33.951451312   18.468557937    87.6117   5   8   1.2029   1.1731   2.7180   0.2636   0.9494  -0.6811   0.00    0.0
2327 194900.000  -33.951446782   18.468549961    85.1050   5   8   1.2028   1.1730   2.7176   0.2635   0.9494  -0.6811   0.00    0.0
2327 194901.000  -33.951440266   18.468545241    85.5589   5   8   1.2026   1.1728   2.7173   0.2634   0.9494  -0.6811   0.00    0.0
2327 194902.000  -33.951447100   18.468542735    85.5497   5   8   1.2025   1.1727   2.7170   0.2632   0.9494  -0.6811   0.00    0.0
2327 194903.000  -33.951443814   18.468548210    86.6826   5   8   1.2023   1.1726   2.7167   0.2631   0.9494  -0.6811   0.00    0.0
2327 194904.000  -33.951446077   18.468548985    86.0349   5   8   1.2022   1.1724   2.7163   0.2630   0.9494  -0.6811   0.00    0.0
2327 194905.000  -33.951447810   18.468554049    88.4379   5   8   1.2020   1.1723   2.7160   0.2629   0.9494  -0.6811   0.00    0.0
2327 194906.000  -33.951447424   18.468569636    89.7109   5   8   1.2019   1.1721   2.7157   0.2628   0.9494  -0.6811   0.00    0.0
2327 194907.000  -33.951446342   18.468550932    85.8388   5   8   1.2018   1.1720   2.7154   0.2627   0.9494  -0.6811   0.00    0.0
2327 194908.000  -33.951443170   18.468553862    86.4902   5   8   1.2016   1.1718   2.7151   0.2626   0.9494  -0.6810   0.00    0.0
2327 194909.000  -33.951442638   18.468558204    87.0771   5   8   1.2015   1.1717   2.7148   0.2625   0.9494  -0.6810   0.00    0.0
2327 194910.000  -33.951442463   18.468567252    89.3314   5   8   1.2013   1.1716   2.7144   0.2624   0.9495  -0.6810   0.00    0.0
2327 194911.000  -33.951438551   18.468557835    87.1898   5   8   1.2012   1.1714   2.7141   0.2623   0.9495  -0.6810   0.00    0.0
2327 194912.000  -33.951439370   18.468549542    87.3535   5   8   1.2011   1.1713   2.7138   0.2622   0.9495  -0.6810   0.00    0.0
2327 194913.000  -33.951440186   18.468544534    85.6339   5   8   1.2009   1.1711   2.7135   0.2620   0.9495  -0.6810   0.00    0.0
2327 194914.000  -33.951442142   18.468553007    85.3397   5   8   1.2008   1.1710   2.7132   0.2619   0.9495  -0.6810   0.00    0.0
2327 194915.000  -33.951449340   18.468552335    87.6515   5   8   1.2006   1.1709   2.7129   0.2618   0.9495  -0.6810   0.00    0.0
2327 194916.000  -33.951440003   18.468555625    86.2095   5   8   1.2005   1.1707   2.7125   0.2617   0.9495  -0.6810   0.00    0.0
2327 194917.000  -33.951442590   18.468550276    88.0868   5   8   1.2004   1.1706   2.7122   0.2616   0.9495  -0.6809   0.00    0.0
2327 194918.000  -33.951444178   18.468554589    86.6297   5   8   1.2002   1.1705   2.7119   0.2615   0.9495  -0.6809   0.00    0.0
2327 194919.000  -33.951444467   18.468550027    86.9087   5   8   1.2001   1.1703   2.7116   0.2614   0.9496  -0.6809   0.00    0.0
2327 194920.000  -33.951448030   18.468564933    88.8853   5   8   1.2000   1.1702   2.7113   0.2613   0.9496  -0.6809   0.00    0.0
2327 194921.000  -33.951439470   18.468551263    84.3583   5   8   1.1998   1.1701   2.7110   0.2612   0.9496  -0.6809   0.00    0.0
2327 194922.000  -33.951432911   18.468551481    86.4985   5   8   1.1997   1.1699   2.7107   0.2611   0.9496  -0.6809   0.00    0.0
2327 194923.000  -33.951444404   18.468549229    85.0300   5   8   1.1996   1.1698   2.7104   0.2610   0.9496  -0.6809   0.00    0.0
2327 194924.000  -33.951446569   18.468552910    86.6094   5   8   1.1994   1.1696   2.7101   0.2609   0.9496  -0.6809   0.00    0.0
2327 194925.000  -33.951449577   18.468544847    87.0296   5   8   1.1993   1.1695   2.7098   0.2608   0.9496  -0.6809   0.00    0.0
2327 194926.000  -33.951439843   18.468554252    87.0228   5   8   1.1992   1.1694   2.7095   0.2607   0.9497  -0.6808   0.00    0.0
2327 194927.000  -33.951440592   18.468558240    87.9270   5   8   1.1990   1.1692   2.7092   0.2606   0.9497  -0.6808   0.00    0.0
2327 194928.000  -33.951442704   18.468553214    88.8474   5   8   1.1989   1.1691   2.7089   0.2604   0.9497  -0.6808   0.00    0.0
2327 194929.000  -33.951447694   18.468551929    86.5775   5   8   1.1988   1.1690   2.7086   0.2603   0.9497  -0.6808   0.00    0.0
2327 194930.000  -33.951448574   18.468554470    87.4331   5   8   1.1986   1.1688   2.7083   0.2602   0.9497  -0.6808   0.00    0.0
2327 194931.000  -33.951441709   18.468552271    89.2854   5   8   1.1985   1.1687   2.7080   0.2601   0.9497  -0.6808   0.00    0.0
2327 194932.000  -33.951441405   18.468554331    86.6420   5   8   1.1984   1.1686   2.7077   0.2600   0.9498  -0.6808   0.00    0.0
2327 194933.000  -33.951443712   18.468559721    84.9581   5   8   1.1982   1.1685   2.7074   0.2599   0.9498  -0.6808   0.00    0.0
2327 194934.000  -33.951435558   18.468556559    85.3463   5   8   1.1981   1.1683   2.7071   0.2598   0.9498  -0.6808   0.00    0.0
2327 194935.000  -33.951443580   18.468555399    83.3529   5   8   1.1980   1.1682   2.7068   0.2597   0.9498  -0.6808   0.00    0.0
2327 194936.000  -33.951452612   18.468554103    85.2715   5   8   1.1979   1.1681   2.7065   0.2596   0.9498  -0.6807   0.00    0.0
2327 194937.000  -33.951446874   18.468551583    86.8616   5   8   1.1977   1.1679   2.7062   0.2595   0.9498  -0.6807   0.00    0.0
2327 194938.000  -33.951445084   18.468558344    85.5805   5   8   1.1976   1.1678   2.7059   0.2594   0.9499  -0.6807   0.00    0.0
2327 194939.000  -33.951442337   18.468562321    88.2646   5   8   1.1975   1.1677   2.7056   0.2593   0.9499  -0.6807   0.00    0.0
2327 194940.000  -33.951445824   18.468552809    85.9375   5   8   1.1973   1.1676   2.7053   0.2592   0.9499  -0.6807   0.00    0.0
2327 194941.000  -33.951437451   18.468550873    87.2403   5   8   1.1972   1.1674   2.7050   0.2591   0.9499  -0.6807   0.00    0.0
2327 194942.000  -33.951440693   18.468551650    85.1508   5   8   1.1971   1.1673   2.7047   0.2590   0.9499  -0.6807   0.00    0.0
2327 194943.000  -33.951445867   18.468554892    85.8445   5   8   1.1970   1.1672   2.7044   0.2589   0.9499  -0.6807   0.00    0.0
2327 194944.000  -33.951446225   18.468556836    86.5303   5   8   1.1968   1.1670   2.7042   0.2588   0.9500  -0.6807   0.00    0.0
2327 194945.000  -33.951444169   18.468560878    86.3695   5   8   1.1967   1.1669   2.7039   0.2587   0.9500  -0.6807   0.00    0.0
2327 194946.000  -33.951444869   18.468547125    87.0018   5   8   1.1966   1.1668   2.7036   0.2586   0.9500  -0.6806   0.00    0.0
2327 194947.000  -33.951439368   18.468543337    84.1133   5   8   1.1965   1.1667   2.7033   0.2585   0.9500  -0.6806   0.00    0.0
2327 194948.000  -33.951443839   18.468544104    84.5859   5   8   1.1963   1.1665   2.7030   0.2584   0.9500  -0.6806   0.00    0.0
2327 194949.000  -33.951448952   18.468543274    85.2849   5   8   1.1962   1.1664   2.7027   0.2583   0.9501  -0.6806   0.00    0.0
2327 194950.000  -33.951439625   18.468560657    87.7740   5   8   1.1961   1.1663   2.7025   0.2582   0.9501  -0.6806   0.00    0.0
2327 194951.000  -33.951436793   18.468562778    87.2064   5   8   1.1960   1.1662   2.7022   0.2581   0.9501  -0.6806   0.00    0.0
2327 194952.000  -33.951443635   18.468550395    85.0137   5   8   1.1959   1.1661   2.7019   0.2580   0.9501  -0.6806   0.00    0.0
2327 194953.000  -33.951435258   18.468544915    84.1166   5   8   1.1957   1.1659   2.7016   0.2579   0.9502  -0.6806   0.00    0.0
2327 194954.000  -33.951441939   18.468554617    85.8595   5   8   1.1956   1.1658   2.7013   0.2578   0.9502  -0.6806   0.00    0.0
2327 194955.000  -33.951447928   18.468557834    84.8869   5   8   1.1955   1.1657   2.7011   0.2577   0.9502  -0.6806   0.00    0.0
2327 194956.000  -33.951444305   18.468559426    85.0600   5   8   1.1954   1.1656   2.7008   0.2576   0.9502  -0.6806   0.00    0.0
2327 194957.000  -33.951437159   18.468553403    85.7556   5   8   1.1953   1.1654   2.7005   0.2575   0.9502  -0.6806   0.00    0.0
2327 194958.000  -33.951445555   18.468555432    88.5898   5   8   1.1951   1.1653   2.7002   0.2574   0.9503  -0.6805   0.00    0.0
2327 194959.000  -33.951438020   18.468550697    84.0042   5   8   1.1950   1.1652   2.7000   0.2573   0.9503  -0.6805   0.00    0.0
2327 194960.000  -33.951438325   18.468555043    86.4071   5   8   1.1949   1.1651   2.6997   0.2572   0.9503  -0.6805   0.00    0.0
2327 194961.000  -33.951438879   18.468553238    85.1111   5   8   1.1948   1.1650   2.6994   0.2571   0.9503  -0.6805   0.00    0.0
2327 194962.000  -33.951445286   18.468554018    86.0959   5   8   1.1947   1.1648   2.6991   0.2570   0.9504  -0.6805   0.00    0.0
2327 194963.000  -33.951445085   18.468553585    86.3129   5   8   1.1946   1.1647   2.6989   0.2569   0.9504  -0.6805   0.00    0.0
2327 194964.000  -33.951445155   18.468558753    87.5419   5   8   1.1944   1.1646   2.6986   0.2568   0.9504  -0.6805   0.00    0.0
2327 194965.000  -33.951440016   18.468558905    87.6561   5   8   1.1943   1.1645   2.6983   0.2567   0.9504  -0.6805   0.00    0.0
2327 194966.000  -33.951443005   18.468559102    85.0479   5   8   1.1942   1.1644   2.6981   0.2567   0.9505  -0.6805   0.00    0.0
2327 194967.000  -33.951437893   18.468548514    85.6349   5   8   1.1941   1.1643   2.6978   0.2566   0.9505  -0.6805   0.00    0.0
2327 194968.000  -33.951436290   18.468555277    85.4928   5   8   1.1940   1.1641   2.6975   0.2565   0.9505  -0.6805   0.00    0.0
2327 194969.000  -33.951436282   18.468559994    84.9951   5   8   1.1939   1.1640   2.6973   0.2564   0.9505  -0.6805   0.00    0.0
2327 194970.000  -33.951433286   18.468558402    85.3444   5   8   1.1938   1.1639   2.6970   0.2563   0.9506  -0.6805   0.00    0.0
2327 194971.000  -33.951435604   18.468552130    84.9011   5   8   1.1936   1.1638   2.6967   0.2562   0.9506  -0.6804   0.00    0.0
2327 194972.000  -33.951436822   18.468544319    84.2989   5   8   1.1935   1.1637   2.6965   0.2561   0.9506  -0.6804   0.00    0.0
2327 194973.000  -33.951440212   18.468549994    85.4061   5   8   1.1934   1.1636   2.6962   0.2560   0.9507  -0.6804   0.00    0.0
2327 194974.000  -33.951433646   18.468564548    84.3671   5   8   1.1933   1.1635   2.6959   0.2559   0.9507  -0.6804   0.00    0.0
2327 194975.000  -33.951427191   18.468556448    86.2670   5   8   1.1932   1.1633   2.6957   0.2558   0.9507  -0.6804   0.00    0.0
2327 194976.000  -33.951441539   18.468561882    88.4374   5   8   1.1931   1.1632   2.6954   0.2557   0.9507  -0.6804   0.00    0.0
2327 194977.000  -33.951447733   18.468543432    85.2286   5   8   1.1930   1.1631   2.6952   0.2556   0.9508  -0.6804   0.00    0.0
2327 194978.000  -33.951446111   18.468556042    88.3222   5   8   1.1929   1.1630   2.6949   0.2555   0.9508  -0.6804   0.00    0.0
2327 194979.000  -33.951438541   18.468556443    86.2893   5   8   1.1928   1.1629   2.6947   0.2554   0.9508  -0.6804   0.00    0.0
2327 194980.000  -33.951432911   18.468553205    85.6392   5   8   1.1927   1.1628   2.6944   0.2553   0.9509  -0.6804   0.00    0.0
2327 194981.000  -33.951435040   18.468554373    86.6791   5   8   1.1925   1.1627   2.6941   0.2553   0.9509  -0.6804   0.00    0.0
2327 194982.000  -33.951434370   18.468558782    86.0853   5   8   1.1924   1.1626   2.6939   0.2552   0.9509  -0.6804   0.00    0.0
2327 194983.000  -33.951437258   18.468556706    87.9459   5   8   1.1923   1.1625   2.6936   0.2551   0.9509  -0.6804   0.00    0.0
2327 194984.000  -33.951431083   18.468553286    87.0136   5   8   1.1922   1.1623   2.6934   0.2550   0.9510  -0.6804   0.00    0.0
2327 194985.000  -33.951443533   18.468548844    85.3668   5   8   1.1921   1.1622   2.6931   0.2549   0.9510  -0.6804   0.00    0.0
2327 194986.000  -33.951444662   18.468547054    83.9428   5   8   1.1920   1.1621   2.6929   0.2548   0.9510  -0.6804   0.00    0.0
2327 194987.000  -33.951441192   18.468556290    84.7772   5   8   1.1919   1.1620   2.6926   0.2547   0.9511  -0.6804   0.00    0.0
2327 194988.000  -33.951431502   18.468553949    85.8150   5   8   1.1918   1.1619   2.6924   0.2546   0.9511  -0.6803   0.00    0.0
2327 194989.000  -33.951438843   18.468554380    88.3959   5   8   1.1917   1.1618   2.6921   0.2545   0.9511  -0.6803   0.00    0.0
2327 194990.000  -33.951431850   18.468551827    85.4370   5   8   1.1916   1.1617   2.6919   0.2544   0.9512  -0.6803   0.00    0.0
2327 194991.000  -33.951434431   18.468555373    87.5854   5   8   1.1915   1.1616   2.6916   0.2543   0.9512  -0.6803   0.00    0.0
2327 194992.000  -33.951438932   18.468549217    86.2299   5   8   1.1914   1.1615   2.6914   0.2543   0.9512  -0.6803   0.00    0.0
2327 194993.000  -33.951442016   18.468555011    85.8857   5   8   1.1913   1.1614   2.6912   0.2542   0.9513  -0.6803   0.00    0.0
2327 194994.000  -33.951445432   18.468550444    85.0515   5   8   1.1912   1.1613   2.6909   0.2541   0.9513  -0.6803   0.00    0.0
2327 194995.000  -33.951452728   18.468546593    86.9590   5   8   1.1911   1.1612   2.6907   0.2540   0.9513  -0.6803   0.00    0.0
2327 194996.000  -33.951435654   18.468552632    87.4046   5   8   1.1910   1.1611   2.6904   0.2539   0.9514  -0.6803   0.00    0.0
2327 194997.000  -33.951432560   18.468559516    88.4925   5   8   1.1909   1.1610   2.6902   0.2538   0.9514  -0.6803   0.00    0.0
2327 194998.000  -33.951441704   18.468564293    87.5341   5   8   1.1908   1.1609   2.6900   0.2537   0.9514  -0.6803   0.00    0.0
2327 194999.000  -33.951440870   18.468558556    85.1012   5   8   1.1907   1.1608   2.6897   0.2536   0.9515  -0.6803   0.00    0.0
2327 195000.000  -33.951441543   18.468558174    86.2837   5   8   1.1906   1.1607   2.6895   0.2536   0.9515  -0.6803   0.00    0.0
2327 195001.000  -33.951445459   18.468553918    86.0366   5   8   1.1905   1.1605   2.6892   0.2535   0.9515  -0.6803   0.00    0.0
2327 195002.000  -33.951443456   18.468553439    84.9239   5   8   1.1904   1.1604   2.6890   0.2534   0.9516  -0.6803   0.00    0.0
2327 195003.000  -33.951441619   18.468552006    86.7448   5   8   1.1903   1.1603   2.6888   0.2533   0.9516  -0.6803   0.00    0.0
2327 195004.000  -33.951449636   18.468556755    86.1504   5   8   1.1902   1.1602   2.6885   0.2532   0.9517  -0.6803   0.00    0.0
2327 195005.000  -33.951442867   18.468554037    84.9274   5   8   1.1901   1.1601   2.6883   0.2531   0.9517  -0.6803   0.00    0.0
2327 195006.000  -33.951447119   18.468560738    85.8051   5   8   1.1900   1.1600   2.6881   0.2530   0.9517  -0.6803   0.00    0.0
2327 195007.000  -33.951432973   18.468562397    84.8512   5   8   1.1899   1.1599   2.6878   0.2529   0.9518  -0.6803   0.00    0.0
2327 195008.000  -33.951442249   18.468555496    86.0230   5   8   1.1898   1.1598   2.6876   0.2529   0.9518  -0.6803   0.00    0.0
2327 195009.000  -33.951436802   18.468560172    85.9818   5   8   1.1897   1.1597   2.6874   0.2528   0.9518  -0.6803   0.00    0.0
2327 195010.000  -33.951440422   18.468556196    86.5795   5   8   1.1896   1.1596   2.6872   0.2527   0.9519  -0.6803   0.00    0.0
2327 195011.000  -33.951449240   18.468559392    86.1674   5   8   1.1895   1.1595   2.6869   0.2526   0.9519  -0.6803   0.00    0.0
2327 195012.000  -33.951443830   18.468552697    85.4820   5   8   1.1894   1.1595   2.6867   0.2525   0.9520  -0.6803   0.00    0.0
2327 195013.000  -33.951442488   18.468558551    85.9536   5   8   1.1894   1.1594   2.6865   0.2524   0.9520  -0.6803   0.00    0.0
2327 195014.000  -33.951443270   18.468557374    87.7687   5   8   1.1893   1.1593   2.6863   0.2524   0.9520  -0.6803   0.00    0.0
2327 195015.000  -33.951442033   18.468558528    87.0849   5   8   1.1892   1.1592   2.6860   0.2523   0.9521  -0.6803   0.00    0.0
2327 195016.000  -33.951437724   18.468557522    86.1089   5   8   1.1891   1.1591   2.6858   0.2522   0.9521  -0.6803   0.00    0.0
2327 195017.000  -33.951443903   18.468560769    85.9104   5   8   1.1890   1.1590   2.6856   0.2521   0.9522  -0.6803   0.00    0.0
2327 195018.000  -33.951439710   18.468559905    86.2950   5   8   1.1889   1.1589   2.6854   0.2520   0.9522  -0.6803   0.00    0.0
2327 195019.000  -33.951444819   18.468553925    87.4160   5   8   1.1888   1.1588   2.6851   0.2519   0.9522  -0.6803   0.00    0.0
2327 195020.000  -33.951438811   18.468551940    85.9291   5   8   1.1887   1.1587   2.6849   0.2519   0.9523  -0.6803   0.00    0.0
2327 195021.000  -33.951441999   18.468558409    86.8494   5   8   1.1886   1.1586   2.6847   0.2518   0.9523  -0.6802   0.00    0.0
2327 195022.000  -33.951439997   18.468568177    87.3253   5   8   1.1885   1.1585   2.6845   0.2517   0.9524  -0.6802   0.00    0.0
2327 195023.000  -33.951443271   18.468561111    87.2082   5   8   1.1885   1.1584   2.6843   0.2516   0.9524  -0.6802   0.00    0.0
2327 195024.000  -33.951437668   18.468557938    86.6677   5   8   1.1884   1.1583   2.6841   0.2515   0.9525  -0.6802   0.00    0.0
2327 195025.000  -33.951437673   18.468557631    86.6584   5   8   1.1883   1.1582   2.6838   0.2515   0.9525  -0.6802   0.00    0.0
2327 195026.000  -33.951437151   18.468555049    86.1832   5   8   1.1882   1.1581   2.6836   0.2514   0.9525  -0.6802   0.00    0.0
2327 195027.000  -33.951444649   18.468554841    85.9160   5   8   1.1881   1.1580   2.6834   0.2513   0.9526  -0.6802   0.00    0.0
2327 195028.000  -33.951442239   18.468549456    86.8706   5   8   1.1880   1.1579   2.6832   0.2512   0.9526  -0.6802   0.00    0.0
2327 195029.000  -33.951448240   18.468549515    86.7073   5   8   1.1879   1.1579   2.6830   0.2511   0.9527  -0.6802   0.00    0.0
2327 195030.000  -33.951442909   18.468557115    86.9904   5   8   1.1879   1.1578   2.6828   0.2511   0.9527  -0.6802   0.00    0.0
2327 195031.000  -33.951438707   18.468556411    87.7032   5   8   1.1878   1.1577   2.6826   0.2510   0.9528  -0.6802   0.00    0.0
2327 195032.000  -33.951439114   18.468558867    85.7913   5   8   1.1877   1.1576   2.6824   0.2509   0.9528  -0.6802   0.00    0.0
2327 195033.000  -33.951440765   18.468560238    86.6222   5   8   1.1876   1.1575   2.6822   0.2508   0.9529  -0.6802   0.00    0.0
2327 195034.000  -33.951445178   18.468551825    86.4189   5   8   1.1875   1.1574   2.6820   0.2507   0.9529  -0.6802   0.00    0.0
2327 195035.000  -33.951445069   18.468560245    88.7449   5   8   1.1874   1.1573   2.6818   0.2507   0.9529  -0.6802   0.00    0.0
2327 195036.000  -33.951438845   18.468554311    84.3400   5   8   1.1874   1.1572   2.6816   0.2506   0.9530  -0.6803   0.00    0.0
2327 195037.000  -33.951442023   18.468565308    86.1418   5   8   1.1873   1.1572   2.6814   0.2505   0.9530  -0.6803   0.00    0.0
2327 195038.000  -33.951445504   18.468560427    87.1778   5   8   1.1872   1.1571   2.6812   0.2504   0.9531  -0.6803   0.00    0.0
2327 195039.000  -33.951445838   18.468554056    85.5607   5   8   1.1871   1.1570   2.6810   0.2503   0.9531  -0.6803   0.00    0.0
2327 195040.000  -33.951437619   18.468568514    86.7065   5   8   1.1870   1.1569   2.6808   0.2503   0.9532  -0.6803   0.00    0.0
2327 195041.000  -33.951440524   18.468566945    86.0513   5   8   1.1870   1.1568   2.6806   0.2502   0.9532  -0.6803   0.00    0.0
2327 195042.000  -33.951440254   18.468574290    87.7597   5   8   1.1869   1.1567   2.6804   0.2501   0.9533  -0.6803   0.00    0.0
2327 195043.000  -33.951441290   18.468555788    87.9900   5   8   1.1868   1.1566   2.6802   0.2500   0.9533  -0.6803   0.00    0.0
2327 195044.000  -33.951437452   18.468550094    86.5674   5   8   1.1867   1.1566   2.6800   0.2500   0.9534  -0.6803   0.00    0.0
2327 195045.000  -33.951444001   18.468551204    85.2314   5   8   1.1866   1.1565   2.6798   0.2499   0.9534  -0.6803   0.00    0.0
2327 195046.000  -33.951454627   18.468558563    86.9694   5   8   1.1866   1.1564   2.6796   0.2498   0.9535  -0.6803   0.00    0.0
2327 195047.000  -33.951443515   18.468562318    84.6478   5   8   1.1865   1.1563   2.6794   0.2497   0.9535  -0.6803   0.00    0.0
2327 195048.000  -33.951447081   18.468546899    85.1357   5   8   1.1864   1.1562   2.6792   0.2497   0.9536  -0.6803   0.00    0.0
2327 195049.000  -33.951444750   18.468553071    85.0733   5   8   1.1863   1.1561   2.6790   0.2496   0.9536  -0.6803   0.00    0.0
2327 195050.000  -33.951444784   18.468548661    86.2215   5   8   1.1863   1.1561   2.6788   0.2495   0.9537  -0.6803   0.00    0.0
2327 195051.000  -33.951444939   18.468552886    86.0556   5   8   1.1862   1.1560   2.6786   0.2494   0.9537  -0.6803   0.00    0.0
