% program   : RTKPOST ver.2.4.3 b34
% inp file  : C:\rtklib_realTime_PPP\to_obs-nav_dop\CTWN00ZAF0_A00GMV0_202408130603\CTWN00ZAF0_A00GMV0_obs_log_202408130603.obs
% inp file  : C:\rtklib_realTime_PPP\to_obs-nav_dop\CTWN00ZAF0_A00GMV0_202408130603\CTWN00ZAF0_A00GMV0_nav_log_202408130603.nav
% inp file  : C:\rtklib_realTime_PPP\to_obs-nav_dop\CTWN00ZAF0_A00GMV0_202408130603\IGS0OPSULT_20242260600_02D_15M_ORB.SP3
% obs start : 2024/08/13 06:03:31.0 GPST (week2327 194611.0s)
% obs end   : 2024/08/13 12:05:28.0 GPST (week2327 216328.0s)
% pos mode  : Single
% elev mask : 15.0 deg
% ionos opt : Broadcast
% tropo opt : Saastamoinen
% ephemeris : Precise
% navi sys  : GPS
%
% (lat/lon/height=WGS84/ellipsoidal,Q=1:fix,2:float,3:sbas,4:dgps,5:single,6:ppp,ns=# of satellites)
%  GPST          latitude(deg) longitude(deg)  height(m)   Q  ns   sdn(m)   sde(m)   sdu(m)  sdne(m)  sdeu(m)  sdun(m) age(s)  ratio
2327 194611.000  -33.951439858   18.468532698    87.0436   5   8   1.7734   1.8101   4.1292   0.2738   1.3584  -0.9033   0.00    0.0
2327 194612.000  -33.951441245   18.468531347    86.5046   5   8   1.7736   1.8103   4.1295   0.2738   1.3587  -0.9036   0.00    0.0
2327 194613.000  -33.951442391   18.468531245    86.6295   5   8   1.7737   1.8105   4.1298   0.2739   1.3591  -0.9038   0.00    0.0
2327 194614.000  -33.951440571   18.468529076    85.7362   5   8   1.7739   1.8106   4.1301   0.2739   1.3594  -0.9041   0.00    0.0
2327 194615.000  -33.951438840   18.468533889    87.2196   5   8   1.7741   1.8108   4.1303   0.2739   1.3598  -0.9043   0.00    0.0
2327 194616.000  -33.951439890   18.468529615    87.2230   5   8   1.7742   1.8110   4.1306   0.2739   1.3601  -0.9046   0.00    0.0
2327 194617.000  -33.951439994   18.468530692    87.5791   5   8   1.7744   1.8111   4.1309   0.2739   1.3604  -0.9048   0.00    0.0
2327 194618.000  -33.951441604   18.468532760    86.9832   5   8   1.7746   1.8113   4.1312   0.2739   1.3608  -0.9051   0.00    0.0
2327 194619.000  -33.951439750   18.468532285    86.8150   5   8   1.7748   1.8115   4.1315   0.2739   1.3611  -0.9053   0.00    0.0
2327 194620.000  -33.951441192   18.468534456    87.0930   5   8   1.7749   1.8117   4.1317   0.2739   1.3614  -0.9056   0.00    0.0
2327 194621.000  -33.951438039   18.468531652    87.2867   5   8   1.7751   1.8118   4.1320   0.2739   1.3618  -0.9059   0.00    0.0
2327 194622.000  -33.951437107   18.468532815    86.9425   5   8   1.7753   1.8120   4.1323   0.2739   1.3621  -0.9061   0.00    0.0
2327 194623.000  -33.951436094   18.468530139    87.0321   5   8   1.7755   1.8122   4.1326   0.2739   1.3625  -0.9064   0.00    0.0
2327 194624.000  -33.951438312   18.468527215    86.2958   5   8   1.7756   1.8123   4.1329   0.2739   1.3628  -0.9066   0.00    0.0
2327 194625.000  -33.951439979   18.468531780    87.5086   5   8   1.7758   1.8125   4.1332   0.2740   1.3631  -0.9069   0.00    0.0
2327 194626.000  -33.951439216   18.468533147    87.5378   5   8   1.7760   1.8127   4.1335   0.2740   1.3635  -0.9071   0.00    0.0
2327 194627.000  -33.951438036   18.468531810    86.9286   5   8   1.7762   1.8129   4.1338   0.2740   1.3638  -0.9074   0.00    0.0
2327 194628.000  -33.951439768   18.468530794    87.5647   5   8   1.7763   1.8130   4.1340   0.2740   1.3641  -0.9076   0.00    0.0
2327 194629.000  -33.951440461   18.468530179    87.0121   5   8   1.7765   1.8132   4.1343   0.2740   1.3645  -0.9079   0.00    0.0
2327 194630.000  -33.951440510   18.468528778    87.0295   5   8   1.7767   1.8134   4.1346   0.2740   1.3648  -0.9081   0.00    0.0
2327 194631.000  -33.951440531   18.468529816    87.3843   5   8   1.7769   1.8136   4.1349   0.2740   1.3652  -0.9084   0.00    0.0
2327 194632.000  -33.951440604   18.468532242    86.8303   5   8   1.7770   1.8137   4.1352   0.2740   1.3655  -0.9086   0.00    0.0
2327 194633.000  -33.951438117   18.468530881    86.9450   5   8   1.7772   1.8139   4.1355   0.2741   1.3658  -0.9089   0.00    0.0
2327 194634.000  -33.951439361   18.468528074    87.0602   5   8   1.7774   1.8141   4.1358   0.2741   1.3662  -0.9091   0.00    0.0
2327 194635.000  -33.951440527   18.468531991    87.6973   5   8   1.7776   1.8143   4.1361   0.2741   1.3665  -0.9094   0.00    0.0
2327 194636.000  -33.951438876   18.468529474    87.2133   5   8   1.7778   1.8144   4.1364   0.2741   1.3669  -0.9096   0.00    0.0
2327 194637.000  -33.951438492   18.468530561    86.6777   5   8   1.7779   1.8146   4.1367   0.2741   1.3672  -0.9099   0.00    0.0
2327 194638.000  -33.951437964   18.468530976    86.7188   5   8   1.7781   1.8148   4.1370   0.2741   1.3675  -0.9102   0.00    0.0
2327 194639.000  -33.951438816   18.468532091    87.0910   5   8   1.7783   1.8150   4.1373   0.2742   1.3679  -0.9104   0.00    0.0
2327 194640.000  -33.951439523   18.468531607    87.0476   5   8   1.7785   1.8151   4.1376   0.2742   1.3682  -0.9107   0.00    0.0
2327 194641.000  -33.951440655   18.468531816    87.4510   5   8   1.7787   1.8153   4.1379   0.2742   1.3686  -0.9109   0.00    0.0
2327 194642.000  -33.951435944   18.468532081    87.7791   5   8   1.7788   1.8155   4.1382   0.2742   1.3689  -0.9112   0.00    0.0
2327 194643.000  -33.951441336   18.468531252    87.1592   5   8   1.7790   1.8157   4.1385   0.2742   1.3692  -0.9114   0.00    0.0
2327 194644.000  -33.951438559   18.468530599    87.6200   5   8   1.7792   1.8159   4.1388   0.2742   1.3696  -0.9117   0.00    0.0
2327 194645.000  -33.951440857   18.468531520    87.2731   5   8   1.7794   1.8160   4.1391   0.2743   1.3699  -0.9119   0.00    0.0
2327 194646.000  -33.951439985   18.468533762    87.0630   5   8   1.7796   1.8162   4.1394   0.2743   1.3703  -0.9122   0.00    0.0
2327 194647.000  -33.951441789   18.468531888    87.6516   5   8   1.7797   1.8164   4.1397   0.2743   1.3706  -0.9124   0.00    0.0
2327 194648.000  -33.951439340   18.468530233    88.0366   5   8   1.7799   1.8166   4.1400   0.2743   1.3709  -0.9127   0.00    0.0
2327 194649.000  -33.951438201   18.468527627    86.3820   5   8   1.7801   1.8167   4.1403   0.2743   1.3713  -0.9129   0.00    0.0
2327 194650.000  -33.951440198   18.468531019    86.9441   5   8   1.7803   1.8169   4.1406   0.2744   1.3716  -0.9132   0.00    0.0
2327 194651.000  -33.951439571   18.468532453    87.6926   5   8   1.7805   1.8171   4.1409   0.2744   1.3720  -0.9134   0.00    0.0
2327 194652.000  -33.951442059   18.468530806    87.3009   5   8   1.7807   1.8173   4.1412   0.2744   1.3723  -0.9137   0.00    0.0
2327 194653.000  -33.951440953   18.468532091    86.7439   5   8   1.7809   1.8175   4.1415   0.2744   1.3726  -0.9139   0.00    0.0
2327 194654.000  -33.951438173   18.468529729    86.6102   5   8   1.7810   1.8176   4.1418   0.2745   1.3730  -0.9142   0.00    0.0
2327 194655.000  -33.951442060   18.468529483    87.4380   5   8   1.7812   1.8178   4.1421   0.2745   1.3733  -0.9144   0.00    0.0
2327 194656.000  -33.951440466   18.468529233    86.7218   5   8   1.7814   1.8180   4.1424   0.2745   1.3737  -0.9147   0.00    0.0
2327 194657.000  -33.951437941   18.468527698    86.3303   5   8   1.7816   1.8182   4.1427   0.2745   1.3740  -0.9149   0.00    0.0
2327 194658.000  -33.951440363   18.468527460    87.3930   5   8   1.7818   1.8184   4.1430   0.2746   1.3743  -0.9152   0.00    0.0
2327 194659.000  -33.951441925   18.468533296    87.6374   5   8   1.7820   1.8186   4.1433   0.2746   1.3747  -0.9154   0.00    0.0
2327 194660.000  -33.951441476   18.468533456    86.7506   5   8   1.7822   1.8187   4.1436   0.2746   1.3750  -0.9157   0.00    0.0
2327 194661.000  -33.951439124   18.468533278    86.7234   5   8   1.7824   1.8189   4.1439   0.2746   1.3754  -0.9159   0.00    0.0
2327 194662.000  -33.951440788   18.468533929    87.2414   5   8   1.7826   1.8191   4.1442   0.2747   1.3757  -0.9162   0.00    0.0
2327 194663.000  -33.951440732   18.468530810    86.3715   5   8   1.7827   1.8193   4.1445   0.2747   1.3761  -0.9164   0.00    0.0
2327 194664.000  -33.951439776   18.468530352    87.4488   5   8   1.7829   1.8195   4.1448   0.2747   1.3764  -0.9167   0.00    0.0
2327 194665.000  -33.951439737   18.468531880    87.4196   5   8   1.7831   1.8197   4.1452   0.2747   1.3767  -0.9170   0.00    0.0
2327 194666.000  -33.951438223   18.468533030    87.3049   5   8   1.7833   1.8198   4.1455   0.2748   1.3771  -0.9172   0.00    0.0
2327 194667.000  -33.951437220   18.468530933    86.8377   5   8   1.7835   1.8200   4.1458   0.2748   1.3774  -0.9175   0.00    0.0
2327 194668.000  -33.951436686   18.468533573    86.9247   5   8   1.7837   1.8202   4.1461   0.2748   1.3778  -0.9177   0.00    0.0
2327 194669.000  -33.951440834   18.468532363    86.7518   5   8   1.7839   1.8204   4.1464   0.2749   1.3781  -0.9180   0.00    0.0
2327 194670.000  -33.951439954   18.468532136    87.4951   5   8   1.7841   1.8206   4.1467   0.2749   1.3785  -0.9182   0.00    0.0
2327 194671.000  -33.951439223   18.468531161    87.0928   5   8   1.7843   1.8208   4.1470   0.2749   1.3788  -0.9185   0.00    0.0
2327 194672.000  -33.951441166   18.468530718    87.2619   5   8   1.7845   1.8210   4.1474   0.2750   1.3791  -0.9187   0.00    0.0
2327 194673.000  -33.951441379   18.468529034    87.0414   5   8   1.7847   1.8212   4.1477   0.2750   1.3795  -0.9190   0.00    0.0
2327 194674.000  -33.951439035   18.468530569    87.0047   5   8   1.7849   1.8213   4.1480   0.2750   1.3798  -0.9192   0.00    0.0
2327 194675.000  -33.951440259   18.468532083    86.2562   5   8   1.7851   1.8215   4.1483   0.2751   1.3802  -0.9195   0.00    0.0
2327 194676.000  -33.951438996   18.468530139    86.8645   5   8   1.7853   1.8217   4.1486   0.2751   1.3805  -0.9197   0.00    0.0
2327 194677.000  -33.951438583   18.468530025    86.8867   5   8   1.7854   1.8219   4.1489   0.2751   1.3809  -0.9200   0.00    0.0
2327 194678.000  -33.951436459   18.468532971    87.3819   5   8   1.7856   1.8221   4.1493   0.2752   1.3812  -0.9202   0.00    0.0
2327 194679.000  -33.951437823   18.468530619    87.1100   5   8   1.7858   1.8223   4.1496   0.2752   1.3816  -0.9205   0.00    0.0
2327 194680.000  -33.951437317   18.468533373    86.8279   5   8   1.7860   1.8225   4.1499   0.2752   1.3819  -0.9207   0.00    0.0
2327 194681.000  -33.951440424   18.468531529    85.9048   5   8   1.7862   1.8227   4.1502   0.2753   1.3822  -0.9210   0.00    0.0
2327 194682.000  -33.951441437   18.468529263    87.1190   5   8   1.7864   1.8228   4.1505   0.2753   1.3826  -0.9212   0.00    0.0
2327 194683.000  -33.951438150   18.468527808    87.1447   5   8   1.7866   1.8230   4.1509   0.2753   1.3829  -0.9215   0.00    0.0
2327 194684.000  -33.951441506   18.468531890    87.5460   5   8   1.7868   1.8232   4.1512   0.2754   1.3833  -0.9217   0.00    0.0
2327 194685.000  -33.951437418   18.468532056    86.4877   5   8   1.7870   1.8234   4.1515   0.2754   1.3836  -0.9220   0.00    0.0
2327 194686.000  -33.951438147   18.468529552    86.2201   5   8   1.7872   1.8236   4.1518   0.2754   1.3840  -0.9222   0.00    0.0
2327 194687.000  -33.951440385   18.468529126    86.9574   5   8   1.7874   1.8238   4.1521   0.2755   1.3843  -0.9225   0.00    0.0
2327 194688.000  -33.951437937   18.468530942    87.2408   5   8   1.7876   1.8240   4.1525   0.2755   1.3847  -0.9227   0.00    0.0
2327 194689.000  -33.951439859   18.468531534    87.6741   5   8   1.7878   1.8242   4.1528   0.2756   1.3850  -0.9230   0.00    0.0
2327 194690.000  -33.951441563   18.468534001    87.8393   5   8   1.7880   1.8244   4.1531   0.2756   1.3854  -0.9232   0.00    0.0
2327 194691.000  -33.951437916   18.468530864    87.3658   5   8   1.7882   1.8246   4.1534   0.2756   1.3857  -0.9235   0.00    0.0
2327 194692.000  -33.951438710   18.468529838    87.1191   5   8   1.7884   1.8248   4.1538   0.2757   1.3861  -0.9237   0.00    0.0
2327 194693.000  -33.951438944   18.468528340    87.5138   5   8   1.7886   1.8250   4.1541   0.2757   1.3864  -0.9240   0.00    0.0
2327 194694.000  -33.951440517   18.468528731    86.5051   5   8   1.7888   1.8251   4.1544   0.2758   1.3867  -0.9242   0.00    0.0
2327 194695.000  -33.951438064   18.468533155    87.3307   5   8   1.7890   1.8253   4.1548   0.2758   1.3871  -0.9245   0.00    0.0
2327 194696.000  -33.951440293   18.468529707    87.5766   5   8   1.7892   1.8255   4.1551   0.2758   1.3874  -0.9247   0.00    0.0
2327 194697.000  -33.951438689   18.468529069    88.2569   5   8   1.7894   1.8257   4.1554   0.2759   1.3878  -0.9250   0.00    0.0
2327 194698.000  -33.951441119   18.468530107    87.8489   5   8   1.7897   1.8259   4.1557   0.2759   1.3881  -0.9252   0.00    0.0
2327 194699.000  -33.951437967   18.468533772    87.6209   5   8   1.7899   1.8261   4.1561   0.2760   1.3885  -0.9255   0.00    0.0
2327 194700.000  -33.951441253   18.468530988    87.0731   5   8   1.7901   1.8263   4.1564   0.2760   1.3888  -0.9257   0.00    0.0
2327 194701.000  -33.951440062   18.468531906    86.8336   5   8   1.7903   1.8265   4.1567   0.2760   1.3892  -0.9260   0.00    0.0
2327 194702.000  -33.951438796   18.468529822    87.4112   5   8   1.7905   1.8267   4.1571   0.2761   1.3895  -0.9262   0.00    0.0
2327 194703.000  -33.951438395   18.468528146    87.1378   5   8   1.7907   1.8269   4.1574   0.2761   1.3899  -0.9265   0.00    0.0
2327 194704.000  -33.951438643   18.468532059    86.6683   5   8   1.7909   1.8271   4.1577   0.2762   1.3902  -0.9267   0.00    0.0
2327 194705.000  -33.951438293   18.468530183    86.6853   5   8   1.7911   1.8273   4.1581   0.2762   1.3906  -0.9270   0.00    0.0
2327 194706.000  -33.951438923   18.468531415    86.9129   5   8   1.7913   1.8275   4.1584   0.2763   1.3909  -0.9272   0.00    0.0
2327 194707.000  -33.951439782   18.468528683    86.5277   5   8   1.7915   1.8277   4.1587   0.2763   1.3913  -0.9275   0.00    0.0
2327 194708.000  -33.951437168   18.468527255    87.2004   5   8   1.7917   1.8279   4.1591   0.2764   1.3916  -0.9277   0.00    0.0
2327 194709.000  -33.951438889   18.468531006    87.5493   5   8   1.7919   1.8281   4.1594   0.2764   1.3920  -0.9280   0.00    0.0
2327 194710.000  -33.951440103   18.468531997    86.7475   5   8   1.7921   1.8283   4.1598   0.2765   1.3923  -0.9282   0.00    0.0
2327 194711.000  -33.951436078   18.468528482    87.1364   5   8   1.7923   1.8285   4.1601   0.2765   1.3927  -0.9285   0.00    0.0
2327 194712.000  -33.951439575   18.468532274    87.2595   5   8   1.7926   1.8287   4.1604   0.2766   1.3930  -0.9287   0.00    0.0
2327 194713.000  -33.951434822   18.468529349    86.8371   5   8   1.7928   1.8289   4.1608   0.2766   1.3934  -0.9290   0.00    0.0
2327 194714.000  -33.951438651   18.468533403    87.3694   5   8   1.7930   1.8291   4.1611   0.2767   1.3937  -0.9292   0.00    0.0
2327 194715.000  -33.951439200   18.468532664    86.5199   5   8   1.7932   1.8293   4.1615   0.2767   1.3941  -0.9295   0.00    0.0
2327 194716.000  -33.951440725   18.468533332    86.3224   5   8   1.7934   1.8295   4.1618   0.2768   1.3944  -0.9297   0.00    0.0
2327 194717.000  -33.951438089   18.468529150    86.4446   5   8   1.7936   1.8297   4.1621   0.2768   1.3948  -0.9300   0.00    0.0
2327 194718.000  -33.951436525   18.468532299    87.6091   5   8   1.7938   1.8299   4.1625   0.2769   1.3951  -0.9302   0.00    0.0
2327 194719.000  -33.951435375   18.468534251    86.6177   5   8   1.7940   1.8301   4.1628   0.2769   1.3954  -0.9304   0.00    0.0
2327 194720.000  -33.951436063   18.468531215    86.6837   5   8   1.7942   1.8303   4.1632   0.2770   1.3958  -0.9307   0.00    0.0
2327 194721.000  -33.951438405   18.468529216    86.6578   5   8   1.7945   1.8305   4.1635   0.2770   1.3961  -0.9309   0.00    0.0
2327 194722.000  -33.951437301   18.468532357    86.8658   5   8   1.7947   1.8307   4.1639   0.2771   1.3965  -0.9312   0.00    0.0
2327 194723.000  -33.951435404   18.468532809    87.0474   5   8   1.7949   1.8309   4.1642   0.2771   1.3969  -0.9314   0.00    0.0
2327 194724.000  -33.951437158   18.468529635    86.9255   5   8   1.7951   1.8311   4.1645   0.2772   1.3972  -0.9317   0.00    0.0
2327 194725.000  -33.951436628   18.468530223    87.2090   5   8   1.7953   1.8313   4.1649   0.2772   1.3976  -0.9319   0.00    0.0
2327 194726.000  -33.951437063   18.468529186    86.4769   5   8   1.7955   1.8315   4.1652   0.2773   1.3979  -0.9322   0.00    0.0
2327 194727.000  -33.951439032   18.468530938    87.4119   5   8   1.7957   1.8317   4.1656   0.2773   1.3983  -0.9324   0.00    0.0
2327 194728.000  -33.951440147   18.468530969    87.8305   5   8   1.7960   1.8319   4.1659   0.2774   1.3986  -0.9327   0.00    0.0
2327 194729.000  -33.951436613   18.468530633    87.1192   5   8   1.7962   1.8321   4.1663   0.2774   1.3990  -0.9329   0.00    0.0
2327 194730.000  -33.951438282   18.468529440    86.8414   5   8   1.7964   1.8323   4.1666   0.2775   1.3993  -0.9332   0.00    0.0
2327 194731.000  -33.951435712   18.468531484    86.7194   5   8   1.7966   1.8325   4.1670   0.2776   1.3997  -0.9334   0.00    0.0
2327 194732.000  -33.951438850   18.468527362    87.3469   5   8   1.7968   1.8327   4.1673   0.2776   1.4000  -0.9337   0.00    0.0
2327 194733.000  -33.951439309   18.468528595    86.2953   5   8   1.7970   1.8329   4.1677   0.2777   1.4004  -0.9339   0.00    0.0
2327 194734.000  -33.951436671   18.468526163    86.4596   5   8   1.7973   1.8331   4.1680   0.2777   1.4007  -0.9342   0.00    0.0
2327 194735.000  -33.951440140   18.468527928    86.6617   5   8   1.7975   1.8333   4.1684   0.2778   1.4011  -0.9344   0.00    0.0
2327 194736.000  -33.951437727   18.468527365    86.7943   5   8   1.7977   1.8335   4.1687   0.2778   1.4014  -0.9347   0.00    0.0
2327 194737.000  -33.951437795   18.468526090    86.7052   5   8   1.7979   1.8337   4.1691   0.2779   1.4018  -0.9349   0.00    0.0
2327 194738.000  -33.951435591   18.468528350    86.6724   5   8   1.7981   1.8339   4.1694   0.2780   1.4021  -0.9352   0.00    0.0
2327 194739.000  -33.951434681   18.468523802    86.2783   5   8   1.7984   1.8342   4.1698   0.2780   1.4025  -0.9354   0.00    0.0
2327 194740.000  -33.951436434   18.468527343    86.8787   5   8   1.7986   1.8344   4.1702   0.2781   1.4028  -0.9357   0.00    0.0
2327 194741.000  -33.951436289   18.468529846    86.9152   5   8   1.7988   1.8346   4.1705   0.2781   1.4032  -0.9359   0.00    0.0
2327 194742.000  -33.951439838   18.468524132    87.3228   5   8   1.7990   1.8348   4.1709   0.2782   1.4035  -0.9362   0.00    0.0
2327 194743.000  -33.951437457   18.468524719    86.9876   5   8   1.7993   1.8350   4.1712   0.2783   1.4039  -0.9364   0.00    0.0
2327 194744.000  -33.951436717   18.468528158    87.3123   5   8   1.7995   1.8352   4.1716   0.2783   1.4042  -0.9367   0.00    0.0
2327 194745.000  -33.951439179   18.468527585    86.3226   5   8   1.7997   1.8354   4.1719   0.2784   1.4046  -0.9369   0.00    0.0
2327 194746.000  -33.951434951   18.468530970    86.6469   5   8   1.7999   1.8356   4.1723   0.2785   1.4049  -0.9372   0.00    0.0
2327 194747.000  -33.951436281   18.468529621    86.9797   5   8   1.8001   1.8358   4.1727   0.2785   1.4053  -0.9374   0.00    0.0
2327 194748.000  -33.951437010   18.468528803    86.3990   5   8   1.8004   1.8360   4.1730   0.2786   1.4057  -0.9377   0.00    0.0
2327 194749.000  -33.951435527   18.468528013    86.8174   5   8   1.8006   1.8362   4.1734   0.2786   1.4060  -0.9379   0.00    0.0
2327 194750.000  -33.951436236   18.468527210    86.3239   5   8   1.8008   1.8364   4.1737   0.2787   1.4064  -0.9382   0.00    0.0
2327 194751.000  -33.951436327   18.468527156    85.7416   5   8   1.8010   1.8367   4.1741   0.2788   1.4067  -0.9384   0.00    0.0
2327 194752.000  -33.951434339   18.468527168    87.1360   5   8   1.8013   1.8369   4.1745   0.2788   1.4071  -0.9387   0.00    0.0
2327 194753.000  -33.951436595   18.468525918    87.2080   5   8   1.8015   1.8371   4.1748   0.2789   1.4074  -0.9389   0.00    0.0
2327 194754.000  -33.951436874   18.468527602    86.2573   5   8   1.8017   1.8373   4.1752   0.2790   1.4078  -0.9391   0.00    0.0
2327 194755.000  -33.951437356   18.468526205    86.5139   5   8   1.8019   1.8375   4.1756   0.2790   1.4081  -0.9394   0.00    0.0
2327 194756.000  -33.951436069   18.468525368    86.0476   5   8   1.8022   1.8377   4.1759   0.2791   1.4085  -0.9396   0.00    0.0
2327 194757.000  -33.951437277   18.468529527    86.7405   5   8   1.8024   1.8379   4.1763   0.2792   1.4088  -0.9399   0.00    0.0
2327 194758.000  -33.951434821   18.468526991    86.9189   5   8   1.8026   1.8381   4.1766   0.2792   1.4092  -0.9401   0.00    0.0
2327 194759.000  -33.951438469   18.468526503    86.9062   5   8   1.8029   1.8383   4.1770   0.2793   1.4096  -0.9404   0.00    0.0
2327 194760.000  -33.951437349   18.468527310    87.0873   5   8   1.8031   1.8386   4.1774   0.2794   1.4099  -0.9406   0.00    0.0
2327 194761.000  -33.951437343   18.468526271    87.0995   5   8   1.8033   1.8388   4.1777   0.2794   1.4103  -0.9409   0.00    0.0
2327 194762.000  -33.951437587   18.468527747    87.7196   5   8   1.8035   1.8390   4.1781   0.2795   1.4106  -0.9411   0.00    0.0
2327 194763.000  -33.951435799   18.468524390    86.5021   5   8   1.8038   1.8392   4.1785   0.2796   1.4110  -0.9414   0.00    0.0
2327 194764.000  -33.951438053   18.468525885    86.5305   5   8   1.8040   1.8394   4.1789   0.2797   1.4113  -0.9416   0.00    0.0
2327 194765.000  -33.951439695   18.468529811    87.1795   5   8   1.8042   1.8396   4.1792   0.2797   1.4117  -0.9419   0.00    0.0
2327 194766.000  -33.951437031   18.468527018    87.4067   5   8   1.8045   1.8398   4.1796   0.2798   1.4121  -0.9421   0.00    0.0
2327 194767.000  -33.951439416   18.468523465    87.5791   5   8   1.8047   1.8401   4.1800   0.2799   1.4124  -0.9424   0.00    0.0
2327 194768.000  -33.951438413   18.468527816    87.1471   5   8   1.8049   1.8403   4.1803   0.2799   1.4128  -0.9426   0.00    0.0
2327 194769.000  -33.951437645   18.468530929    87.2853   5   8   1.8052   1.8405   4.1807   0.2800   1.4131  -0.9429   0.00    0.0
2327 194770.000  -33.951439729   18.468527554    87.2199   5   8   1.8054   1.8407   4.1811   0.2801   1.4135  -0.9431   0.00    0.0
2327 194771.000  -33.951436536   18.468527122    87.0419   5   8   1.8056   1.8409   4.1815   0.2802   1.4138  -0.9434   0.00    0.0
2327 194772.000  -33.951435599   18.468529051    86.7792   5   8   1.8059   1.8411   4.1818   0.2802   1.4142  -0.9436   0.00    0.0
2327 194773.000  -33.951437204   18.468526160    86.6981   5   8   1.8061   1.8414   4.1822   0.2803   1.4146  -0.9439   0.00    0.0
2327 194774.000  -33.951439903   18.468531480    87.4744   5   8   1.8063   1.8416   4.1826   0.2804   1.4149  -0.9441   0.00    0.0
2327 194775.000  -33.951436442   18.468529110    86.9975   5   8   1.8066   1.8418   4.1830   0.2805   1.4153  -0.9444   0.00    0.0
2327 194776.000  -33.951436776   18.468526744    87.2932   5   8   1.8068   1.8420   4.1833   0.2805   1.4156  -0.9446   0.00    0.0
2327 194777.000  -33.951434833   18.468526967    87.0846   5   8   1.8070   1.8422   4.1837   0.2806   1.4160  -0.9449   0.00    0.0
2327 194778.000  -33.951434905   18.468529449    87.3893   5   8   1.8073   1.8424   4.1841   0.2807   1.4163  -0.9451   0.00    0.0
2327 194779.000  -33.951436521   18.468528332    87.2645   5   8   1.8075   1.8427   4.1845   0.2808   1.4167  -0.9453   0.00    0.0
2327 194780.000  -33.951438613   18.468527457    87.0992   5   8   1.8077   1.8429   4.1848   0.2808   1.4171  -0.9456   0.00    0.0
2327 194781.000  -33.951437932   18.468527923    86.6828   5   8   1.8080   1.8431   4.1852   0.2809   1.4174  -0.9458   0.00    0.0
2327 194782.000  -33.951438099   18.468525644    86.5343   5   8   1.8082   1.8433   4.1856   0.2810   1.4178  -0.9461   0.00    0.0
2327 194783.000  -33.951439088   18.468527399    86.9383   5   8   1.8085   1.8435   4.1860   0.2811   1.4181  -0.9463   0.00    0.0
2327 194784.000  -33.951435513   18.468526764    87.1952   5   8   1.8087   1.8438   4.1864   0.2812   1.4185  -0.9466   0.00    0.0
2327 194785.000  -33.951436528   18.468530036    87.5116   5   8   1.8089   1.8440   4.1868   0.2812   1.4189  -0.9468   0.00    0.0
2327 194786.000  -33.951436828   18.468526312    87.0387   5   8   1.8092   1.8442   4.1871   0.2813   1.4192  -0.9471   0.00    0.0
2327 194787.000  -33.951437212   18.468526971    87.2119   5   8   1.8094   1.8444   4.1875   0.2814   1.4196  -0.9473   0.00    0.0
2327 194788.000  -33.951437734   18.468529386    87.9533   5   8   1.8097   1.8446   4.1879   0.2815   1.4199  -0.9476   0.00    0.0
2327 194789.000  -33.951436976   18.468530463    87.9590   5   8   1.8099   1.8449   4.1883   0.2816   1.4203  -0.9478   0.00    0.0
2327 194790.000  -33.951438334   18.468528377    87.4466   5   8   1.8101   1.8451   4.1887   0.2816   1.4207  -0.9481   0.00    0.0
2327 194791.000  -33.951435721   18.468527874    87.7111   5   8   1.8104   1.8453   4.1891   0.2817   1.4210  -0.9483   0.00    0.0
2327 194792.000  -33.951437083   18.468529816    88.5990   5   8   1.8106   1.8455   4.1894   0.2818   1.4214  -0.9486   0.00    0.0
2327 194793.000  -33.951435336   18.468528289    87.9821   5   8   1.8109   1.8457   4.1898   0.2819   1.4217  -0.9488   0.00    0.0
2327 194794.000  -33.951436046   18.468522720    87.0133   5   8   1.8111   1.8460   4.1902   0.2820   1.4221  -0.9491   0.00    0.0
2327 194795.000  -33.951436880   18.468523311    87.2723   5   8   1.8113   1.8462   4.1906   0.2821   1.4225  -0.9493   0.00    0.0
2327 194796.000  -33.951436151   18.468528406    87.6120   5   8   1.8116   1.8464   4.1910   0.2821   1.4228  -0.9496   0.00    0.0
2327 194797.000  -33.951438232   18.468528462    87.7360   5   8   1.8118   1.8466   4.1914   0.2822   1.4232  -0.9498   0.00    0.0
2327 194798.000  -33.951437653   18.468527940    87.3805   5   8   1.8121   1.8469   4.1918   0.2823   1.4235  -0.9501   0.00    0.0
2327 194799.000  -33.951437176   18.468530508    87.9951   5   8   1.8123   1.8471   4.1922   0.2824   1.4239  -0.9503   0.00    0.0
2327 194800.000  -33.951437284   18.468531443    87.0612   5   8   1.8126   1.8473   4.1926   0.2825   1.4243  -0.9505   0.00    0.0
2327 194801.000  -33.951438397   18.468526478    87.0676   5   8   1.8128   1.8475   4.1929   0.2826   1.4246  -0.9508   0.00    0.0
2327 194802.000  -33.951436156   18.468529686    87.4419   5   8   1.8131   1.8478   4.1933   0.2826   1.4250  -0.9510   0.00    0.0
2327 194803.000  -33.951436888   18.468530194    87.3743   5   8   1.8133   1.8480   4.1937   0.2827   1.4253  -0.9513   0.00    0.0
2327 194804.000  -33.951438644   18.468524923    86.8945   5   8   1.8135   1.8482   4.1941   0.2828   1.4257  -0.9515   0.00    0.0
2327 194805.000  -33.951436980   18.468527507    87.5940   5   8   1.8138   1.8484   4.1945   0.2829   1.4261  -0.9518   0.00    0.0
2327 194806.000  -33.951439011   18.468528211    87.4180   5   8   1.8140   1.8487   4.1949   0.2830   1.4264  -0.9520   0.00    0.0
2327 194807.000  -33.951437731   18.468530991    88.0250   5   8   1.8143   1.8489   4.1953   0.2831   1.4268  -0.9523   0.00    0.0
2327 194808.000  -33.951437483   18.468530454    87.3350   5   8   1.8145   1.8491   4.1957   0.2832   1.4272  -0.9525   0.00    0.0
2327 194809.000  -33.951436206   18.468526932    88.1458   5   8   1.8148   1.8493   4.1961   0.2833   1.4275  -0.9528   0.00    0.0
2327 194810.000  -33.951437915   18.468527951    88.3567   5   8   1.8150   1.8496   4.1965   0.2834   1.4279  -0.9530   0.00    0.0
2327 194811.000  -33.951438410   18.468527434    87.8858   5   8   1.8153   1.8498   4.1969   0.2834   1.4282  -0.9533   0.00    0.0
2327 194812.000  -33.951437901   18.468526919    87.0190   5   8   1.8155   1.8500   4.1973   0.2835   1.4286  -0.9535   0.00    0.0
2327 194813.000  -33.951439088   18.468528494    87.6804   5   8   1.8158   1.8502   4.1977   0.2836   1.4290  -0.9538   0.00    0.0
2327 194814.000  -33.951440532   18.468523492    86.8746   5   8   1.8160   1.8505   4.1981   0.2837   1.4293  -0.9540   0.00    0.0
2327 194815.000  -33.951438926   18.468525401    87.9889   5   8   1.8163   1.8507   4.1985   0.2838   1.4297  -0.9543   0.00    0.0
2327 194816.000  -33.951439412   18.468525869    87.9413   5   8   1.8165   1.8509   4.1989   0.2839   1.4301  -0.9545   0.00    0.0
2327 194817.000  -33.951439536   18.468529450    87.8470   5   8   1.8168   1.8512   4.1993   0.2840   1.4304  -0.9548   0.00    0.0
2327 194818.000  -33.951437346   18.468528011    87.7963   5   8   1.8170   1.8514   4.1997   0.2841   1.4308  -0.9550   0.00    0.0
2327 194819.000  -33.951435776   18.468528698    88.3717   5   8   1.8173   1.8516   4.2001   0.2842   1.4312  -0.9553   0.00    0.0
2327 194820.000  -33.951440132   18.468527790    88.1008   5   8   1.8175   1.8518   4.2005   0.2843   1.4315  -0.9555   0.00    0.0
2327 194821.000  -33.951437428   18.468530098    87.9588   5   8   1.8178   1.8521   4.2009   0.2844   1.4319  -0.9557   0.00    0.0
2327 194822.000  -33.951436433   18.468526856    87.3566   5   8   1.8180   1.8523   4.2013   0.2845   1.4323  -0.9560   0.00    0.0
2327 194823.000  -33.951439567   18.468529121    87.1582   5   8   1.8183   1.8525   4.2017   0.2846   1.4326  -0.9562   0.00    0.0
2327 194824.000  -33.951438896   18.468525567    87.1190   5   8   1.8185   1.8528   4.2021   0.2847   1.4330  -0.9565   0.00    0.0
2327 194825.000  -33.951438527   18.468529113    87.8261   5   8   1.8188   1.8530   4.2025   0.2848   1.4334  -0.9567   0.00    0.0
2327 194826.000  -33.951440036   18.468530954    88.0565   5   8   1.8191   1.8532   4.2029   0.2848   1.4337  -0.9570   0.00    0.0
2327 194827.000  -33.951440726   18.468527165    87.2652   5   8   1.8193   1.8535   4.2033   0.2849   1.4341  -0.9572   0.00    0.0
2327 194828.000  -33.951439158   18.468530447    87.4273   5   8   1.8196   1.8537   4.2037   0.2850   1.4344  -0.9575   0.00    0.0
2327 194829.000  -33.951437823   18.468530173    87.1398   5   8   1.8198   1.8539   4.2042   0.2851   1.4348  -0.9577   0.00    0.0
2327 194830.000  -33.951437253   18.468522527    86.8405   5   8   1.8201   1.8542   4.2046   0.2852   1.4352  -0.9580   0.00    0.0
2327 194831.000  -33.951435345   18.468527905    87.4141   5   8   1.8203   1.8544   4.2050   0.2853   1.4355  -0.9582   0.00    0.0
2327 194832.000  -33.951437616   18.468528116    87.6665   5   8   1.8206   1.8546   4.2054   0.2854   1.4359  -0.9585   0.00    0.0
2327 194833.000  -33.951438776   18.468526722    88.2156   5   8   1.8208   1.8549   4.2058   0.2855   1.4363  -0.9587   0.00    0.0
2327 194834.000  -33.951438320   18.468527680    88.2766   5   8   1.8211   1.8551   4.2062   0.2856   1.4366  -0.9590   0.00    0.0
2327 194835.000  -33.951439003   18.468529741    87.2313   5   8   1.8214   1.8553   4.2066   0.2857   1.4370  -0.9592   0.00    0.0
2327 194836.000  -33.951439996   18.468531908    88.1498   5   8   1.8216   1.8556   4.2070   0.2858   1.4374  -0.9595   0.00    0.0
2327 194837.000  -33.951437807   18.468528478    88.0763   5   8   1.8219   1.8558   4.2074   0.2859   1.4377  -0.9597   0.00    0.0
2327 194838.000  -33.951439176   18.468529778    87.5631   5   8   1.8221   1.8560   4.2079   0.2860   1.4381  -0.9600   0.00    0.0
2327 194839.000  -33.951438395   18.468526495    88.5944   5   8   1.8224   1.8563   4.2083   0.2861   1.4385  -0.9602   0.00    0.0
2327 194840.000  -33.951441870   18.468530801    88.5311   5   8   1.8227   1.8565   4.2087   0.2862   1.4389  -0.9604   0.00    0.0
2327 194841.000  -33.951437484   18.468525880    87.8145   5   8   1.8229   1.8567   4.2091   0.2863   1.4392  -0.9607   0.00    0.0
2327 194842.000  -33.951440415   18.468531336    87.9774   5   8   1.8232   1.8570   4.2095   0.2864   1.4396  -0.9609   0.00    0.0
2327 194843.000  -33.951437874   18.468530058    87.7185   5   8   1.8234   1.8572   4.2099   0.2865   1.4400  -0.9612   0.00    0.0
2327 194844.000  -33.951440469   18.468532883    88.0112   5   8   1.8237   1.8574   4.2104   0.2867   1.4403  -0.9614   0.00    0.0
2327 194845.000  -33.951442353   18.468530428    88.0485   5   8   1.8240   1.8577   4.2108   0.2868   1.4407  -0.9617   0.00    0.0
2327 194846.000  -33.951443367   18.468528163    87.6523   5   8   1.8242   1.8579   4.2112   0.2869   1.4411  -0.9619   0.00    0.0
2327 194847.000  -33.951437505   18.468526749    87.7395   5   8   1.8245   1.8582   4.2116   0.2870   1.4414  -0.9622   0.00    0.0
2327 194848.000  -33.951438447   18.468531664    87.6737   5   8   1.8248   1.8584   4.2120   0.2871   1.4418  -0.9624   0.00    0.0
2327 194849.000  -33.951438105   18.468529773    87.0828   5   8   1.8250   1.8586   4.2124   0.2872   1.4422  -0.9627   0.00    0.0
2327 194850.000  -33.951438919   18.468523738    87.6697   5   8   1.8253   1.8589   4.2129   0.2873   1.4425  -0.9629   0.00    0.0
2327 194851.000  -33.951437598   18.468528915    87.7247   5   8   1.8252   1.8589   4.2127   0.2873   1.4427  -0.9630   0.00    0.0
2327 194852.000  -33.951438117   18.468530071    87.9291   5   8   1.8252   1.8588   4.2125   0.2873   1.4429  -0.9630   0.00    0.0
2327 194853.000  -33.951438262   18.468532398    88.1937   5   8   1.8251   1.8588   4.2123   0.2873   1.4431  -0.9631   0.00    0.0
2327 194854.000  -33.951441206   18.468526217    87.3744   5   8   1.8251   1.8588   4.2121   0.2873   1.4432  -0.9631   0.00    0.0
2327 194855.000  -33.951437943   18.468529159    87.9188   5   8   1.8250   1.8587   4.2119   0.2873   1.4434  -0.9632   0.00    0.0
2327 194856.000  -33.951437912   18.468530980    88.0331   5   8   1.8250   1.8587   4.2117   0.2873   1.4436  -0.9632   0.00    0.0
2327 194857.000  -33.951439035   18.468532153    87.7559   5   8   1.8249   1.8587   4.2114   0.2873   1.4437  -0.9633   0.00    0.0
2327 194858.000  -33.951436775   18.468532394    88.4011   5   8   1.8248   1.8586   4.2112   0.2873   1.4439  -0.9633   0.00    0.0
2327 194859.000  -33.951438239   18.468530492    88.3737   5   8   1.8248   1.8586   4.2110   0.2873   1.4441  -0.9634   0.00    0.0
2327 194860.000  -33.951439962   18.468527393    88.4209   5   8   1.8247   1.8586   4.2108   0.2873   1.4442  -0.9634   0.00    0.0
2327 194861.000  -33.951438811   18.468530919    88.5833   5   8   1.8247   1.8586   4.2106   0.2873   1.4444  -0.9634   0.00    0.0
2327 194862.000  -33.951439020   18.468530077    87.8619   5   8   1.8246   1.8585   4.2104   0.2873   1.4446  -0.9635   0.00    0.0
2327 194863.000  -33.951441320   18.468531452    87.3471   5   8   1.8246   1.8585   4.2102   0.2873   1.4447  -0.9635   0.00    0.0
2327 194864.000  -33.951438340   18.468533026    88.8420   5   8   1.8245   1.8585   4.2100   0.2873   1.4449  -0.9636   0.00    0.0
2327 194865.000  -33.951439742   18.468530291    88.0542   5   8   1.8244   1.8585   4.2098   0.2874   1.4451  -0.9636   0.00    0.0
2327 194866.000  -33.951434572   18.468528745    88.4232   5   8   1.8244   1.8584   4.2096   0.2874   1.4452  -0.9637   0.00    0.0
2327 194867.000  -33.951438207   18.468527225    87.0879   5   8   1.8243   1.8584   4.2094   0.2874   1.4454  -0.9637   0.00    0.0
2327 194868.000  -33.951438582   18.468529260    87.4492   5   8   1.8243   1.8584   4.2092   0.2874   1.4456  -0.9638   0.00    0.0
2327 194869.000  -33.951435991   18.468529287    87.6643   5   8   1.8242   1.8583   4.2090   0.2874   1.4457  -0.9638   0.00    0.0
2327 194870.000  -33.951435667   18.468529113    87.6512   5   8   1.8242   1.8583   4.2088   0.2874   1.4459  -0.9638   0.00    0.0
2327 194871.000  -33.951437899   18.468529292    88.4776   5   8   1.8241   1.8583   4.2086   0.2874   1.4461  -0.9639   0.00    0.0
2327 194872.000  -33.951437534   18.468530174    87.2888   5   8   1.8241   1.8583   4.2084   0.2874   1.4462  -0.9639   0.00    0.0
2327 194873.000  -33.951438672   18.468529190    88.0286   5   8   1.8240   1.8582   4.2082   0.2874   1.4464  -0.9640   0.00    0.0
2327 194874.000  -33.951436771   18.468523991    87.6996   5   8   1.8240   1.8582   4.2080   0.2874   1.4466  -0.9640   0.00    0.0
2327 194875.000  -33.951438046   18.468527568    87.7513   5   8   1.8239   1.8582   4.2078   0.2875   1.4467  -0.9641   0.00    0.0
2327 194876.000  -33.951435740   18.468526412    87.0249   5   8   1.8239   1.8582   4.2076   0.2875   1.4469  -0.9641   0.00    0.0
2327 194877.000  -33.951438377   18.468528092    87.4707   5   8   1.8238   1.8581   4.2074   0.2875   1.4471  -0.9642   0.00    0.0
2327 194878.000  -33.951439031   18.468526952    87.6423   5   8   1.8238   1.8581   4.2072   0.2875   1.4472  -0.9642   0.00    0.0
2327 194879.000  -33.951439791   18.468533393    89.0195   5   8   1.8237   1.8581   4.2070   0.2875   1.4474  -0.9642   0.00    0.0
2327 194880.000  -33.951441182   18.468528160    88.2374   5   8   1.8237   1.8581   4.2068   0.2875   1.4476  -0.9643   0.00    0.0
2327 194881.000  -33.951440039   18.468528249    88.1152   5   8   1.8236   1.8581   4.2066   0.2875   1.4477  -0.9643   0.00    0.0
2327 194882.000  -33.951436085   18.468531930    87.3540   5   8   1.8236   1.8580   4.2064   0.2876   1.4479  -0.9644   0.00    0.0
2327 194883.000  -33.951437098   18.468528711    88.0587   5   8   1.8235   1.8580   4.2062   0.2876   1.4481  -0.9644   0.00    0.0
2327 194884.000  -33.951437443   18.468526496    87.5435   5   8   1.8235   1.8580   4.2060   0.2876   1.4482  -0.9645   0.00    0.0
2327 194885.000  -33.951438471   18.468528090    87.9768   5   8   1.8234   1.8580   4.2058   0.2876   1.4484  -0.9645   0.00    0.0
2327 194886.000  -33.951437539   18.468529583    88.1649   5   8   1.8234   1.8579   4.2056   0.2876   1.4486  -0.9645   0.00    0.0
2327 194887.000  -33.951437707   18.468528902    87.8765   5   8   1.8233   1.8579   4.2054   0.2876   1.4487  -0.9646   0.00    0.0
2327 194888.000  -33.951435552   18.468530177    87.7882   5   8   1.8233   1.8579   4.2052   0.2877   1.4489  -0.9646   0.00    0.0
2327 194889.000  -33.951438057   18.468527695    87.8040   5   8   1.8232   1.8579   4.2050   0.2877   1.4491  -0.9647   0.00    0.0
2327 194890.000  -33.951438953   18.468527834    87.3598   5   8   1.8232   1.8579   4.2048   0.2877   1.4492  -0.9647   0.00    0.0
2327 194891.000  -33.951434167   18.468526462    87.0236   5   8   1.8231   1.8578   4.2047   0.2877   1.4494  -0.9648   0.00    0.0
2327 194892.000  -33.951437104   18.468528474    87.2400   5   8   1.8231   1.8578   4.2045   0.2877   1.4496  -0.9648   0.00    0.0
2327 194893.000  -33.951439530   18.468533091    87.6093   5   8   1.8231   1.8578   4.2043   0.2878   1.4498  -0.9648   0.00    0.0
2327 194894.000  -33.951436858   18.468529194    87.8381   5   8   1.8230   1.8578   4.2041   0.2878   1.4499  -0.9649   0.00    0.0
2327 194895.000  -33.951438166   18.468529479    87.4128   5   8   1.8230   1.8578   4.2039   0.2878   1.4501  -0.9649   0.00    0.0
2327 194896.000  -33.951438714   18.468528693    87.6278   5   8   1.8229   1.8578   4.2037   0.2878   1.4503  -0.9650   0.00    0.0
2327 194897.000  -33.951436304   18.468529774    88.7821   5   8   1.8229   1.8577   4.2035   0.2878   1.4504  -0.9650   0.00    0.0
2327 194898.000  -33.951435429   18.468525746    87.4981   5   8   1.8228   1.8577   4.2033   0.2879   1.4506  -0.9650   0.00    0.0
2327 194899.000  -33.951439503   18.468530977    88.0917   5   8   1.8228   1.8577   4.2031   0.2879   1.4508  -0.9651   0.00    0.0
2327 194900.000  -33.951438841   18.468526772    87.4176   5   8   1.8228   1.8577   4.2029   0.2879   1.4509  -0.9651   0.00    0.0
2327 194901.000  -33.951435419   18.468527689    87.5827   5   8   1.8227   1.8577   4.2028   0.2879   1.4511  -0.9652   0.00    0.0
2327 194902.000  -33.951438950   18.468526136    87.2588   5   8   1.8227   1.8577   4.2026   0.2880   1.4513  -0.9652   0.00    0.0
2327 194903.000  -33.951437064   18.468528016    87.7569   5   8   1.8226   1.8576   4.2024   0.2880   1.4514  -0.9653   0.00    0.0
2327 194904.000  -33.951435436   18.468526994    87.4591   5   8   1.8226   1.8576   4.2022   0.2880   1.4516  -0.9653   0.00    0.0
2327 194905.000  -33.951437714   18.468528791    88.1752   5   8   1.8226   1.8576   4.2020   0.2881   1.4518  -0.9653   0.00    0.0
2327 194906.000  -33.951436891   18.468533514    88.7344   5   8   1.8225   1.8576   4.2018   0.2881   1.4519  -0.9654   0.00    0.0
2327 194907.000  -33.951436448   18.468527325    87.5506   5   8   1.8225   1.8576   4.2016   0.2881   1.4521  -0.9654   0.00    0.0
2327 194908.000  -33.951436964   18.468530187    87.7437   5   8   1.8224   1.8576   4.2015   0.2881   1.4523  -0.9655   0.00    0.0
2327 194909.000  -33.951437966   18.468531251    88.0897   5   8   1.8224   1.8575   4.2013   0.2882   1.4524  -0.9655   0.00    0.0
2327 194910.000  -33.951436139   18.468535582    88.8495   5   8   1.8224   1.8575   4.2011   0.2882   1.4526  -0.9655   0.00    0.0
2327 194911.000  -33.951434686   18.468532158    88.1632   5   8   1.8223   1.8575   4.2009   0.2882   1.4528  -0.9656   0.00    0.0
2327 194912.000  -33.951436061   18.468529767    88.0909   5   8   1.8223   1.8575   4.2007   0.2883   1.4529  -0.9656   0.00    0.0
2327 194913.000  -33.951437034   18.468525222    86.8189   5   8   1.8223   1.8575   4.2005   0.2883   1.4531  -0.9657   0.00    0.0
2327 194914.000  -33.951436474   18.468529111    87.1109   5   8   1.8222   1.8575   4.2004   0.2883   1.4533  -0.9657   0.00    0.0
2327 194915.000  -33.951438023   18.468529662    88.0617   5   8   1.8222   1.8575   4.2002   0.2884   1.4535  -0.9657   0.00    0.0
2327 194916.000  -33.951436870   18.468529691    87.8634   5   8   1.8221   1.8575   4.2000   0.2884   1.4536  -0.9658   0.00    0.0
2327 194917.000  -33.951436774   18.468530779    88.4157   5   8   1.8221   1.8574   4.1998   0.2884   1.4538  -0.9658   0.00    0.0
2327 194918.000  -33.951436611   18.468529859    87.4952   5   8   1.8221   1.8574   4.1996   0.2885   1.4540  -0.9659   0.00    0.0
2327 194919.000  -33.951435735   18.468528883    87.8564   5   8   1.8220   1.8574   4.1995   0.2885   1.4541  -0.9659   0.00    0.0
2327 194920.000  -33.951437804   18.468533633    88.5589   5   8   1.8220   1.8574   4.1993   0.2885   1.4543  -0.9659   0.00    0.0
2327 194921.000  -33.951435829   18.468529288    87.0156   5   8   1.8220   1.8574   4.1991   0.2886   1.4545  -0.9660   0.00    0.0
2327 194922.000  -33.951434033   18.468526847    87.4092   5   8   1.8219   1.8574   4.1989   0.2886   1.4546  -0.9660   0.00    0.0
2327 194923.000  -33.951436078   18.468527638    86.9230   5   8   1.8219   1.8574   4.1987   0.2886   1.4548  -0.9661   0.00    0.0
2327 194924.000  -33.951438083   18.468529301    87.4605   5   8   1.8219   1.8574   4.1986   0.2887   1.4550  -0.9661   0.00    0.0
2327 194925.000  -33.951438532   18.468528874    87.8018   5   8   1.8218   1.8574   4.1984   0.2887   1.4551  -0.9661   0.00    0.0
2327 194926.000  -33.951436386   18.468530915    88.0725   5   8   1.8218   1.8574   4.1982   0.2887   1.4553  -0.9662   0.00    0.0
2327 194927.000  -33.951436644   18.468530849    87.8424   5   8   1.8218   1.8573   4.1980   0.2888   1.4555  -0.9662   0.00    0.0
2327 194928.000  -33.951435640   18.468530788    88.2091   5   8   1.8218   1.8573   4.1979   0.2888   1.4556  -0.9663   0.00    0.0
2327 194929.000  -33.951437470   18.468530760    87.7680   5   8   1.8217   1.8573   4.1977   0.2889   1.4558  -0.9663   0.00    0.0
2327 194930.000  -33.951438643   18.468530649    88.1852   5   8   1.8217   1.8573   4.1975   0.2889   1.4560  -0.9663   0.00    0.0
2327 194931.000  -33.951436361   18.468530262    88.5234   5   8   1.8217   1.8573   4.1973   0.2889   1.4562  -0.9664   0.00    0.0
2327 194932.000  -33.951435174   18.468529211    87.5272   5   8   1.8216   1.8573   4.1972   0.2890   1.4563  -0.9664   0.00    0.0
2327 194933.000  -33.951436994   18.468531499    87.4437   5   8   1.8216   1.8573   4.1970   0.2890   1.4565  -0.9665   0.00    0.0
2327 194934.000  -33.951433938   18.468529900    86.9922   5   8   1.8216   1.8573   4.1968   0.2891   1.4567  -0.9665   0.00    0.0
2327 194935.000  -33.951436853   18.468529810    86.2489   5   8   1.8215   1.8573   4.1967   0.2891   1.4568  -0.9665   0.00    0.0
2327 194936.000  -33.951439278   18.468529389    87.1118   5   8   1.8215   1.8573   4.1965   0.2891   1.4570  -0.9666   0.00    0.0
2327 194937.000  -33.951438077   18.468528187    87.2354   5   8   1.8215   1.8573   4.1963   0.2892   1.4572  -0.9666   0.00    0.0
2327 194938.000  -33.951436413   18.468531269    87.2337   5   8   1.8215   1.8573   4.1962   0.2892   1.4573  -0.9667   0.00    0.0
2327 194939.000  -33.951436319   18.468531904    88.4483   5   8   1.8214   1.8573   4.1960   0.2893   1.4575  -0.9667   0.00    0.0
2327 194940.000  -33.951437918   18.468529504    87.3871   5   8   1.8214   1.8573   4.1958   0.2893   1.4577  -0.9667   0.00    0.0
2327 194941.000  -33.951435046   18.468528266    87.9209   5   8   1.8214   1.8573   4.1956   0.2894   1.4579  -0.9668   0.00    0.0
2327 194942.000  -33.951435859   18.468528938    86.7996   5   8   1.8214   1.8573   4.1955   0.2894   1.4580  -0.9668   0.00    0.0
2327 194943.000  -33.951437928   18.468530233    87.6453   5   8   1.8213   1.8573   4.1953   0.2894   1.4582  -0.9669   0.00    0.0
2327 194944.000  -33.951437645   18.468530704    87.7629   5   8   1.8213   1.8572   4.1951   0.2895   1.4584  -0.9669   0.00    0.0
2327 194945.000  -33.951436696   18.468531940    87.3087   5   8   1.8213   1.8572   4.1950   0.2895   1.4585  -0.9669   0.00    0.0
2327 194946.000  -33.951437013   18.468528327    87.9672   5   8   1.8213   1.8572   4.1948   0.2896   1.4587  -0.9670   0.00    0.0
2327 194947.000  -33.951436534   18.468525440    86.7611   5   8   1.8212   1.8572   4.1946   0.2896   1.4589  -0.9670   0.00    0.0
2327 194948.000  -33.951436480   18.468527339    86.8976   5   8   1.8212   1.8572   4.1945   0.2897   1.4590  -0.9670   0.00    0.0
2327 194949.000  -33.951439657   18.468525019    86.9155   5   8   1.8212   1.8572   4.1943   0.2897   1.4592  -0.9671   0.00    0.0
2327 194950.000  -33.951435946   18.468532541    88.2654   5   8   1.8212   1.8572   4.1942   0.2898   1.4594  -0.9671   0.00    0.0
2327 194951.000  -33.951434931   18.468530857    87.9857   5   8   1.8212   1.8572   4.1940   0.2898   1.4595  -0.9672   0.00    0.0
2327 194952.000  -33.951437459   18.468529532    87.3009   5   8   1.8211   1.8572   4.1938   0.2899   1.4597  -0.9672   0.00    0.0
2327 194953.000  -33.951435030   18.468527330    86.7100   5   8   1.8211   1.8572   4.1937   0.2899   1.4599  -0.9672   0.00    0.0
2327 194954.000  -33.951436909   18.468529833    87.1023   5   8   1.8211   1.8572   4.1935   0.2900   1.4601  -0.9673   0.00    0.0
2327 194955.000  -33.951437417   18.468531261    87.0343   5   8   1.8211   1.8572   4.1933   0.2900   1.4602  -0.9673   0.00    0.0
2327 194956.000  -33.951437745   18.468530358    87.0995   5   8   1.8210   1.8572   4.1932   0.2901   1.4604  -0.9673   0.00    0.0
2327 194957.000  -33.951434446   18.468529994    87.4147   5   8   1.8210   1.8572   4.1930   0.2901   1.4606  -0.9674   0.00    0.0
2327 194958.000  -33.951438325   18.468530562    88.1883   5   8   1.8210   1.8572   4.1929   0.2902   1.4607  -0.9674   0.00    0.0
2327 194959.000  -33.951437031   18.468527966    86.7824   5   8   1.8210   1.8572   4.1927   0.2902   1.4609  -0.9675   0.00    0.0
2327 194960.000  -33.951435798   18.468529776    87.1134   5   8   1.8210   1.8572   4.1925   0.2903   1.4611  -0.9675   0.00    0.0
2327 194961.000  -33.951435660   18.468528833    87.4013   5   8   1.8210   1.8572   4.1924   0.2904   1.4613  -0.9675   0.00    0.0
2327 194962.000  -33.951438750   18.468530110    87.2868   5   8   1.8209   1.8572   4.1922   0.2904   1.4614  -0.9676   0.00    0.0
2327 194963.000  -33.951436958   18.468529089    87.5790   5   8   1.8209   1.8572   4.1921   0.2905   1.4616  -0.9676   0.00    0.0
2327 194964.000  -33.951439668   18.468531562    87.6486   5   8   1.8209   1.8572   4.1919   0.2905   1.4618  -0.9676   0.00    0.0
2327 194965.000  -33.951434656   18.468532623    87.8261   5   8   1.8209   1.8572   4.1918   0.2906   1.4619  -0.9677   0.00    0.0
2327 194966.000  -33.951436470   18.468530247    86.6695   5   8   1.8209   1.8572   4.1916   0.2906   1.4621  -0.9677   0.00    0.0
2327 194967.000  -33.951435225   18.468526889    87.1347   5   8   1.8209   1.8573   4.1914   0.2907   1.4623  -0.9678   0.00    0.0
2327 194968.000  -33.951434476   18.468529083    87.1035   5   8   1.8208   1.8573   4.1913   0.2908   1.4624  -0.9678   0.00    0.0
2327 194969.000  -33.951435177   18.468532778    87.2457   5   8   1.8208   1.8573   4.1911   0.2908   1.4626  -0.9678   0.00    0.0
2327 194970.000  -33.951435891   18.468530159    87.2802   5   8   1.8208   1.8573   4.1910   0.2909   1.4628  -0.9679   0.00    0.0
2327 194971.000  -33.951433726   18.468527957    86.9251   5   8   1.8208   1.8573   4.1908   0.2909   1.4630  -0.9679   0.00    0.0
2327 194972.000  -33.951435957   18.468525505    86.5882   5   8   1.8208   1.8573   4.1907   0.2910   1.4631  -0.9679   0.00    0.0
2327 194973.000  -33.951436457   18.468529857    87.2599   5   8   1.8208   1.8573   4.1905   0.2911   1.4633  -0.9680   0.00    0.0
2327 194974.000  -33.951435593   18.468533490    86.9477   5   8   1.8208   1.8573   4.1904   0.2911   1.4635  -0.9680   0.00    0.0
2327 194975.000  -33.951432689   18.468532576    87.5196   5   8   1.8207   1.8573   4.1902   0.2912   1.4636  -0.9680   0.00    0.0
2327 194976.000  -33.951438069   18.468533313    88.5537   5   8   1.8207   1.8573   4.1901   0.2912   1.4638  -0.9681   0.00    0.0
2327 194977.000  -33.951440149   18.468525421    87.2260   5   8   1.8207   1.8573   4.1899   0.2913   1.4640  -0.9681   0.00    0.0
2327 194978.000  -33.951437729   18.468529605    88.1387   5   8   1.8207   1.8573   4.1898   0.2914   1.4642  -0.9682   0.00    0.0
2327 194979.000  -33.951435999   18.468528774    87.4906   5   8   1.8207   1.8573   4.1896   0.2914   1.4643  -0.9682   0.00    0.0
2327 194980.000  -33.951434524   18.468525975    87.0603   5   8   1.8207   1.8573   4.1895   0.2915   1.4645  -0.9682   0.00    0.0
2327 194981.000  -33.951435219   18.468529536    87.5946   5   8   1.8207   1.8573   4.1893   0.2916   1.4647  -0.9683   0.00    0.0
2327 194982.000  -33.951434902   18.468531275    87.2735   5   8   1.8207   1.8573   4.1892   0.2916   1.4648  -0.9683   0.00    0.0
2327 194983.000  -33.951436024   18.468529851    87.9952   5   8   1.8207   1.8574   4.1890   0.2917   1.4650  -0.9683   0.00    0.0
2327 194984.000  -33.951434267   18.468529079    87.7323   5   8   1.8207   1.8574   4.1889   0.2917   1.4652  -0.9684   0.00    0.0
2327 194985.000  -33.951436707   18.468529278    87.1685   5   8   1.8206   1.8574   4.1887   0.2918   1.4654  -0.9684   0.00    0.0
2327 194986.000  -33.951438615   18.468526891    86.5930   5   8   1.8206   1.8574   4.1886   0.2919   1.4655  -0.9684   0.00    0.0
2327 194987.000  -33.951437317   18.468531861    87.2265   5   8   1.8206   1.8574   4.1884   0.2919   1.4657  -0.9685   0.00    0.0
2327 194988.000  -33.951434576   18.468528400    87.2643   5   8   1.8206   1.8574   4.1883   0.2920   1.4659  -0.9685   0.00    0.0
2327 194989.000  -33.951436327   18.468528871    88.0518   5   8   1.8206   1.8574   4.1882   0.2921   1.4660  -0.9686   0.00    0.0
2327 194990.000  -33.951436271   18.468528962    87.2075   5   8   1.8206   1.8574   4.1880   0.2922   1.4662  -0.9686   0.00    0.0
2327 194991.000  -33.951435696   18.468531298    88.0845   5   8   1.8206   1.8574   4.1879   0.2922   1.4664  -0.9686   0.00    0.0
2327 194992.000  -33.951438316   18.468529102    87.3599   5   8   1.8206   1.8574   4.1877   0.2923   1.4666  -0.9687   0.00    0.0
2327 194993.000  -33.951438178   18.468531466    87.5778   5   8   1.8206   1.8575   4.1876   0.2924   1.4667  -0.9687   0.00    0.0
2327 194994.000  -33.951438884   18.468528921    87.0791   5   8   1.8206   1.8575   4.1874   0.2924   1.4669  -0.9687   0.00    0.0
2327 194995.000  -33.951440995   18.468528550    88.0243   5   8   1.8206   1.8575   4.1873   0.2925   1.4671  -0.9688   0.00    0.0
2327 194996.000  -33.951435995   18.468529059    88.2248   5   8   1.8206   1.8575   4.1872   0.2926   1.4672  -0.9688   0.00    0.0
2327 194997.000  -33.951435988   18.468531637    88.2648   5   8   1.8206   1.8575   4.1870   0.2926   1.4674  -0.9688   0.00    0.0
2327 194998.000  -33.951437518   18.468532446    87.8424   5   8   1.8206   1.8575   4.1869   0.2927   1.4676  -0.9689   0.00    0.0
2327 194999.000  -33.951437000   18.468532199    87.4797   5   8   1.8206   1.8575   4.1867   0.2928   1.4678  -0.9689   0.00    0.0
2327 195000.000  -33.951436603   18.468530765    87.4931   5   8   1.8206   1.8575   4.1866   0.2929   1.4679  -0.9689   0.00    0.0
2327 195001.000  -33.951439149   18.468529351    87.3344   5   8   1.8206   1.8576   4.1865   0.2929   1.4681  -0.9690   0.00    0.0
2327 195002.000  -33.951438213   18.468529729    87.4219   5   8   1.8206   1.8576   4.1863   0.2930   1.4683  -0.9690   0.00    0.0
2327 195003.000  -33.951437159   18.468529643    87.5433   5   8   1.8206   1.8576   4.1862   0.2931   1.4685  -0.9690   0.00    0.0
2327 195004.000  -33.951440166   18.468530535    87.3936   5   8   1.8206   1.8576   4.1861   0.2932   1.4686  -0.9691   0.00    0.0
2327 195005.000  -33.951437259   18.468528447    86.7031   5   8   1.8206   1.8576   4.1859   0.2932   1.4688  -0.9691   0.00    0.0
2327 195006.000  -33.951438427   18.468533594    87.5284   5   8   1.8206   1.8576   4.1858   0.2933   1.4690  -0.9691   0.00    0.0
2327 195007.000  -33.951433098   18.468533017    87.2079   5   8   1.8206   1.8576   4.1856   0.2934   1.4691  -0.9692   0.00    0.0
2327 195008.000  -33.951436801   18.468529976    87.2081   5   8   1.8206   1.8577   4.1855   0.2935   1.4693  -0.9692   0.00    0.0
2327 195009.000  -33.951435238   18.468530818    87.3939   5   8   1.8206   1.8577   4.1854   0.2935   1.4695  -0.9693   0.00    0.0
2327 195010.000  -33.951435407   18.468529346    87.7767   5   8   1.8206   1.8577   4.1852   0.2936   1.4697  -0.9693   0.00    0.0
2327 195011.000  -33.951439275   18.468530433    87.3072   5   8   1.8206   1.8577   4.1851   0.2937   1.4698  -0.9693   0.00    0.0
2327 195012.000  -33.951437862   18.468526842    87.0894   5   8   1.8206   1.8577   4.1850   0.2938   1.4700  -0.9694   0.00    0.0
2327 195013.000  -33.951437807   18.468529962    87.6342   5   8   1.8206   1.8577   4.1849   0.2939   1.4702  -0.9694   0.00    0.0
2327 195014.000  -33.951437802   18.468529487    87.7480   5   8   1.8206   1.8578   4.1847   0.2939   1.4704  -0.9694   0.00    0.0
2327 195015.000  -33.951436578   18.468527916    87.6687   5   8   1.8206   1.8578   4.1846   0.2940   1.4705  -0.9695   0.00    0.0
2327 195016.000  -33.951436568   18.468529629    87.4684   5   8   1.8206   1.8578   4.1845   0.2941   1.4707  -0.9695   0.00    0.0
2327 195017.000  -33.951437185   18.468531336    87.3891   5   8   1.8206   1.8578   4.1843   0.2942   1.4709  -0.9695   0.00    0.0
2327 195018.000  -33.951437846   18.468529882    87.6612   5   8   1.8206   1.8578   4.1842   0.2943   1.4710  -0.9696   0.00    0.0
2327 195019.000  -33.951438087   18.468527705    88.1404   5   8   1.8206   1.8579   4.1841   0.2943   1.4712  -0.9696   0.00    0.0
2327 195020.000  -33.951435012   18.468528305    87.4009   5   8   1.8206   1.8579   4.1839   0.2944   1.4714  -0.9696   0.00    0.0
2327 195021.000  -33.951437578   18.468531483    87.5744   5   8   1.8206   1.8579   4.1838   0.2945   1.4716  -0.9697   0.00    0.0
2327 195022.000  -33.951437435   18.468532879    87.7803   5   8   1.8206   1.8579   4.1837   0.2946   1.4717  -0.9697   0.00    0.0
2327 195023.000  -33.951437592   18.468530375    87.5832   5   8   1.8206   1.8579   4.1836   0.2947   1.4719  -0.9697   0.00    0.0
2327 195024.000  -33.951434988   18.468529637    87.3001   5   8   1.8206   1.8580   4.1834   0.2948   1.4721  -0.9698   0.00    0.0
2327 195025.000  -33.951435101   18.468528850    87.3915   5   8   1.8206   1.8580   4.1833   0.2948   1.4723  -0.9698   0.00    0.0
2327 195026.000  -33.951435559   18.468527783    87.5261   5   8   1.8206   1.8580   4.1832   0.2949   1.4724  -0.9698   0.00    0.0
2327 195027.000  -33.951437592   18.468527776    87.3994   5   8   1.8207   1.8580   4.1831   0.2950   1.4726  -0.9699   0.00    0.0
2327 195028.000  -33.951438118   18.468526108    87.6861   5   8   1.8207   1.8580   4.1829   0.2951   1.4728  -0.9699   0.00    0.0
2327 195029.000  -33.951439625   18.468525882    87.3754   5   8   1.8207   1.8581   4.1828   0.2952   1.4730  -0.9699   0.00    0.0
2327 195030.000  -33.951437169   18.468528973    87.7185   5   8   1.8207   1.8581   4.1827   0.2953   1.4731  -0.9700   0.00    0.0
2327 195031.000  -33.951435494   18.468528967    87.6747   5   8   1.8207   1.8581   4.1826   0.2954   1.4733  -0.9700   0.00    0.0
2327 195032.000  -33.951436872   18.468528606    87.1112   5   8   1.8207   1.8581   4.1824   0.2955   1.4735  -0.9700   0.00    0.0
2327 195033.000  -33.951436263   18.468529246    87.1782   5   8   1.8207   1.8582   4.1823   0.2955   1.4737  -0.9701   0.00    0.0
2327 195034.000  -33.951437620   18.468529306    87.4514   5   8   1.8207   1.8582   4.1822   0.2956   1.4738  -0.9701   0.00    0.0
2327 195035.000  -33.951439178   18.468529446    88.6007   5   8   1.8207   1.8582   4.1821   0.2957   1.4740  -0.9701   0.00    0.0
2327 195036.000  -33.951435255   18.468528557    86.9851   5   8   1.8207   1.8582   4.1820   0.2958   1.4742  -0.9702   0.00    0.0
2327 195037.000  -33.951438188   18.468531758    87.7823   5   8   1.8208   1.8583   4.1818   0.2959   1.4744  -0.9702   0.00    0.0
2327 195038.000  -33.951438982   18.468530063    87.8241   5   8   1.8208   1.8583   4.1817   0.2960   1.4745  -0.9702   0.00    0.0
2327 195039.000  -33.951439518   18.468527586    87.4632   5   8   1.8208   1.8583   4.1816   0.2961   1.4747  -0.9703   0.00    0.0
2327 195040.000  -33.951435041   18.468533631    87.9394   5   8   1.8208   1.8583   4.1815   0.2962   1.4749  -0.9703   0.00    0.0
2327 195041.000  -33.951437101   18.468531797    87.5366   5   8   1.8208   1.8584   4.1814   0.2963   1.4751  -0.9703   0.00    0.0
2327 195042.000  -33.951437567   18.468537412    88.2949   5   8   1.8208   1.8584   4.1813   0.2964   1.4752  -0.9704   0.00    0.0
2327 195043.000  -33.951438317   18.468530532    88.3761   5   8   1.8208   1.8584   4.1811   0.2965   1.4754  -0.9704   0.00    0.0
2327 195044.000  -33.951436388   18.468527286    87.5758   5   8   1.8209   1.8584   4.1810   0.2966   1.4756  -0.9704   0.00    0.0
2327 195045.000  -33.951436888   18.468527707    87.4598   5   8   1.8209   1.8585   4.1809   0.2966   1.4758  -0.9705   0.00    0.0
2327 195046.000  -33.951441730   18.468530585    88.1048   5   8   1.8209   1.8585   4.1808   0.2967   1.4759  -0.9705   0.00    0.0
2327 195047.000  -33.951438015   18.468531820    87.4261   5   8   1.8209   1.8585   4.1807   0.2968   1.4761  -0.9705   0.00    0.0
2327 195048.000  -33.951438039   18.468526329    87.3101   5   8   1.8209   1.8586   4.1806   0.2969   1.4763  -0.9706   0.00    0.0
2327 195049.000  -33.951437772   18.468528073    87.2704   5   8   1.8209   1.8586   4.1805   0.2970   1.4765  -0.9706   0.00    0.0
2327 195050.000  -33.951440027   18.468527250    87.7231   5   8   1.8210   1.8586   4.1803   0.2971   1.4766  -0.9706   0.00    0.0
