% program   : RTKPOST ver.2.4.3 b34
% inp file  : C:\rtklib_realTime_PPP\to_obs-nav_dop\CTWN00ZAF0_A00GMV0_202408130603\CTWN00ZAF0_obs_202408130603.obs
% inp file  : C:\rtklib_realTime_PPP\to_obs-nav_dop\CTWN00ZAF0_A00GMV0_202408130603\CTWN00ZAF_nav_202408130603.nav
% inp file  : C:\rtklib_realTime_PPP\to_obs-nav_dop\CTWN00ZAF0_A00GMV0_202408130603\IGS0OPSULT_20242260600_02D_15M_ORB.SP3
% obs start : 2024/08/13 06:03:31.0 GPST (week2327 194611.0s)
% obs end   : 2024/08/13 12:05:28.0 GPST (week2327 216328.0s)
% pos mode  : PPP Static
% solution  : Combined
% elev mask : 15.0 deg
% dynamics  : off
% tidecorr  : on
% tropo opt : Saastamoinen
% ephemeris : Precise
% navi sys  : GPS
% antenna1  : TRM59800.00     NONE  ( 0.0000  0.0000  0.0000)
%
% (lat/lon/height=WGS84/ellipsoidal,Q=1:fix,2:float,3:sbas,4:dgps,5:single,6:ppp,ns=# of satellites)
%  GPST          latitude(deg) longitude(deg)  height(m)   Q  ns   sdn(m)   sde(m)   sdu(m)  sdne(m)  sdeu(m)  sdun(m) age(s)  ratio
2327 194611.000  -33.951432684   18.468555165    83.4905   6   8   0.0037   0.0067   0.0067   0.0022   0.0036   0.0026   0.00    0.0
2327 194612.000  -33.951432684   18.468555165    83.4905   6   8   0.0037   0.0067   0.0067   0.0022   0.0036   0.0026   0.00    0.0
2327 194613.000  -33.951432684   18.468555165    83.4905   6   8   0.0037   0.0067   0.0067   0.0022   0.0036   0.0026   0.00    0.0
2327 194614.000  -33.951432684   18.468555165    83.4905   6   8   0.0037   0.0067   0.0067   0.0022   0.0036   0.0026   0.00    0.0
2327 194615.000  -33.951432684   18.468555166    83.4905   6   8   0.0037   0.0067   0.0067   0.0022   0.0036   0.0026   0.00    0.0
2327 194616.000  -33.951432684   18.468555166    83.4905   6   8   0.0037   0.0067   0.0067   0.0022   0.0036   0.0026   0.00    0.0
2327 194617.000  -33.951432684   18.468555166    83.4905   6   8   0.0037   0.0067   0.0067   0.0022   0.0036   0.0026   0.00    0.0
2327 194618.000  -33.951432684   18.468555166    83.4905   6   8   0.0037   0.0067   0.0067   0.0022   0.0036   0.0026   0.00    0.0
2327 194619.000  -33.951432684   18.468555166    83.4906   6   8   0.0037   0.0067   0.0067   0.0022   0.0036   0.0026   0.00    0.0
2327 194620.000  -33.951432684   18.468555166    83.4906   6   8   0.0037   0.0067   0.0067   0.0022   0.0036   0.0026   0.00    0.0
2327 194621.000  -33.951432684   18.468555166    83.4906   6   8   0.0037   0.0067   0.0067   0.0022   0.0036   0.0026   0.00    0.0
2327 194622.000  -33.951432684   18.468555166    83.4906   6   8   0.0037   0.0067   0.0067   0.0022   0.0036   0.0026   0.00    0.0
2327 194623.000  -33.951432685   18.468555166    83.4906   6   8   0.0037   0.0067   0.0067   0.0022   0.0036   0.0026   0.00    0.0
2327 194624.000  -33.951432685   18.468555166    83.4906   6   8   0.0037   0.0067   0.0067   0.0022   0.0036   0.0026   0.00    0.0
2327 194625.000  -33.951432685   18.468555166    83.4906   6   8   0.0037   0.0067   0.0067   0.0022   0.0036   0.0026   0.00    0.0
2327 194626.000  -33.951432685   18.468555166    83.4906   6   8   0.0037   0.0067   0.0067   0.0022   0.0036   0.0026   0.00    0.0
2327 194627.000  -33.951432685   18.468555166    83.4906   6   8   0.0037   0.0067   0.0067   0.0022   0.0036   0.0026   0.00    0.0
2327 194628.000  -33.951432685   18.468555166    83.4906   6   8   0.0037   0.0067   0.0067   0.0022   0.0036   0.0026   0.00    0.0
2327 194629.000  -33.951432685   18.468555166    83.4906   6   8   0.0037   0.0067   0.0067   0.0022   0.0036   0.0026   0.00    0.0
2327 194630.000  -33.951432685   18.468555166    83.4906   6   8   0.0037   0.0067   0.0067   0.0022   0.0036   0.0026   0.00    0.0
2327 194631.000  -33.951432685   18.468555166    83.4906   6   8   0.0037   0.0067   0.0067   0.0022   0.0036   0.0026   0.00    0.0
2327 194632.000  -33.951432685   18.468555167    83.4906   6   8   0.0037   0.0067   0.0067   0.0022   0.0036   0.0026   0.00    0.0
2327 194633.000  -33.951432685   18.468555167    83.4906   6   8   0.0037   0.0067   0.0067   0.0022   0.0036   0.0026   0.00    0.0
2327 194634.000  -33.951432685   18.468555167    83.4906   6   8   0.0037   0.0067   0.0067   0.0022   0.0036   0.0026   0.00    0.0
2327 194635.000  -33.951432685   18.468555167    83.4906   6   8   0.0037   0.0067   0.0067   0.0022   0.0036   0.0026   0.00    0.0
2327 194636.000  -33.951432685   18.468555167    83.4906   6   8   0.0037   0.0067   0.0067   0.0022   0.0036   0.0026   0.00    0.0
2327 194637.000  -33.951432685   18.468555167    83.4906   6   8   0.0037   0.0067   0.0067   0.0022   0.0036   0.0026   0.00    0.0
2327 194638.000  -33.951432685   18.468555167    83.4906   6   8   0.0037   0.0067   0.0067   0.0022   0.0036   0.0026   0.00    0.0
2327 194639.000  -33.951432685   18.468555167    83.4906   6   8   0.0037   0.0067   0.0067   0.0022   0.0036   0.0026   0.00    0.0
2327 194640.000  -33.951432685   18.468555168    83.4906   6   8   0.0037   0.0067   0.0067   0.0022   0.0036   0.0026   0.00    0.0
2327 194641.000  -33.951432685   18.468555168    83.4906   6   8   0.0037   0.0067   0.0067   0.0022   0.0036   0.0026   0.00    0.0
2327 194642.000  -33.951432685   18.468555168    83.4906   6   8   0.0037   0.0067   0.0067   0.0022   0.0036   0.0026   0.00    0.0
2327 194643.000  -33.951432685   18.468555168    83.4906   6   8   0.0037   0.0067   0.0067   0.0022   0.0036   0.0026   0.00    0.0
2327 194644.000  -33.951432685   18.468555169    83.4906   6   8   0.0037   0.0067   0.0067   0.0022   0.0036   0.0026   0.00    0.0
2327 194645.000  -33.951432685   18.468555169    83.4906   6   8   0.0037   0.0067   0.0067   0.0022   0.0036   0.0026   0.00    0.0
2327 194646.000  -33.951432685   18.468555169    83.4906   6   8   0.0037   0.0067   0.0067   0.0022   0.0036   0.0026   0.00    0.0
2327 194647.000  -33.951432685   18.468555169    83.4906   6   8   0.0037   0.0067   0.0067   0.0022   0.0036   0.0026   0.00    0.0
2327 194648.000  -33.951432685   18.468555169    83.4907   6   8   0.0037   0.0067   0.0067   0.0022   0.0036   0.0026   0.00    0.0
2327 194649.000  -33.951432685   18.468555169    83.4906   6   8   0.0037   0.0067   0.0067   0.0022   0.0036   0.0026   0.00    0.0
2327 194650.000  -33.951432685   18.468555170    83.4906   6   8   0.0037   0.0067   0.0067   0.0022   0.0036   0.0026   0.00    0.0
2327 194651.000  -33.951432685   18.468555170    83.4907   6   8   0.0037   0.0067   0.0067   0.0022   0.0036   0.0026   0.00    0.0
2327 194652.000  -33.951432685   18.468555170    83.4906   6   8   0.0037   0.0067   0.0067   0.0022   0.0036   0.0026   0.00    0.0
2327 194653.000  -33.951432685   18.468555170    83.4906   6   8   0.0037   0.0067   0.0067   0.0022   0.0036   0.0026   0.00    0.0
2327 194654.000  -33.951432685   18.468555170    83.4906   6   8   0.0037   0.0067   0.0067   0.0022   0.0036   0.0026   0.00    0.0
2327 194655.000  -33.951432685   18.468555170    83.4906   6   8   0.0037   0.0067   0.0067   0.0022   0.0036   0.0026   0.00    0.0
2327 194656.000  -33.951432685   18.468555170    83.4906   6   8   0.0037   0.0067   0.0067   0.0022   0.0036   0.0026   0.00    0.0
2327 194657.000  -33.951432685   18.468555170    83.4906   6   8   0.0037   0.0067   0.0067   0.0022   0.0036   0.0026   0.00    0.0
2327 194658.000  -33.951432685   18.468555170    83.4907   6   8   0.0037   0.0067   0.0067   0.0022   0.0036   0.0026   0.00    0.0
2327 194659.000  -33.951432685   18.468555170    83.4907   6   8   0.0037   0.0067   0.0067   0.0022   0.0036   0.0026   0.00    0.0
2327 194660.000  -33.951432685   18.468555171    83.4907   6   8   0.0037   0.0067   0.0067   0.0022   0.0036   0.0026   0.00    0.0
2327 194661.000  -33.951432685   18.468555171    83.4907   6   8   0.0037   0.0067   0.0067   0.0022   0.0036   0.0026   0.00    0.0
2327 194662.000  -33.951432685   18.468555171    83.4907   6   8   0.0037   0.0067   0.0067   0.0022   0.0036   0.0026   0.00    0.0
2327 194663.000  -33.951432685   18.468555171    83.4907   6   8   0.0037   0.0067   0.0067   0.0022   0.0036   0.0026   0.00    0.0
2327 194664.000  -33.951432685   18.468555171    83.4907   6   8   0.0037   0.0067   0.0067   0.0022   0.0036   0.0026   0.00    0.0
2327 194665.000  -33.951432685   18.468555171    83.4907   6   8   0.0037   0.0067   0.0067   0.0022   0.0036   0.0026   0.00    0.0
2327 194666.000  -33.951432685   18.468555172    83.4907   6   8   0.0037   0.0067   0.0067   0.0022   0.0036   0.0026   0.00    0.0
2327 194667.000  -33.951432685   18.468555172    83.4907   6   8   0.0037   0.0067   0.0067   0.0022   0.0036   0.0026   0.00    0.0
2327 194668.000  -33.951432685   18.468555172    83.4907   6   8   0.0037   0.0067   0.0067   0.0022   0.0036   0.0026   0.00    0.0
2327 194669.000  -33.951432685   18.468555172    83.4907   6   8   0.0037   0.0067   0.0067   0.0022   0.0036   0.0026   0.00    0.0
2327 194670.000  -33.951432685   18.468555172    83.4907   6   8   0.0037   0.0067   0.0067   0.0022   0.0036   0.0026   0.00    0.0
2327 194671.000  -33.951432685   18.468555172    83.4907   6   8   0.0037   0.0067   0.0067   0.0022   0.0036   0.0026   0.00    0.0
2327 194672.000  -33.951432685   18.468555172    83.4907   6   8   0.0037   0.0067   0.0067   0.0022   0.0036   0.0026   0.00    0.0
2327 194673.000  -33.951432685   18.468555172    83.4907   6   8   0.0037   0.0067   0.0067   0.0022   0.0036   0.0026   0.00    0.0
2327 194674.000  -33.951432685   18.468555172    83.4907   6   8   0.0037   0.0067   0.0067   0.0022   0.0036   0.0026   0.00    0.0
2327 194675.000  -33.951432685   18.468555172    83.4907   6   8   0.0037   0.0067   0.0067   0.0022   0.0036   0.0026   0.00    0.0
2327 194676.000  -33.951432685   18.468555172    83.4907   6   8   0.0037   0.0067   0.0067   0.0022   0.0036   0.0026   0.00    0.0
2327 194677.000  -33.951432685   18.468555173    83.4907   6   8   0.0037   0.0067   0.0067   0.0022   0.0036   0.0026   0.00    0.0
2327 194678.000  -33.951432685   18.468555173    83.4907   6   8   0.0037   0.0067   0.0067   0.0022   0.0036   0.0026   0.00    0.0
2327 194679.000  -33.951432685   18.468555173    83.4907   6   8   0.0037   0.0067   0.0067   0.0022   0.0036   0.0026   0.00    0.0
2327 194680.000  -33.951432685   18.468555173    83.4907   6   8   0.0037   0.0067   0.0067   0.0022   0.0036   0.0026   0.00    0.0
2327 194681.000  -33.951432685   18.468555173    83.4907   6   8   0.0037   0.0067   0.0067   0.0022   0.0036   0.0026   0.00    0.0
2327 194682.000  -33.951432685   18.468555173    83.4907   6   8   0.0037   0.0067   0.0067   0.0022   0.0036   0.0026   0.00    0.0
2327 194683.000  -33.951432685   18.468555173    83.4907   6   8   0.0037   0.0067   0.0067   0.0022   0.0036   0.0026   0.00    0.0
2327 194684.000  -33.951432685   18.468555173    83.4907   6   8   0.0037   0.0067   0.0067   0.0022   0.0036   0.0026   0.00    0.0
2327 194685.000  -33.951432685   18.468555173    83.4907   6   8   0.0037   0.0067   0.0067   0.0022   0.0036   0.0026   0.00    0.0
2327 194686.000  -33.951432685   18.468555173    83.4907   6   8   0.0037   0.0067   0.0067   0.0022   0.0036   0.0026   0.00    0.0
2327 194687.000  -33.951432685   18.468555173    83.4907   6   8   0.0037   0.0067   0.0067   0.0022   0.0036   0.0026   0.00    0.0
2327 194688.000  -33.951432685   18.468555173    83.4907   6   8   0.0037   0.0067   0.0067   0.0022   0.0036   0.0026   0.00    0.0
2327 194689.000  -33.951432685   18.468555174    83.4907   6   8   0.0037   0.0067   0.0067   0.0022   0.0036   0.0026   0.00    0.0
2327 194690.000  -33.951432685   18.468555174    83.4907   6   8   0.0037   0.0067   0.0067   0.0022   0.0036   0.0026   0.00    0.0
2327 194691.000  -33.951432685   18.468555174    83.4907   6   8   0.0037   0.0067   0.0067   0.0022   0.0036   0.0026   0.00    0.0
2327 194692.000  -33.951432685   18.468555174    83.4907   6   8   0.0037   0.0067   0.0067   0.0022   0.0036   0.0026   0.00    0.0
2327 194693.000  -33.951432685   18.468555174    83.4908   6   8   0.0037   0.0067   0.0067   0.0022   0.0036   0.0026   0.00    0.0
2327 194694.000  -33.951432685   18.468555174    83.4907   6   8   0.0037   0.0067   0.0067   0.0022   0.0036   0.0026   0.00    0.0
2327 194695.000  -33.951432685   18.468555175    83.4908   6   8   0.0037   0.0067   0.0067   0.0022   0.0036   0.0026   0.00    0.0
2327 194696.000  -33.951432685   18.468555175    83.4908   6   8   0.0037   0.0067   0.0067   0.0022   0.0036   0.0026   0.00    0.0
2327 194697.000  -33.951432685   18.468555175    83.4908   6   8   0.0037   0.0067   0.0067   0.0022   0.0036   0.0026   0.00    0.0
2327 194698.000  -33.951432685   18.468555175    83.4908   6   8   0.0037   0.0067   0.0067   0.0022   0.0036   0.0026   0.00    0.0
2327 194699.000  -33.951432685   18.468555175    83.4908   6   8   0.0037   0.0067   0.0067   0.0022   0.0036   0.0026   0.00    0.0
2327 194700.000  -33.951432686   18.468555175    83.4908   6   8   0.0037   0.0067   0.0067   0.0022   0.0036   0.0026   0.00    0.0
2327 194701.000  -33.951432686   18.468555175    83.4908   6   8   0.0037   0.0067   0.0067   0.0022   0.0036   0.0026   0.00    0.0
2327 194702.000  -33.951432686   18.468555175    83.4908   6   8   0.0037   0.0067   0.0067   0.0022   0.0036   0.0026   0.00    0.0
2327 194703.000  -33.951432686   18.468555175    83.4908   6   8   0.0037   0.0067   0.0067   0.0022   0.0036   0.0026   0.00    0.0
2327 194704.000  -33.951432685   18.468555175    83.4908   6   8   0.0037   0.0067   0.0067   0.0022   0.0036   0.0026   0.00    0.0
2327 194705.000  -33.951432686   18.468555175    83.4908   6   8   0.0037   0.0067   0.0067   0.0022   0.0036   0.0026   0.00    0.0
2327 194706.000  -33.951432686   18.468555176    83.4908   6   8   0.0037   0.0067   0.0067   0.0022   0.0036   0.0026   0.00    0.0
2327 194707.000  -33.951432686   18.468555176    83.4908   6   8   0.0037   0.0067   0.0067   0.0022   0.0036   0.0026   0.00    0.0
2327 194708.000  -33.951432686   18.468555176    83.4908   6   8   0.0037   0.0067   0.0067   0.0022   0.0036   0.0026   0.00    0.0
2327 194709.000  -33.951432686   18.468555176    83.4908   6   8   0.0037   0.0067   0.0067   0.0022   0.0036   0.0026   0.00    0.0
2327 194710.000  -33.951432686   18.468555176    83.4908   6   8   0.0037   0.0067   0.0067   0.0022   0.0036   0.0026   0.00    0.0
2327 194711.000  -33.951432686   18.468555176    83.4908   6   8   0.0037   0.0067   0.0067   0.0022   0.0036   0.0026   0.00    0.0
2327 194712.000  -33.951432686   18.468555176    83.4908   6   8   0.0037   0.0067   0.0067   0.0022   0.0036   0.0026   0.00    0.0
2327 194713.000  -33.951432686   18.468555176    83.4908   6   8   0.0037   0.0067   0.0067   0.0022   0.0036   0.0026   0.00    0.0
2327 194714.000  -33.951432686   18.468555176    83.4908   6   8   0.0037   0.0067   0.0067   0.0022   0.0036   0.0026   0.00    0.0
2327 194715.000  -33.951432686   18.468555176    83.4908   6   8   0.0037   0.0067   0.0067   0.0022   0.0036   0.0026   0.00    0.0
2327 194716.000  -33.951432686   18.468555177    83.4908   6   8   0.0037   0.0067   0.0067   0.0022   0.0036   0.0026   0.00    0.0
2327 194717.000  -33.951432686   18.468555176    83.4908   6   8   0.0037   0.0067   0.0067   0.0022   0.0036   0.0026   0.00    0.0
2327 194718.000  -33.951432686   18.468555177    83.4908   6   8   0.0037   0.0067   0.0067   0.0022   0.0036   0.0026   0.00    0.0
2327 194719.000  -33.951432686   18.468555177    83.4908   6   8   0.0037   0.0067   0.0067   0.0022   0.0036   0.0026   0.00    0.0
2327 194720.000  -33.951432686   18.468555177    83.4908   6   8   0.0037   0.0067   0.0067   0.0022   0.0036   0.0026   0.00    0.0
2327 194721.000  -33.951432686   18.468555177    83.4908   6   8   0.0037   0.0067   0.0067   0.0022   0.0036   0.0026   0.00    0.0
2327 194722.000  -33.951432686   18.468555177    83.4908   6   8   0.0037   0.0067   0.0067   0.0022   0.0036   0.0026   0.00    0.0
2327 194723.000  -33.951432686   18.468555178    83.4908   6   8   0.0037   0.0067   0.0067   0.0022   0.0036   0.0026   0.00    0.0
2327 194724.000  -33.951432686   18.468555178    83.4908   6   8   0.0037   0.0067   0.0067   0.0022   0.0036   0.0026   0.00    0.0
2327 194725.000  -33.951432686   18.468555178    83.4908   6   8   0.0037   0.0067   0.0067   0.0022   0.0036   0.0026   0.00    0.0
2327 194726.000  -33.951432686   18.468555178    83.4908   6   8   0.0037   0.0067   0.0067   0.0022   0.0036   0.0026   0.00    0.0
2327 194727.000  -33.951432686   18.468555178    83.4908   6   8   0.0037   0.0067   0.0067   0.0022   0.0036   0.0026   0.00    0.0
2327 194728.000  -33.951432686   18.468555178    83.4908   6   8   0.0037   0.0067   0.0067   0.0022   0.0036   0.0026   0.00    0.0
2327 194729.000  -33.951432686   18.468555178    83.4908   6   8   0.0037   0.0067   0.0067   0.0022   0.0036   0.0026   0.00    0.0
2327 194730.000  -33.951432686   18.468555178    83.4908   6   8   0.0037   0.0067   0.0067   0.0022   0.0036   0.0026   0.00    0.0
2327 194731.000  -33.951432686   18.468555178    83.4908   6   8   0.0037   0.0067   0.0067   0.0022   0.0036   0.0026   0.00    0.0
2327 194732.000  -33.951432686   18.468555178    83.4908   6   8   0.0037   0.0067   0.0067   0.0022   0.0036   0.0026   0.00    0.0
2327 194733.000  -33.951432686   18.468555178    83.4908   6   8   0.0037   0.0067   0.0067   0.0022   0.0036   0.0026   0.00    0.0
2327 194734.000  -33.951432686   18.468555178    83.4908   6   8   0.0037   0.0067   0.0067   0.0022   0.0036   0.0026   0.00    0.0
2327 194735.000  -33.951432686   18.468555178    83.4908   6   8   0.0037   0.0067   0.0067   0.0022   0.0036   0.0026   0.00    0.0
2327 194736.000  -33.951432686   18.468555178    83.4908   6   8   0.0037   0.0067   0.0067   0.0022   0.0036   0.0026   0.00    0.0
2327 194737.000  -33.951432686   18.468555178    83.4908   6   8   0.0037   0.0067   0.0067   0.0022   0.0036   0.0026   0.00    0.0
2327 194738.000  -33.951432686   18.468555178    83.4908   6   8   0.0037   0.0067   0.0067   0.0022   0.0036   0.0026   0.00    0.0
2327 194739.000  -33.951432686   18.468555178    83.4908   6   8   0.0037   0.0067   0.0067   0.0022   0.0036   0.0026   0.00    0.0
2327 194740.000  -33.951432686   18.468555178    83.4908   6   8   0.0037   0.0067   0.0067   0.0022   0.0036   0.0026   0.00    0.0
2327 194741.000  -33.951432686   18.468555178    83.4908   6   8   0.0037   0.0067   0.0067   0.0022   0.0036   0.0026   0.00    0.0
2327 194742.000  -33.951432686   18.468555178    83.4908   6   8   0.0037   0.0067   0.0067   0.0022   0.0036   0.0026   0.00    0.0
2327 194743.000  -33.951432686   18.468555178    83.4908   6   8   0.0037   0.0067   0.0067   0.0022   0.0036   0.0026   0.00    0.0
2327 194744.000  -33.951432686   18.468555178    83.4908   6   8   0.0037   0.0067   0.0067   0.0022   0.0036   0.0026   0.00    0.0
2327 194745.000  -33.951432686   18.468555178    83.4908   6   8   0.0037   0.0067   0.0067   0.0022   0.0036   0.0026   0.00    0.0
2327 194746.000  -33.951432686   18.468555179    83.4908   6   8   0.0037   0.0067   0.0067   0.0022   0.0036   0.0026   0.00    0.0
2327 194747.000  -33.951432686   18.468555179    83.4908   6   8   0.0037   0.0067   0.0067   0.0022   0.0036   0.0026   0.00    0.0
2327 194748.000  -33.951432686   18.468555179    83.4908   6   8   0.0037   0.0067   0.0067   0.0022   0.0036   0.0026   0.00    0.0
2327 194749.000  -33.951432686   18.468555178    83.4908   6   8   0.0037   0.0067   0.0067   0.0022   0.0036   0.0026   0.00    0.0
2327 194750.000  -33.951432686   18.468555178    83.4908   6   8   0.0037   0.0067   0.0067   0.0022   0.0036   0.0026   0.00    0.0
2327 194751.000  -33.951432686   18.468555178    83.4908   6   8   0.0037   0.0067   0.0067   0.0022   0.0036   0.0026   0.00    0.0
2327 194752.000  -33.951432686   18.468555178    83.4908   6   8   0.0037   0.0067   0.0067   0.0022   0.0036   0.0026   0.00    0.0
2327 194753.000  -33.951432686   18.468555178    83.4908   6   8   0.0037   0.0067   0.0067   0.0022   0.0036   0.0026   0.00    0.0
2327 194754.000  -33.951432686   18.468555178    83.4908   6   8   0.0037   0.0067   0.0067   0.0022   0.0036   0.0026   0.00    0.0
2327 194755.000  -33.951432686   18.468555178    83.4908   6   8   0.0037   0.0067   0.0067   0.0022   0.0036   0.0026   0.00    0.0
2327 194756.000  -33.951432686   18.468555178    83.4908   6   8   0.0037   0.0067   0.0067   0.0022   0.0036   0.0026   0.00    0.0
2327 194757.000  -33.951432686   18.468555178    83.4908   6   8   0.0037   0.0067   0.0067   0.0022   0.0036   0.0026   0.00    0.0
2327 194758.000  -33.951432686   18.468555178    83.4908   6   8   0.0037   0.0067   0.0067   0.0022   0.0036   0.0026   0.00    0.0
2327 194759.000  -33.951432686   18.468555178    83.4908   6   8   0.0037   0.0067   0.0067   0.0022   0.0036   0.0026   0.00    0.0
2327 194760.000  -33.951432686   18.468555178    83.4908   6   8   0.0037   0.0067   0.0067   0.0022   0.0036   0.0026   0.00    0.0
2327 194761.000  -33.951432686   18.468555177    83.4908   6   8   0.0037   0.0067   0.0067   0.0022   0.0036   0.0026   0.00    0.0
2327 194762.000  -33.951432686   18.468555177    83.4908   6   8   0.0037   0.0067   0.0067   0.0022   0.0036   0.0026   0.00    0.0
2327 194763.000  -33.951432686   18.468555177    83.4908   6   8   0.0037   0.0067   0.0067   0.0022   0.0036   0.0026   0.00    0.0
2327 194764.000  -33.951432686   18.468555177    83.4908   6   8   0.0037   0.0067   0.0067   0.0022   0.0036   0.0026   0.00    0.0
2327 194765.000  -33.951432686   18.468555177    83.4908   6   8   0.0037   0.0067   0.0067   0.0022   0.0036   0.0026   0.00    0.0
2327 194766.000  -33.951432686   18.468555177    83.4908   6   8   0.0037   0.0067   0.0067   0.0022   0.0036   0.0026   0.00    0.0
2327 194767.000  -33.951432686   18.468555176    83.4908   6   8   0.0037   0.0067   0.0067   0.0022   0.0036   0.0026   0.00    0.0
2327 194768.000  -33.951432686   18.468555177    83.4908   6   8   0.0037   0.0067   0.0067   0.0022   0.0036   0.0026   0.00    0.0
2327 194769.000  -33.951432686   18.468555177    83.4908   6   8   0.0037   0.0067   0.0067   0.0022   0.0036   0.0026   0.00    0.0
2327 194770.000  -33.951432686   18.468555177    83.4908   6   8   0.0037   0.0067   0.0067   0.0022   0.0036   0.0026   0.00    0.0
2327 194771.000  -33.951432686   18.468555176    83.4908   6   8   0.0037   0.0067   0.0067   0.0022   0.0036   0.0026   0.00    0.0
2327 194772.000  -33.951432686   18.468555176    83.4908   6   8   0.0037   0.0067   0.0067   0.0022   0.0036   0.0026   0.00    0.0
2327 194773.000  -33.951432686   18.468555176    83.4908   6   8   0.0037   0.0067   0.0067   0.0022   0.0036   0.0026   0.00    0.0
2327 194774.000  -33.951432686   18.468555176    83.4908   6   8   0.0037   0.0067   0.0067   0.0022   0.0036   0.0026   0.00    0.0
2327 194775.000  -33.951432686   18.468555176    83.4908   6   8   0.0037   0.0067   0.0067   0.0022   0.0036   0.0026   0.00    0.0
2327 194776.000  -33.951432686   18.468555176    83.4908   6   8   0.0037   0.0067   0.0067   0.0022   0.0036   0.0026   0.00    0.0
2327 194777.000  -33.951432686   18.468555176    83.4908   6   8   0.0037   0.0067   0.0067   0.0022   0.0036   0.0026   0.00    0.0
2327 194778.000  -33.951432686   18.468555176    83.4908   6   8   0.0037   0.0067   0.0067   0.0022   0.0036   0.0026   0.00    0.0
2327 194779.000  -33.951432686   18.468555176    83.4908   6   8   0.0037   0.0067   0.0067   0.0022   0.0036   0.0026   0.00    0.0
2327 194780.000  -33.951432686   18.468555176    83.4908   6   8   0.0037   0.0067   0.0067   0.0022   0.0036   0.0026   0.00    0.0
2327 194781.000  -33.951432686   18.468555176    83.4908   6   8   0.0037   0.0067   0.0067   0.0022   0.0036   0.0026   0.00    0.0
2327 194782.000  -33.951432686   18.468555176    83.4908   6   8   0.0037   0.0067   0.0067   0.0022   0.0036   0.0026   0.00    0.0
2327 194783.000  -33.951432686   18.468555176    83.4908   6   8   0.0037   0.0067   0.0067   0.0022   0.0036   0.0026   0.00    0.0
2327 194784.000  -33.951432686   18.468555175    83.4908   6   8   0.0037   0.0067   0.0067   0.0022   0.0036   0.0026   0.00    0.0
2327 194785.000  -33.951432686   18.468555175    83.4908   6   8   0.0037   0.0067   0.0067   0.0022   0.0036   0.0026   0.00    0.0
2327 194786.000  -33.951432686   18.468555175    83.4908   6   8   0.0037   0.0067   0.0067   0.0022   0.0036   0.0026   0.00    0.0
2327 194787.000  -33.951432686   18.468555175    83.4908   6   8   0.0037   0.0067   0.0067   0.0022   0.0036   0.0026   0.00    0.0
2327 194788.000  -33.951432686   18.468555175    83.4908   6   8   0.0037   0.0067   0.0067   0.0022   0.0036   0.0026   0.00    0.0
2327 194789.000  -33.951432686   18.468555174    83.4908   6   8   0.0037   0.0067   0.0067   0.0022   0.0036   0.0026   0.00    0.0
2327 194790.000  -33.951432686   18.468555174    83.4908   6   8   0.0037   0.0067   0.0067   0.0022   0.0036   0.0026   0.00    0.0
2327 194791.000  -33.951432686   18.468555174    83.4908   6   8   0.0037   0.0067   0.0067   0.0022   0.0036   0.0026   0.00    0.0
2327 194792.000  -33.951432686   18.468555174    83.4908   6   8   0.0037   0.0067   0.0067   0.0022   0.0036   0.0026   0.00    0.0
2327 194793.000  -33.951432686   18.468555174    83.4908   6   8   0.0037   0.0067   0.0067   0.0022   0.0036   0.0026   0.00    0.0
2327 194794.000  -33.951432686   18.468555173    83.4907   6   8   0.0037   0.0067   0.0067   0.0022   0.0036   0.0026   0.00    0.0
2327 194795.000  -33.951432686   18.468555173    83.4908   6   8   0.0037   0.0067   0.0067   0.0022   0.0036   0.0026   0.00    0.0
2327 194796.000  -33.951432686   18.468555173    83.4908   6   8   0.0037   0.0067   0.0067   0.0022   0.0036   0.0026   0.00    0.0
2327 194797.000  -33.951432686   18.468555173    83.4908   6   8   0.0037   0.0067   0.0067   0.0022   0.0036   0.0026   0.00    0.0
2327 194798.000  -33.951432686   18.468555173    83.4907   6   8   0.0037   0.0067   0.0067   0.0022   0.0036   0.0026   0.00    0.0
2327 194799.000  -33.951432686   18.468555173    83.4908   6   8   0.0037   0.0067   0.0067   0.0022   0.0036   0.0026   0.00    0.0
2327 194800.000  -33.951432686   18.468555173    83.4907   6   8   0.0037   0.0067   0.0067   0.0022   0.0036   0.0026   0.00    0.0
2327 194801.000  -33.951432686   18.468555172    83.4907   6   8   0.0037   0.0067   0.0067   0.0022   0.0036   0.0026   0.00    0.0
2327 194802.000  -33.951432686   18.468555172    83.4908   6   8   0.0037   0.0067   0.0067   0.0022   0.0036   0.0026   0.00    0.0
2327 194803.000  -33.951432686   18.468555172    83.4907   6   8   0.0037   0.0067   0.0067   0.0022   0.0036   0.0026   0.00    0.0
2327 194804.000  -33.951432687   18.468555172    83.4907   6   8   0.0037   0.0067   0.0067   0.0022   0.0036   0.0026   0.00    0.0
2327 194805.000  -33.951432686   18.468555172    83.4907   6   8   0.0037   0.0067   0.0067   0.0022   0.0036   0.0026   0.00    0.0
2327 194806.000  -33.951432686   18.468555172    83.4907   6   8   0.0037   0.0067   0.0067   0.0022   0.0036   0.0026   0.00    0.0
2327 194807.000  -33.951432686   18.468555172    83.4908   6   8   0.0037   0.0067   0.0067   0.0022   0.0036   0.0026   0.00    0.0
2327 194808.000  -33.951432686   18.468555172    83.4907   6   8   0.0037   0.0067   0.0067   0.0022   0.0036   0.0026   0.00    0.0
2327 194809.000  -33.951432686   18.468555171    83.4907   6   8   0.0037   0.0067   0.0067   0.0022   0.0036   0.0026   0.00    0.0
2327 194810.000  -33.951432687   18.468555171    83.4907   6   8   0.0037   0.0067   0.0067   0.0022   0.0036   0.0026   0.00    0.0
2327 194811.000  -33.951432687   18.468555171    83.4907   6   8   0.0037   0.0067   0.0067   0.0022   0.0036   0.0026   0.00    0.0
2327 194812.000  -33.951432687   18.468555170    83.4907   6   8   0.0037   0.0067   0.0067   0.0022   0.0036   0.0026   0.00    0.0
2327 194813.000  -33.951432687   18.468555170    83.4907   6   8   0.0037   0.0067   0.0067   0.0022   0.0036   0.0026   0.00    0.0
2327 194814.000  -33.951432687   18.468555170    83.4907   6   8   0.0037   0.0067   0.0067   0.0022   0.0036   0.0026   0.00    0.0
2327 194815.000  -33.951432687   18.468555170    83.4907   6   8   0.0037   0.0067   0.0067   0.0022   0.0036   0.0026   0.00    0.0
2327 194816.000  -33.951432687   18.468555170    83.4907   6   8   0.0037   0.0067   0.0067   0.0022   0.0036   0.0026   0.00    0.0
2327 194817.000  -33.951432687   18.468555170    83.4907   6   8   0.0037   0.0067   0.0067   0.0022   0.0036   0.0026   0.00    0.0
2327 194818.000  -33.951432687   18.468555170    83.4907   6   8   0.0037   0.0067   0.0067   0.0022   0.0036   0.0026   0.00    0.0
2327 194819.000  -33.951432687   18.468555169    83.4907   6   8   0.0037   0.0067   0.0067   0.0022   0.0036   0.0026   0.00    0.0
2327 194820.000  -33.951432687   18.468555169    83.4907   6   8   0.0037   0.0067   0.0067   0.0022   0.0036   0.0026   0.00    0.0
2327 194821.000  -33.951432687   18.468555169    83.4907   6   8   0.0037   0.0067   0.0067   0.0022   0.0036   0.0026   0.00    0.0
2327 194822.000  -33.951432687   18.468555169    83.4907   6   8   0.0037   0.0067   0.0067   0.0022   0.0036   0.0026   0.00    0.0
2327 194823.000  -33.951432687   18.468555169    83.4907   6   8   0.0037   0.0067   0.0067   0.0022   0.0036   0.0026   0.00    0.0
2327 194824.000  -33.951432687   18.468555169    83.4907   6   8   0.0037   0.0067   0.0067   0.0022   0.0036   0.0026   0.00    0.0
2327 194825.000  -33.951432687   18.468555169    83.4907   6   8   0.0037   0.0067   0.0067   0.0022   0.0036   0.0026   0.00    0.0
2327 194826.000  -33.951432687   18.468555169    83.4907   6   8   0.0037   0.0067   0.0067   0.0022   0.0036   0.0026   0.00    0.0
2327 194827.000  -33.951432687   18.468555169    83.4907   6   8   0.0037   0.0067   0.0067   0.0022   0.0036   0.0026   0.00    0.0
2327 194828.000  -33.951432687   18.468555169    83.4907   6   8   0.0037   0.0067   0.0067   0.0022   0.0036   0.0026   0.00    0.0
2327 194829.000  -33.951432687   18.468555168    83.4907   6   8   0.0037   0.0067   0.0067   0.0022   0.0036   0.0026   0.00    0.0
2327 194830.000  -33.951432687   18.468555168    83.4907   6   8   0.0037   0.0067   0.0067   0.0022   0.0036   0.0026   0.00    0.0
2327 194831.000  -33.951432687   18.468555168    83.4907   6   8   0.0037   0.0067   0.0067   0.0022   0.0036   0.0026   0.00    0.0
2327 194832.000  -33.951432687   18.468555168    83.4907   6   8   0.0037   0.0067   0.0067   0.0022   0.0036   0.0026   0.00    0.0
2327 194833.000  -33.951432687   18.468555167    83.4907   6   8   0.0037   0.0067   0.0067   0.0022   0.0036   0.0026   0.00    0.0
2327 194834.000  -33.951432687   18.468555167    83.4907   6   8   0.0037   0.0067   0.0067   0.0022   0.0036   0.0026   0.00    0.0
2327 194835.000  -33.951432687   18.468555167    83.4907   6   8   0.0037   0.0067   0.0067   0.0022   0.0036   0.0026   0.00    0.0
2327 194836.000  -33.951432687   18.468555168    83.4907   6   8   0.0037   0.0067   0.0067   0.0022   0.0036   0.0026   0.00    0.0
2327 194837.000  -33.951432687   18.468555167    83.4907   6   8   0.0037   0.0067   0.0067   0.0022   0.0036   0.0026   0.00    0.0
2327 194838.000  -33.951432687   18.468555167    83.4907   6   8   0.0037   0.0067   0.0067   0.0022   0.0036   0.0026   0.00    0.0
2327 194839.000  -33.951432687   18.468555167    83.4907   6   8   0.0037   0.0067   0.0067   0.0022   0.0036   0.0026   0.00    0.0
2327 194840.000  -33.951432687   18.468555167    83.4907   6   8   0.0037   0.0067   0.0067   0.0022   0.0036   0.0026   0.00    0.0
2327 194841.000  -33.951432687   18.468555166    83.4907   6   8   0.0037   0.0067   0.0067   0.0022   0.0036   0.0026   0.00    0.0
2327 194842.000  -33.951432687   18.468555166    83.4907   6   8   0.0037   0.0067   0.0067   0.0022   0.0036   0.0026   0.00    0.0
2327 194843.000  -33.951432687   18.468555166    83.4907   6   8   0.0037   0.0067   0.0067   0.0022   0.0036   0.0026   0.00    0.0
2327 194844.000  -33.951432687   18.468555166    83.4907   6   8   0.0037   0.0067   0.0067   0.0022   0.0036   0.0026   0.00    0.0
2327 194845.000  -33.951432687   18.468555166    83.4907   6   8   0.0037   0.0067   0.0067   0.0022   0.0036   0.0026   0.00    0.0
2327 194846.000  -33.951432687   18.468555166    83.4907   6   8   0.0037   0.0067   0.0067   0.0022   0.0036   0.0026   0.00    0.0
2327 194847.000  -33.951432687   18.468555165    83.4907   6   8   0.0037   0.0067   0.0067   0.0022   0.0036   0.0026   0.00    0.0
2327 194848.000  -33.951432687   18.468555166    83.4907   6   8   0.0037   0.0067   0.0067   0.0022   0.0036   0.0026   0.00    0.0
2327 194849.000  -33.951432687   18.468555165    83.4907   6   8   0.0037   0.0067   0.0067   0.0022   0.0036   0.0026   0.00    0.0
2327 194850.000  -33.951432687   18.468555165    83.4906   6   8   0.0037   0.0067   0.0067   0.0022   0.0036   0.0026   0.00    0.0
2327 194851.000  -33.951432687   18.468555165    83.4906   6   8   0.0037   0.0067   0.0067   0.0022   0.0036   0.0026   0.00    0.0
2327 194852.000  -33.951432687   18.468555165    83.4907   6   8   0.0037   0.0067   0.0067   0.0022   0.0036   0.0026   0.00    0.0
2327 194853.000  -33.951432687   18.468555165    83.4907   6   8   0.0037   0.0067   0.0067   0.0022   0.0036   0.0026   0.00    0.0
2327 194854.000  -33.951432687   18.468555164    83.4906   6   8   0.0037   0.0067   0.0067   0.0022   0.0036   0.0026   0.00    0.0
2327 194855.000  -33.951432687   18.468555164    83.4906   6   8   0.0037   0.0067   0.0067   0.0022   0.0036   0.0026   0.00    0.0
2327 194856.000  -33.951432687   18.468555164    83.4906   6   8   0.0037   0.0067   0.0067   0.0022   0.0036   0.0026   0.00    0.0
2327 194857.000  -33.951432687   18.468555164    83.4906   6   8   0.0037   0.0067   0.0067   0.0022   0.0036   0.0026   0.00    0.0
2327 194858.000  -33.951432687   18.468555164    83.4906   6   8   0.0037   0.0067   0.0067   0.0022   0.0036   0.0026   0.00    0.0
2327 194859.000  -33.951432687   18.468555164    83.4906   6   8   0.0037   0.0067   0.0067   0.0022   0.0036   0.0026   0.00    0.0
2327 194860.000  -33.951432687   18.468555163    83.4906   6   8   0.0037   0.0067   0.0067   0.0022   0.0036   0.0026   0.00    0.0
2327 194861.000  -33.951432687   18.468555163    83.4906   6   8   0.0037   0.0067   0.0067   0.0022   0.0036   0.0026   0.00    0.0
2327 194862.000  -33.951432687   18.468555163    83.4906   6   8   0.0037   0.0067   0.0067   0.0022   0.0036   0.0026   0.00    0.0
2327 194863.000  -33.951432687   18.468555163    83.4906   6   8   0.0037   0.0067   0.0067   0.0022   0.0036   0.0026   0.00    0.0
2327 194864.000  -33.951432687   18.468555163    83.4906   6   8   0.0037   0.0067   0.0067   0.0022   0.0036   0.0026   0.00    0.0
2327 194865.000  -33.951432687   18.468555163    83.4906   6   8   0.0037   0.0067   0.0067   0.0022   0.0036   0.0026   0.00    0.0
2327 194866.000  -33.951432687   18.468555162    83.4906   6   8   0.0037   0.0067   0.0067   0.0022   0.0036   0.0026   0.00    0.0
2327 194867.000  -33.951432687   18.468555162    83.4906   6   8   0.0037   0.0067   0.0067   0.0022   0.0036   0.0026   0.00    0.0
2327 194868.000  -33.951432687   18.468555162    83.4906   6   8   0.0037   0.0067   0.0067   0.0022   0.0036   0.0026   0.00    0.0
2327 194869.000  -33.951432687   18.468555162    83.4906   6   8   0.0037   0.0067   0.0067   0.0022   0.0036   0.0026   0.00    0.0
2327 194870.000  -33.951432687   18.468555162    83.4906   6   8   0.0037   0.0067   0.0067   0.0022   0.0036   0.0026   0.00    0.0
2327 194871.000  -33.951432687   18.468555162    83.4906   6   8   0.0037   0.0067   0.0067   0.0022   0.0036   0.0026   0.00    0.0
2327 194872.000  -33.951432688   18.468555162    83.4906   6   8   0.0037   0.0067   0.0067   0.0022   0.0036   0.0026   0.00    0.0
2327 194873.000  -33.951432688   18.468555161    83.4906   6   8   0.0037   0.0067   0.0067   0.0022   0.0036   0.0026   0.00    0.0
2327 194874.000  -33.951432688   18.468555161    83.4906   6   8   0.0037   0.0067   0.0067   0.0022   0.0036   0.0026   0.00    0.0
2327 194875.000  -33.951432688   18.468555161    83.4906   6   8   0.0037   0.0067   0.0067   0.0022   0.0036   0.0026   0.00    0.0
2327 194876.000  -33.951432688   18.468555161    83.4906   6   8   0.0037   0.0067   0.0067   0.0022   0.0036   0.0026   0.00    0.0
2327 194877.000  -33.951432688   18.468555161    83.4906   6   8   0.0037   0.0067   0.0067   0.0022   0.0036   0.0026   0.00    0.0
2327 194878.000  -33.951432688   18.468555161    83.4906   6   8   0.0037   0.0067   0.0067   0.0022   0.0036   0.0026   0.00    0.0
2327 194879.000  -33.951432688   18.468555161    83.4906   6   8   0.0037   0.0067   0.0067   0.0022   0.0036   0.0026   0.00    0.0
2327 194880.000  -33.951432688   18.468555161    83.4906   6   8   0.0037   0.0067   0.0067   0.0022   0.0036   0.0026   0.00    0.0
2327 194881.000  -33.951432688   18.468555160    83.4906   6   8   0.0037   0.0067   0.0067   0.0022   0.0036   0.0026   0.00    0.0
2327 194882.000  -33.951432688   18.468555161    83.4906   6   8   0.0037   0.0067   0.0067   0.0022   0.0036   0.0026   0.00    0.0
2327 194883.000  -33.951432688   18.468555160    83.4906   6   8   0.0037   0.0067   0.0067   0.0022   0.0036   0.0026   0.00    0.0
2327 194884.000  -33.951432688   18.468555160    83.4906   6   8   0.0037   0.0067   0.0067   0.0022   0.0036   0.0026   0.00    0.0
2327 194885.000  -33.951432688   18.468555160    83.4906   6   8   0.0037   0.0067   0.0067   0.0022   0.0036   0.0026   0.00    0.0
2327 194886.000  -33.951432688   18.468555160    83.4906   6   8   0.0037   0.0067   0.0067   0.0022   0.0036   0.0026   0.00    0.0
2327 194887.000  -33.951432688   18.468555160    83.4906   6   8   0.0037   0.0067   0.0067   0.0022   0.0036   0.0026   0.00    0.0
2327 194888.000  -33.951432688   18.468555160    83.4906   6   8   0.0037   0.0067   0.0067   0.0022   0.0036   0.0026   0.00    0.0
2327 194889.000  -33.951432688   18.468555159    83.4906   6   8   0.0037   0.0067   0.0067   0.0022   0.0036   0.0026   0.00    0.0
2327 194890.000  -33.951432688   18.468555159    83.4906   6   8   0.0037   0.0067   0.0067   0.0022   0.0036   0.0026   0.00    0.0
2327 194891.000  -33.951432688   18.468555159    83.4906   6   8   0.0037   0.0067   0.0067   0.0022   0.0036   0.0026   0.00    0.0
2327 194892.000  -33.951432688   18.468555159    83.4906   6   8   0.0037   0.0067   0.0067   0.0022   0.0036   0.0026   0.00    0.0
2327 194893.000  -33.951432688   18.468555159    83.4906   6   8   0.0037   0.0067   0.0067   0.0022   0.0036   0.0026   0.00    0.0
2327 194894.000  -33.951432688   18.468555159    83.4906   6   8   0.0037   0.0067   0.0067   0.0022   0.0036   0.0026   0.00    0.0
2327 194895.000  -33.951432688   18.468555158    83.4906   6   8   0.0037   0.0067   0.0067   0.0022   0.0036   0.0026   0.00    0.0
2327 194896.000  -33.951432688   18.468555158    83.4906   6   8   0.0037   0.0067   0.0067   0.0022   0.0036   0.0026   0.00    0.0
2327 194897.000  -33.951432688   18.468555158    83.4906   6   8   0.0037   0.0067   0.0067   0.0022   0.0036   0.0026   0.00    0.0
2327 194898.000  -33.951432688   18.468555158    83.4906   6   8   0.0037   0.0067   0.0067   0.0022   0.0036   0.0026   0.00    0.0
2327 194899.000  -33.951432688   18.468555158    83.4906   6   8   0.0037   0.0067   0.0067   0.0022   0.0036   0.0026   0.00    0.0
2327 194900.000  -33.951432688   18.468555158    83.4906   6   8   0.0037   0.0067   0.0067   0.0022   0.0036   0.0026   0.00    0.0
2327 194901.000  -33.951432688   18.468555158    83.4906   6   8   0.0037   0.0067   0.0067   0.0022   0.0036   0.0026   0.00    0.0
2327 194902.000  -33.951432688   18.468555158    83.4906   6   8   0.0037   0.0067   0.0067   0.0022   0.0036   0.0026   0.00    0.0
2327 194903.000  -33.951432688   18.468555157    83.4906   6   8   0.0037   0.0067   0.0067   0.0022   0.0036   0.0026   0.00    0.0
2327 194904.000  -33.951432688   18.468555157    83.4906   6   8   0.0037   0.0067   0.0067   0.0022   0.0036   0.0026   0.00    0.0
2327 194905.000  -33.951432688   18.468555157    83.4906   6   8   0.0037   0.0067   0.0067   0.0022   0.0036   0.0026   0.00    0.0
2327 194906.000  -33.951432688   18.468555157    83.4906   6   8   0.0037   0.0067   0.0067   0.0022   0.0036   0.0026   0.00    0.0
2327 194907.000  -33.951432688   18.468555157    83.4906   6   8   0.0037   0.0067   0.0067   0.0022   0.0036   0.0026   0.00    0.0
2327 194908.000  -33.951432688   18.468555157    83.4906   6   8   0.0037   0.0067   0.0067   0.0022   0.0036   0.0026   0.00    0.0
2327 194909.000  -33.951432688   18.468555157    83.4906   6   8   0.0037   0.0067   0.0067   0.0022   0.0036   0.0026   0.00    0.0
2327 194910.000  -33.951432688   18.468555157    83.4906   6   8   0.0037   0.0067   0.0067   0.0022   0.0036   0.0026   0.00    0.0
2327 194911.000  -33.951432688   18.468555157    83.4906   6   8   0.0037   0.0067   0.0067   0.0022   0.0036   0.0026   0.00    0.0
2327 194912.000  -33.951432688   18.468555156    83.4906   6   8   0.0037   0.0067   0.0067   0.0022   0.0036   0.0026   0.00    0.0
2327 194913.000  -33.951432688   18.468555156    83.4906   6   8   0.0037   0.0067   0.0067   0.0022   0.0036   0.0026   0.00    0.0
2327 194914.000  -33.951432688   18.468555156    83.4906   6   8   0.0037   0.0067   0.0067   0.0022   0.0036   0.0026   0.00    0.0
2327 194915.000  -33.951432688   18.468555156    83.4906   6   8   0.0037   0.0067   0.0067   0.0022   0.0036   0.0026   0.00    0.0
2327 194916.000  -33.951432688   18.468555156    83.4906   6   8   0.0037   0.0067   0.0067   0.0022   0.0036   0.0026   0.00    0.0
2327 194917.000  -33.951432688   18.468555156    83.4906   6   8   0.0037   0.0067   0.0067   0.0022   0.0036   0.0026   0.00    0.0
2327 194918.000  -33.951432688   18.468555156    83.4906   6   8   0.0037   0.0067   0.0067   0.0022   0.0036   0.0026   0.00    0.0
2327 194919.000  -33.951432688   18.468555156    83.4906   6   8   0.0037   0.0067   0.0067   0.0022   0.0036   0.0026   0.00    0.0
2327 194920.000  -33.951432688   18.468555156    83.4906   6   8   0.0037   0.0067   0.0067   0.0022   0.0036   0.0026   0.00    0.0
2327 194921.000  -33.951432688   18.468555156    83.4906   6   8   0.0037   0.0067   0.0067   0.0022   0.0036   0.0026   0.00    0.0
2327 194922.000  -33.951432688   18.468555156    83.4906   6   8   0.0037   0.0067   0.0067   0.0022   0.0036   0.0026   0.00    0.0
2327 194923.000  -33.951432688   18.468555156    83.4906   6   8   0.0037   0.0067   0.0067   0.0022   0.0036   0.0026   0.00    0.0
2327 194924.000  -33.951432688   18.468555156    83.4906   6   8   0.0037   0.0067   0.0067   0.0022   0.0036   0.0026   0.00    0.0
2327 194925.000  -33.951432688   18.468555155    83.4906   6   8   0.0037   0.0067   0.0067   0.0022   0.0036   0.0026   0.00    0.0
2327 194926.000  -33.951432688   18.468555156    83.4906   6   8   0.0037   0.0067   0.0067   0.0022   0.0036   0.0026   0.00    0.0
2327 194927.000  -33.951432688   18.468555156    83.4906   6   8   0.0037   0.0067   0.0067   0.0022   0.0036   0.0026   0.00    0.0
2327 194928.000  -33.951432688   18.468555155    83.4906   6   8   0.0037   0.0067   0.0067   0.0022   0.0036   0.0026   0.00    0.0
2327 194929.000  -33.951432688   18.468555155    83.4906   6   8   0.0037   0.0067   0.0067   0.0022   0.0036   0.0026   0.00    0.0
2327 194930.000  -33.951432688   18.468555155    83.4906   6   8   0.0037   0.0067   0.0067   0.0022   0.0036   0.0026   0.00    0.0
2327 194931.000  -33.951432688   18.468555155    83.4906   6   8   0.0037   0.0067   0.0067   0.0022   0.0036   0.0026   0.00    0.0
2327 194932.000  -33.951432688   18.468555155    83.4906   6   8   0.0037   0.0067   0.0067   0.0022   0.0036   0.0026   0.00    0.0
2327 194933.000  -33.951432688   18.468555155    83.4906   6   8   0.0037   0.0067   0.0067   0.0022   0.0036   0.0026   0.00    0.0
2327 194934.000  -33.951432688   18.468555155    83.4906   6   8   0.0037   0.0067   0.0067   0.0022   0.0036   0.0026   0.00    0.0
2327 194935.000  -33.951432688   18.468555155    83.4906   6   8   0.0037   0.0067   0.0067   0.0022   0.0036   0.0026   0.00    0.0
2327 194936.000  -33.951432688   18.468555155    83.4906   6   8   0.0037   0.0067   0.0067   0.0022   0.0036   0.0026   0.00    0.0
2327 194937.000  -33.951432688   18.468555154    83.4906   6   8   0.0037   0.0067   0.0067   0.0022   0.0036   0.0026   0.00    0.0
2327 194938.000  -33.951432688   18.468555154    83.4906   6   8   0.0037   0.0067   0.0067   0.0022   0.0036   0.0026   0.00    0.0
2327 194939.000  -33.951432688   18.468555154    83.4906   6   8   0.0037   0.0067   0.0067   0.0022   0.0036   0.0026   0.00    0.0
2327 194940.000  -33.951432688   18.468555154    83.4906   6   8   0.0037   0.0067   0.0067   0.0022   0.0036   0.0026   0.00    0.0
2327 194941.000  -33.951432688   18.468555154    83.4906   6   8   0.0037   0.0067   0.0067   0.0022   0.0036   0.0026   0.00    0.0
2327 194942.000  -33.951432688   18.468555154    83.4906   6   8   0.0037   0.0067   0.0067   0.0022   0.0036   0.0026   0.00    0.0
2327 194943.000  -33.951432688   18.468555154    83.4906   6   8   0.0037   0.0067   0.0067   0.0022   0.0036   0.0026   0.00    0.0
2327 194944.000  -33.951432688   18.468555154    83.4906   6   8   0.0037   0.0067   0.0067   0.0022   0.0036   0.0026   0.00    0.0
2327 194945.000  -33.951432688   18.468555154    83.4906   6   8   0.0037   0.0067   0.0067   0.0022   0.0036   0.0026   0.00    0.0
2327 194946.000  -33.951432688   18.468555153    83.4906   6   8   0.0037   0.0067   0.0067   0.0022   0.0036   0.0026   0.00    0.0
2327 194947.000  -33.951432688   18.468555153    83.4906   6   8   0.0037   0.0067   0.0067   0.0022   0.0036   0.0026   0.00    0.0
2327 194948.000  -33.951432688   18.468555153    83.4906   6   8   0.0037   0.0067   0.0067   0.0022   0.0036   0.0026   0.00    0.0
2327 194949.000  -33.951432688   18.468555153    83.4906   6   8   0.0037   0.0067   0.0067   0.0022   0.0036   0.0026   0.00    0.0
2327 194950.000  -33.951432688   18.468555153    83.4906   6   8   0.0037   0.0067   0.0067   0.0022   0.0036   0.0026   0.00    0.0
2327 194951.000  -33.951432688   18.468555153    83.4906   6   8   0.0037   0.0067   0.0067   0.0022   0.0036   0.0026   0.00    0.0
2327 194952.000  -33.951432688   18.468555153    83.4906   6   8   0.0037   0.0067   0.0067   0.0022   0.0036   0.0026   0.00    0.0
2327 194953.000  -33.951432688   18.468555153    83.4906   6   8   0.0037   0.0067   0.0067   0.0022   0.0036   0.0026   0.00    0.0
2327 194954.000  -33.951432688   18.468555153    83.4906   6   8   0.0037   0.0067   0.0067   0.0022   0.0036   0.0026   0.00    0.0
2327 194955.000  -33.951432688   18.468555152    83.4906   6   8   0.0037   0.0067   0.0067   0.0022   0.0036   0.0026   0.00    0.0
2327 194956.000  -33.951432688   18.468555152    83.4906   6   8   0.0037   0.0067   0.0067   0.0022   0.0036   0.0026   0.00    0.0
2327 194957.000  -33.951432688   18.468555152    83.4906   6   8   0.0037   0.0067   0.0067   0.0022   0.0036   0.0026   0.00    0.0
2327 194958.000  -33.951432688   18.468555152    83.4906   6   8   0.0037   0.0067   0.0067   0.0022   0.0036   0.0026   0.00    0.0
2327 194959.000  -33.951432688   18.468555152    83.4906   6   8   0.0037   0.0067   0.0067   0.0022   0.0036   0.0026   0.00    0.0
2327 194960.000  -33.951432688   18.468555152    83.4906   6   8   0.0037   0.0067   0.0067   0.0022   0.0036   0.0026   0.00    0.0
2327 194961.000  -33.951432688   18.468555151    83.4906   6   8   0.0037   0.0067   0.0067   0.0022   0.0036   0.0026   0.00    0.0
2327 194962.000  -33.951432688   18.468555152    83.4906   6   8   0.0037   0.0067   0.0067   0.0022   0.0036   0.0026   0.00    0.0
2327 194963.000  -33.951432688   18.468555151    83.4906   6   8   0.0037   0.0067   0.0067   0.0022   0.0036   0.0026   0.00    0.0
2327 194964.000  -33.951432688   18.468555151    83.4906   6   8   0.0037   0.0067   0.0067   0.0022   0.0036   0.0026   0.00    0.0
2327 194965.000  -33.951432688   18.468555151    83.4906   6   8   0.0037   0.0067   0.0067   0.0022   0.0036   0.0026   0.00    0.0
2327 194966.000  -33.951432689   18.468555151    83.4906   6   8   0.0037   0.0067   0.0067   0.0022   0.0036   0.0026   0.00    0.0
2327 194967.000  -33.951432689   18.468555151    83.4906   6   8   0.0037   0.0067   0.0067   0.0022   0.0036   0.0026   0.00    0.0
2327 194968.000  -33.951432688   18.468555151    83.4906   6   8   0.0037   0.0067   0.0067   0.0022   0.0036   0.0026   0.00    0.0
2327 194969.000  -33.951432689   18.468555151    83.4906   6   8   0.0037   0.0067   0.0067   0.0022   0.0036   0.0026   0.00    0.0
2327 194970.000  -33.951432688   18.468555151    83.4906   6   8   0.0037   0.0067   0.0067   0.0022   0.0036   0.0026   0.00    0.0
2327 194971.000  -33.951432689   18.468555151    83.4906   6   8   0.0037   0.0067   0.0067   0.0022   0.0036   0.0026   0.00    0.0
2327 194972.000  -33.951432689   18.468555151    83.4905   6   8   0.0037   0.0067   0.0067   0.0022   0.0036   0.0026   0.00    0.0
2327 194973.000  -33.951432689   18.468555150    83.4906   6   8   0.0037   0.0067   0.0067   0.0022   0.0036   0.0026   0.00    0.0
2327 194974.000  -33.951432689   18.468555151    83.4906   6   8   0.0037   0.0067   0.0067   0.0022   0.0036   0.0026   0.00    0.0
2327 194975.000  -33.951432688   18.468555150    83.4906   6   8   0.0037   0.0067   0.0067   0.0022   0.0036   0.0026   0.00    0.0
2327 194976.000  -33.951432689   18.468555150    83.4906   6   8   0.0037   0.0067   0.0067   0.0022   0.0036   0.0026   0.00    0.0
2327 194977.000  -33.951432689   18.468555149    83.4905   6   8   0.0037   0.0067   0.0067   0.0022   0.0036   0.0026   0.00    0.0
2327 194978.000  -33.951432689   18.468555149    83.4906   6   8   0.0037   0.0067   0.0067   0.0022   0.0036   0.0026   0.00    0.0
2327 194979.000  -33.951432689   18.468555149    83.4905   6   8   0.0037   0.0067   0.0067   0.0022   0.0036   0.0026   0.00    0.0
2327 194980.000  -33.951432689   18.468555149    83.4905   6   8   0.0037   0.0067   0.0067   0.0022   0.0036   0.0026   0.00    0.0
2327 194981.000  -33.951432689   18.468555149    83.4905   6   8   0.0037   0.0067   0.0067   0.0022   0.0036   0.0026   0.00    0.0
2327 194982.000  -33.951432689   18.468555149    83.4905   6   8   0.0037   0.0067   0.0067   0.0022   0.0036   0.0026   0.00    0.0
2327 194983.000  -33.951432689   18.468555149    83.4905   6   8   0.0037   0.0067   0.0067   0.0022   0.0036   0.0026   0.00    0.0
2327 194984.000  -33.951432689   18.468555149    83.4905   6   8   0.0037   0.0067   0.0067   0.0022   0.0036   0.0026   0.00    0.0
2327 194985.000  -33.951432689   18.468555148    83.4905   6   8   0.0037   0.0067   0.0067   0.0022   0.0036   0.0026   0.00    0.0
2327 194986.000  -33.951432689   18.468555148    83.4905   6   8   0.0037   0.0067   0.0067   0.0022   0.0036   0.0026   0.00    0.0
2327 194987.000  -33.951432689   18.468555148    83.4905   6   8   0.0037   0.0067   0.0067   0.0022   0.0036   0.0026   0.00    0.0
2327 194988.000  -33.951432689   18.468555148    83.4905   6   8   0.0037   0.0067   0.0067   0.0022   0.0036   0.0026   0.00    0.0
2327 194989.000  -33.951432689   18.468555148    83.4905   6   8   0.0037   0.0067   0.0067   0.0022   0.0036   0.0026   0.00    0.0
2327 194990.000  -33.951432689   18.468555148    83.4905   6   8   0.0037   0.0067   0.0067   0.0022   0.0036   0.0026   0.00    0.0
2327 194991.000  -33.951432689   18.468555148    83.4905   6   8   0.0037   0.0067   0.0067   0.0022   0.0036   0.0026   0.00    0.0
2327 194992.000  -33.951432689   18.468555148    83.4905   6   8   0.0037   0.0067   0.0067   0.0022   0.0036   0.0026   0.00    0.0
2327 194993.000  -33.951432689   18.468555148    83.4905   6   8   0.0037   0.0067   0.0067   0.0022   0.0036   0.0026   0.00    0.0
2327 194994.000  -33.951432689   18.468555147    83.4905   6   8   0.0037   0.0067   0.0067   0.0022   0.0036   0.0026   0.00    0.0
2327 194995.000  -33.951432689   18.468555147    83.4905   6   8   0.0037   0.0067   0.0067   0.0022   0.0036   0.0026   0.00    0.0
2327 194996.000  -33.951432689   18.468555147    83.4905   6   8   0.0037   0.0067   0.0067   0.0022   0.0036   0.0026   0.00    0.0
2327 194997.000  -33.951432689   18.468555147    83.4905   6   8   0.0037   0.0067   0.0067   0.0022   0.0036   0.0026   0.00    0.0
2327 194998.000  -33.951432689   18.468555147    83.4905   6   8   0.0037   0.0067   0.0067   0.0022   0.0036   0.0026   0.00    0.0
2327 194999.000  -33.951432689   18.468555146    83.4905   6   8   0.0037   0.0067   0.0067   0.0022   0.0036   0.0026   0.00    0.0
2327 195000.000  -33.951432689   18.468555146    83.4905   6   8   0.0037   0.0067   0.0067   0.0022   0.0036   0.0026   0.00    0.0
2327 195001.000  -33.951432689   18.468555146    83.4905   6   8   0.0037   0.0067   0.0067   0.0022   0.0036   0.0026   0.00    0.0
2327 195002.000  -33.951432689   18.468555146    83.4905   6   8   0.0037   0.0067   0.0067   0.0022   0.0036   0.0026   0.00    0.0
2327 195003.000  -33.951432689   18.468555146    83.4905   6   8   0.0037   0.0067   0.0067   0.0022   0.0036   0.0026   0.00    0.0
2327 195004.000  -33.951432689   18.468555145    83.4905   6   8   0.0037   0.0067   0.0067   0.0022   0.0036   0.0026   0.00    0.0
2327 195005.000  -33.951432689   18.468555145    83.4905   6   8   0.0037   0.0067   0.0067   0.0022   0.0036   0.0026   0.00    0.0
2327 195006.000  -33.951432689   18.468555145    83.4905   6   8   0.0037   0.0067   0.0067   0.0022   0.0036   0.0026   0.00    0.0
2327 195007.000  -33.951432689   18.468555145    83.4905   6   8   0.0037   0.0067   0.0067   0.0022   0.0036   0.0026   0.00    0.0
2327 195008.000  -33.951432689   18.468555144    83.4905   6   8   0.0037   0.0067   0.0067   0.0022   0.0036   0.0026   0.00    0.0
2327 195009.000  -33.951432689   18.468555144    83.4905   6   8   0.0037   0.0067   0.0067   0.0022   0.0036   0.0026   0.00    0.0
2327 195010.000  -33.951432689   18.468555144    83.4905   6   8   0.0037   0.0067   0.0067   0.0022   0.0036   0.0026   0.00    0.0
2327 195011.000  -33.951432689   18.468555143    83.4905   6   8   0.0037   0.0067   0.0067   0.0022   0.0036   0.0026   0.00    0.0
2327 195012.000  -33.951432689   18.468555143    83.4905   6   8   0.0037   0.0067   0.0067   0.0022   0.0036   0.0026   0.00    0.0
2327 195013.000  -33.951432689   18.468555143    83.4905   6   8   0.0037   0.0067   0.0067   0.0022   0.0036   0.0026   0.00    0.0
2327 195014.000  -33.951432689   18.468555143    83.4905   6   8   0.0037   0.0067   0.0067   0.0022   0.0036   0.0026   0.00    0.0
2327 195015.000  -33.951432689   18.468555142    83.4905   6   8   0.0037   0.0067   0.0067   0.0022   0.0036   0.0026   0.00    0.0
2327 195016.000  -33.951432689   18.468555142    83.4905   6   8   0.0037   0.0067   0.0067   0.0022   0.0036   0.0026   0.00    0.0
2327 195017.000  -33.951432689   18.468555142    83.4905   6   8   0.0037   0.0067   0.0067   0.0022   0.0036   0.0026   0.00    0.0
2327 195018.000  -33.951432689   18.468555141    83.4905   6   8   0.0037   0.0067   0.0067   0.0022   0.0036   0.0026   0.00    0.0
2327 195019.000  -33.951432689   18.468555141    83.4905   6   8   0.0037   0.0067   0.0067   0.0022   0.0036   0.0026   0.00    0.0
2327 195020.000  -33.951432689   18.468555141    83.4904   6   8   0.0037   0.0067   0.0067   0.0022   0.0036   0.0026   0.00    0.0
2327 195021.000  -33.951432689   18.468555141    83.4905   6   8   0.0037   0.0067   0.0067   0.0022   0.0036   0.0026   0.00    0.0
2327 195022.000  -33.951432689   18.468555141    83.4905   6   8   0.0037   0.0067   0.0067   0.0022   0.0036   0.0026   0.00    0.0
2327 195023.000  -33.951432689   18.468555140    83.4905   6   8   0.0037   0.0067   0.0067   0.0022   0.0036   0.0026   0.00    0.0
2327 195024.000  -33.951432689   18.468555140    83.4904   6   8   0.0037   0.0067   0.0067   0.0022   0.0036   0.0026   0.00    0.0
2327 195025.000  -33.951432689   18.468555140    83.4904   6   8   0.0037   0.0067   0.0067   0.0022   0.0036   0.0026   0.00    0.0
2327 195026.000  -33.951432689   18.468555140    83.4904   6   8   0.0037   0.0067   0.0067   0.0022   0.0036   0.0026   0.00    0.0
2327 195027.000  -33.951432690   18.468555139    83.4904   6   8   0.0037   0.0067   0.0067   0.0022   0.0036   0.0026   0.00    0.0
2327 195028.000  -33.951432690   18.468555139    83.4904   6   8   0.0037   0.0067   0.0067   0.0022   0.0036   0.0026   0.00    0.0
2327 195029.000  -33.951432690   18.468555139    83.4904   6   8   0.0037   0.0067   0.0067   0.0022   0.0036   0.0026   0.00    0.0
2327 195030.000  -33.951432690   18.468555139    83.4904   6   8   0.0037   0.0067   0.0067   0.0022   0.0036   0.0026   0.00    0.0
2327 195031.000  -33.951432690   18.468555138    83.4904   6   8   0.0037   0.0067   0.0067   0.0022   0.0036   0.0026   0.00    0.0
2327 195032.000  -33.951432690   18.468555138    83.4904   6   8   0.0037   0.0067   0.0067   0.0022   0.0036   0.0026   0.00    0.0
2327 195033.000  -33.951432690   18.468555138    83.4904   6   8   0.0037   0.0067   0.0067   0.0022   0.0036   0.0026   0.00    0.0
2327 195034.000  -33.951432690   18.468555137    83.4904   6   8   0.0037   0.0067   0.0067   0.0022   0.0036   0.0026   0.00    0.0
2327 195035.000  -33.951432690   18.468555137    83.4904   6   8   0.0037   0.0067   0.0067   0.0022   0.0036   0.0026   0.00    0.0
2327 195036.000  -33.951432690   18.468555137    83.4904   6   8   0.0037   0.0068   0.0067   0.0022   0.0036   0.0026   0.00    0.0
2327 195037.000  -33.951432690   18.468555137    83.4904   6   8   0.0037   0.0068   0.0067   0.0022   0.0036   0.0026   0.00    0.0
2327 195038.000  -33.951432690   18.468555136    83.4904   6   8   0.0037   0.0068   0.0067   0.0022   0.0036   0.0026   0.00    0.0
2327 195039.000  -33.951432690   18.468555136    83.4904   6   8   0.0037   0.0068   0.0067   0.0022   0.0036   0.0026   0.00    0.0
2327 195040.000  -33.951432690   18.468555136    83.4904   6   8   0.0037   0.0068   0.0067   0.0022   0.0036   0.0026   0.00    0.0
2327 195041.000  -33.951432690   18.468555135    83.4904   6   8   0.0037   0.0068   0.0067   0.0022   0.0036   0.0026   0.00    0.0
2327 195042.000  -33.951432690   18.468555135    83.4904   6   8   0.0037   0.0068   0.0067   0.0022   0.0036   0.0026   0.00    0.0
2327 195043.000  -33.951432690   18.468555135    83.4904   6   8   0.0037   0.0068   0.0067   0.0022   0.0036   0.0026   0.00    0.0
2327 195044.000  -33.951432690   18.468555134    83.4904   6   8   0.0037   0.0068   0.0067   0.0022   0.0036   0.0026   0.00    0.0
2327 195045.000  -33.951432690   18.468555134    83.4904   6   8   0.0037   0.0068   0.0067   0.0022   0.0036   0.0026   0.00    0.0
2327 195046.000  -33.951432690   18.468555134    83.4904   6   8   0.0037   0.0068   0.0067   0.0022   0.0036   0.0026   0.00    0.0
2327 195047.000  -33.951432690   18.468555134    83.4904   6   8   0.0037   0.0068   0.0067   0.0022   0.0036   0.0026   0.00    0.0
2327 195048.000  -33.951432690   18.468555134    83.4904   6   8   0.0037   0.0068   0.0067   0.0022   0.0036   0.0026   0.00    0.0
2327 195049.000  -33.951432690   18.468555133    83.4904   6   8   0.0037   0.0068   0.0067   0.0022   0.0036   0.0026   0.00    0.0
2327 195050.000  -33.951432690   18.468555133    83.4904   6   8   0.0037   0.0068   0.0067   0.0022   0.0036   0.0026   0.00    0.0
