% (lat/lon/height=WGS84/ellipsoidal,Q=1:fix,2:float,3:sbas,4:dgps,5:single,6:ppp,ns=# of satellites)
%  GPST          latitude(deg) longitude(deg)  height(m)   Q  ns   sdn(m)   sde(m)   sdu(m)  sdne(m)  sdeu(m)  sdun(m) age(s)  ratio    vn(m/s)    ve(m/s)    vu(m/s)      sdvn     sdve     sdvu    sdvne    sdveu    sdvun
2326 297533.000  -33.951413803   18.468562732    81.3217   6   5   7.6965   6.5907  15.8054   6.0478  -5.8169  -5.8653   0.00    0.0    0.00000    0.00000    0.00000   0.00000  0.00000  0.00000  0.00000  0.00000  0.00000
2326 297534.000  -33.951412112   18.468567510    81.1773   6   5   5.4894   4.7004  11.3954   4.3234  -4.2150  -4.2537   0.00    0.0    0.00000    0.00000    0.00000   0.00000  0.00000  0.00000  0.00000  0.00000  0.00000
2326 297535.000  -33.951411958   18.468567361    80.8095   6   5   4.4951   3.8490   9.3653   3.5431  -3.4693  -3.5019   0.00    0.0    0.00000    0.00000    0.00000   0.00000  0.00000  0.00000  0.00000  0.00000  0.00000
2326 297536.000  -33.951411345   18.468568048    80.8891   6   5   3.8985   3.3382   8.1366   3.0741  -3.0160  -3.0444   0.00    0.0    0.00000    0.00000    0.00000   0.00000  0.00000  0.00000  0.00000  0.00000  0.00000
2326 297537.000  -33.951410761   18.468566028    80.8571   6   5   3.4898   2.9883   7.2909   2.7525  -2.7032  -2.7286   0.00    0.0    0.00000    0.00000    0.00000   0.00000  0.00000  0.00000  0.00000  0.00000  0.00000
2326 297538.000  -33.951412579   18.468564799    80.7117   6   5   3.1874   2.7294   6.6633   2.5144  -2.4705  -2.4936   0.00    0.0    0.00000    0.00000    0.00000   0.00000  0.00000  0.00000  0.00000  0.00000  0.00000
2326 297539.000  -33.951413598   18.468563829    80.8061   6   5   2.9519   2.5278   6.1736   2.3289  -2.2888  -2.3099   0.00    0.0    0.00000    0.00000    0.00000   0.00000  0.00000  0.00000  0.00000  0.00000  0.00000
2326 297540.000  -33.951413852   18.468563183    81.0568   6   5   2.7618   2.3651   5.7777   2.1791  -2.1416  -2.1611   0.00    0.0    0.00000    0.00000    0.00000   0.00000  0.00000  0.00000  0.00000  0.00000  0.00000
2326 297541.000  -33.951414820   18.468562289    81.1262   6   5   2.6041   2.2302   5.4489   2.0548  -2.0193  -2.0373   0.00    0.0    0.00000    0.00000    0.00000   0.00000  0.00000  0.00000  0.00000  0.00000  0.00000
2326 297542.000  -33.951415727   18.468560992    81.2050   6   5   2.4706   2.1160   5.1702   1.9495  -1.9154  -1.9322   0.00    0.0    0.00000    0.00000    0.00000   0.00000  0.00000  0.00000  0.00000  0.00000  0.00000
2326 297543.000  -33.951416179   18.468559595    81.0904   6   5   2.3556   2.0176   4.9300   1.8588  -1.8258  -1.8415   0.00    0.0    0.00000    0.00000    0.00000   0.00000  0.00000  0.00000  0.00000  0.00000  0.00000
2326 297544.000  -33.951417732   18.468558174    81.2243   6   5   2.2552   1.9317   4.7201   1.7797  -1.7475  -1.7621   0.00    0.0    0.00000    0.00000    0.00000   0.00000  0.00000  0.00000  0.00000  0.00000  0.00000
2326 297545.000  -33.951418567   18.468557780    81.2580   6   5   2.1665   1.8559   4.5347   1.7097  -1.6781  -1.6918   0.00    0.0    0.00000    0.00000    0.00000   0.00000  0.00000  0.00000  0.00000  0.00000  0.00000
2326 297546.000  -33.951418372   18.468557638    81.2229   6   5   2.0874   1.7883   4.3693   1.6473  -1.6162  -1.6290   0.00    0.0    0.00000    0.00000    0.00000   0.00000  0.00000  0.00000  0.00000  0.00000  0.00000
2326 297547.000  -33.951418508   18.468557568    81.5100   6   5   2.0163   1.7275   4.2205   1.5912  -1.5604  -1.5724   0.00    0.0    0.00000    0.00000    0.00000   0.00000  0.00000  0.00000  0.00000  0.00000  0.00000
2326 297548.000  -33.951419113   18.468556998    81.6723   6   5   1.9519   1.6725   4.0856   1.5404  -1.5098  -1.5210   0.00    0.0    0.00000    0.00000    0.00000   0.00000  0.00000  0.00000  0.00000  0.00000  0.00000
2326 297549.000  -33.951419024   18.468556687    81.6763   6   5   1.8932   1.6223   3.9628   1.4941  -1.4636  -1.4741   0.00    0.0    0.00000    0.00000    0.00000   0.00000  0.00000  0.00000  0.00000  0.00000  0.00000
2326 297550.000  -33.951419070   18.468556978    81.8271   6   5   1.8394   1.5764   3.8501   1.4516  -1.4212  -1.4310   0.00    0.0    0.00000    0.00000    0.00000   0.00000  0.00000  0.00000  0.00000  0.00000  0.00000
2326 297551.000  -33.951419579   18.468556687    81.8910   6   5   1.7898   1.5341   3.7463   1.4125  -1.3821  -1.3912   0.00    0.0    0.00000    0.00000    0.00000   0.00000  0.00000  0.00000  0.00000  0.00000  0.00000
2326 297552.000  -33.951420140   18.468555927    82.0723   6   5   1.7440   1.4950   3.6503   1.3763  -1.3459  -1.3543   0.00    0.0    0.00000    0.00000    0.00000   0.00000  0.00000  0.00000  0.00000  0.00000  0.00000
2326 297553.000  -33.951420300   18.468556070    82.1672   6   5   1.7014   1.4587   3.5612   1.3427  -1.3122  -1.3200   0.00    0.0    0.00000    0.00000    0.00000   0.00000  0.00000  0.00000  0.00000  0.00000  0.00000
2326 297554.000  -33.951419800   18.468555853    82.1788   6   5   1.6618   1.4249   3.4780   1.3114  -1.2808  -1.2879   0.00    0.0    0.00000    0.00000    0.00000   0.00000  0.00000  0.00000  0.00000  0.00000  0.00000
2326 297555.000  -33.951420598   18.468555362    82.2905   6   5   1.6246   1.3933   3.4003   1.2821  -1.2513  -1.2578   0.00    0.0    0.00000    0.00000    0.00000   0.00000  0.00000  0.00000  0.00000  0.00000  0.00000
2326 297556.000  -33.951421484   18.468554404    82.2679   6   5   1.5898   1.3636   3.3273   1.2546  -1.2236  -1.2295   0.00    0.0    0.00000    0.00000    0.00000   0.00000  0.00000  0.00000  0.00000  0.00000  0.00000
2326 297557.000  -33.951421798   18.468554093    82.2759   6   5   1.5571   1.3357   3.2587   1.2287  -1.1975  -1.2028   0.00    0.0    0.00000    0.00000    0.00000   0.00000  0.00000  0.00000  0.00000  0.00000  0.00000
2326 297558.000  -33.951422841   18.468552996    82.4979   6   5   1.5262   1.3094   3.1941   1.2044  -1.1729  -1.1776   0.00    0.0    0.00000    0.00000    0.00000   0.00000  0.00000  0.00000  0.00000  0.00000  0.00000
2326 297559.000  -33.951423396   18.468552688    82.5235   6   5   1.4970   1.2846   3.1329   1.1813  -1.1495  -1.1537   0.00    0.0    0.00000    0.00000    0.00000   0.00000  0.00000  0.00000  0.00000  0.00000  0.00000
2326 297560.000  -33.951423655   18.468552224    82.5105   6   5   1.4694   1.2611   3.0750   1.1595  -1.1274  -1.1310   0.00    0.0    0.00000    0.00000    0.00000   0.00000  0.00000  0.00000  0.00000  0.00000  0.00000
2326 297561.000  -33.951423896   18.468551820    82.4826   6   5   1.4431   1.2388   3.0200   1.1387  -1.1063  -1.1094   0.00    0.0    0.00000    0.00000    0.00000   0.00000  0.00000  0.00000  0.00000  0.00000  0.00000
2326 297562.000  -33.951424302   18.468551766    82.4926   6   5   1.4182   1.2176   2.9678   1.1190  -1.0863  -1.0888   0.00    0.0    0.00000    0.00000    0.00000   0.00000  0.00000  0.00000  0.00000  0.00000  0.00000
2326 297563.000  -33.951424054   18.468551906    82.4931   6   5   1.3944   1.1974   2.9180   1.1002  -1.0671  -1.0691   0.00    0.0    0.00000    0.00000    0.00000   0.00000  0.00000  0.00000  0.00000  0.00000  0.00000
2326 297564.000  -33.951423798   18.468552150    82.5546   6   5   1.3717   1.1782   2.8705   1.0823  -1.0488  -1.0503   0.00    0.0    0.00000    0.00000    0.00000   0.00000  0.00000  0.00000  0.00000  0.00000  0.00000
2326 297565.000  -33.951423597   18.468552181    82.5573   6   5   1.3500   1.1598   2.8251   1.0651  -1.0313  -1.0322   0.00    0.0    0.00000    0.00000    0.00000   0.00000  0.00000  0.00000  0.00000  0.00000  0.00000
2326 297566.000  -33.951423748   18.468551955    82.6093   6   5   1.3293   1.1422   2.7816   1.0487  -1.0145  -1.0149   0.00    0.0    0.00000    0.00000    0.00000   0.00000  0.00000  0.00000  0.00000  0.00000  0.00000
2326 297567.000  -33.951424049   18.468551584    82.6401   6   5   1.3094   1.1253   2.7400   1.0330  -0.9984  -0.9982   0.00    0.0    0.00000    0.00000    0.00000   0.00000  0.00000  0.00000  0.00000  0.00000  0.00000
2326 297568.000  -33.951424343   18.468551245    82.6840   6   5   1.2903   1.1092   2.7001   1.0179  -0.9828  -0.9822   0.00    0.0    0.00000    0.00000    0.00000   0.00000  0.00000  0.00000  0.00000  0.00000  0.00000
2326 297569.000  -33.951424848   18.468551049    82.7264   6   5   1.2719   1.0936   2.6617   1.0034  -0.9679  -0.9667   0.00    0.0    0.00000    0.00000    0.00000   0.00000  0.00000  0.00000  0.00000  0.00000  0.00000
2326 297570.000  -33.951425270   18.468550784    82.7892   6   5   1.2543   1.0787   2.6248   0.9894  -0.9535  -0.9518   0.00    0.0    0.00000    0.00000    0.00000   0.00000  0.00000  0.00000  0.00000  0.00000  0.00000
2326 297571.000  -33.951425396   18.468550812    82.8352   6   5   1.2373   1.0644   2.5893   0.9760  -0.9396  -0.9374   0.00    0.0    0.00000    0.00000    0.00000   0.00000  0.00000  0.00000  0.00000  0.00000  0.00000
2326 297572.000  -33.951425211   18.468551091    82.8658   6   5   1.2209   1.0505   2.5550   0.9630  -0.9262  -0.9235   0.00    0.0    0.00000    0.00000    0.00000   0.00000  0.00000  0.00000  0.00000  0.00000  0.00000
2326 297573.000  -33.951425422   18.468550888    82.8363   6   5   1.2051   1.0372   2.5220   0.9505  -0.9133  -0.9100   0.00    0.0    0.00000    0.00000    0.00000   0.00000  0.00000  0.00000  0.00000  0.00000  0.00000
2326 297574.000  -33.951425306   18.468550877    82.8490   6   5   1.1898   1.0243   2.4901   0.9384  -0.9007  -0.8970   0.00    0.0    0.00000    0.00000    0.00000   0.00000  0.00000  0.00000  0.00000  0.00000  0.00000
2326 297575.000  -33.951425208   18.468551044    82.7747   6   5   1.1751   1.0119   2.4593   0.9267  -0.8885  -0.8843   0.00    0.0    0.00000    0.00000    0.00000   0.00000  0.00000  0.00000  0.00000  0.00000  0.00000
2326 297576.000  -33.951425254   18.468551153    82.7455   6   5   1.1608   0.9998   2.4295   0.9154  -0.8768  -0.8720   0.00    0.0    0.00000    0.00000    0.00000   0.00000  0.00000  0.00000  0.00000  0.00000  0.00000
2326 297577.000  -33.951425328   18.468551224    82.8074   6   5   1.1469   0.9882   2.4006   0.9044  -0.8653  -0.8600   0.00    0.0    0.00000    0.00000    0.00000   0.00000  0.00000  0.00000  0.00000  0.00000  0.00000
2326 297578.000  -33.951425428   18.468551197    82.8324   6   5   1.1335   0.9769   2.3726   0.8938  -0.8542  -0.8484   0.00    0.0    0.00000    0.00000    0.00000   0.00000  0.00000  0.00000  0.00000  0.00000  0.00000
2326 297579.000  -33.951425931   18.468550729    82.8432   6   5   1.1205   0.9660   2.3455   0.8835  -0.8434  -0.8371   0.00    0.0    0.00000    0.00000    0.00000   0.00000  0.00000  0.00000  0.00000  0.00000  0.00000
2326 297580.000  -33.951426262   18.468550446    82.8964   6   5   1.1079   0.9554   2.3192   0.8735  -0.8329  -0.8261   0.00    0.0    0.00000    0.00000    0.00000   0.00000  0.00000  0.00000  0.00000  0.00000  0.00000
2326 297581.000  -33.951426603   18.468550323    82.9523   6   5   1.0957   0.9451   2.2937   0.8638  -0.8227  -0.8154   0.00    0.0    0.00000    0.00000    0.00000   0.00000  0.00000  0.00000  0.00000  0.00000  0.00000
2326 297582.000  -33.951427112   18.468549963    83.0155   6   5   1.0838   0.9351   2.2689   0.8544  -0.8128  -0.8049   0.00    0.0    0.00000    0.00000    0.00000   0.00000  0.00000  0.00000  0.00000  0.00000  0.00000
2326 297583.000  -33.951427195   18.468549912    83.0957   6   5   1.0722   0.9254   2.2447   0.8452  -0.8031  -0.7947   0.00    0.0    0.00000    0.00000    0.00000   0.00000  0.00000  0.00000  0.00000  0.00000  0.00000
2326 297584.000  -33.951427177   18.468550011    83.1242   6   5   1.0609   0.9160   2.2213   0.8363  -0.7936  -0.7847   0.00    0.0    0.00000    0.00000    0.00000   0.00000  0.00000  0.00000  0.00000  0.00000  0.00000
2326 297585.000  -33.951427333   18.468549832    83.1605   6   5   1.0499   0.9068   2.1985   0.8276  -0.7844  -0.7750   0.00    0.0    0.00000    0.00000    0.00000   0.00000  0.00000  0.00000  0.00000  0.00000  0.00000
2326 297586.000  -33.951427570   18.468549550    83.1862   6   5   1.0392   0.8979   2.1762   0.8191  -0.7754  -0.7655   0.00    0.0    0.00000    0.00000    0.00000   0.00000  0.00000  0.00000  0.00000  0.00000  0.00000
2326 297587.000  -33.951427794   18.468549409    83.1501   6   5   1.0288   0.8892   2.1546   0.8108  -0.7666  -0.7562   0.00    0.0    0.00000    0.00000    0.00000   0.00000  0.00000  0.00000  0.00000  0.00000  0.00000
2326 297588.000  -33.951427990   18.468549352    83.1587   6   5   1.0187   0.8807   2.1335   0.8028  -0.7580  -0.7471   0.00    0.0    0.00000    0.00000    0.00000   0.00000  0.00000  0.00000  0.00000  0.00000  0.00000
2326 297589.000  -33.951428043   18.468549437    83.2255   6   5   1.0087   0.8724   2.1129   0.7949  -0.7496  -0.7381   0.00    0.0    0.00000    0.00000    0.00000   0.00000  0.00000  0.00000  0.00000  0.00000  0.00000
2326 297590.000  -33.951427988   18.468549440    83.2595   6   5   0.9991   0.8644   2.0928   0.7872  -0.7414  -0.7294   0.00    0.0    0.00000    0.00000    0.00000   0.00000  0.00000  0.00000  0.00000  0.00000  0.00000
2326 297591.000  -33.951428258   18.468549211    83.3013   6   5   0.9896   0.8565   2.0732   0.7797  -0.7333  -0.7208   0.00    0.0    0.00000    0.00000    0.00000   0.00000  0.00000  0.00000  0.00000  0.00000  0.00000
2326 297592.000  -33.951428356   18.468549185    83.2854   6   5   0.9804   0.8488   2.0540   0.7724  -0.7254  -0.7124   0.00    0.0    0.00000    0.00000    0.00000   0.00000  0.00000  0.00000  0.00000  0.00000  0.00000
2326 297593.000  -33.951428372   18.468549207    83.3027   6   5   0.9714   0.8413   2.0353   0.7652  -0.7177  -0.7042   0.00    0.0    0.00000    0.00000    0.00000   0.00000  0.00000  0.00000  0.00000  0.00000  0.00000
2326 297594.000  -33.951428498   18.468548969    83.3726   6   5   0.9625   0.8340   2.0170   0.7582  -0.7102  -0.6961   0.00    0.0    0.00000    0.00000    0.00000   0.00000  0.00000  0.00000  0.00000  0.00000  0.00000
2326 297595.000  -33.951428475   18.468549019    83.3443   6   5   0.9539   0.8268   1.9991   0.7514  -0.7027  -0.6882   0.00    0.0    0.00000    0.00000    0.00000   0.00000  0.00000  0.00000  0.00000  0.00000  0.00000
2326 297596.000  -33.951428536   18.468548920    83.3855   6   5   0.9454   0.8198   1.9816   0.7447  -0.6955  -0.6804   0.00    0.0    0.00000    0.00000    0.00000   0.00000  0.00000  0.00000  0.00000  0.00000  0.00000
2326 297597.000  -33.951428507   18.468549035    83.4254   6   5   0.9372   0.8130   1.9645   0.7381  -0.6883  -0.6727   0.00    0.0    0.00000    0.00000    0.00000   0.00000  0.00000  0.00000  0.00000  0.00000  0.00000
2326 297598.000  -33.951428551   18.468549031    83.4642   6   5   0.9291   0.8062   1.9478   0.7317  -0.6813  -0.6652   0.00    0.0    0.00000    0.00000    0.00000   0.00000  0.00000  0.00000  0.00000  0.00000  0.00000
2326 297599.000  -33.951428484   18.468549044    83.4967   6   5   0.9211   0.7997   1.9313   0.7254  -0.6745  -0.6578   0.00    0.0    0.00000    0.00000    0.00000   0.00000  0.00000  0.00000  0.00000  0.00000  0.00000
2326 297600.000  -33.951428624   18.468548905    83.5130   6   5   0.9133   0.7932   1.9153   0.7192  -0.6677  -0.6505   0.00    0.0    0.00000    0.00000    0.00000   0.00000  0.00000  0.00000  0.00000  0.00000  0.00000
2326 297601.000  -33.951428702   18.468548824    83.5491   6   5   0.9057   0.7869   1.8995   0.7131  -0.6611  -0.6434   0.00    0.0    0.00000    0.00000    0.00000   0.00000  0.00000  0.00000  0.00000  0.00000  0.00000
2326 297602.000  -33.951428615   18.468548893    83.5833   6   5   0.8982   0.7808   1.8841   0.7072  -0.6546  -0.6363   0.00    0.0    0.00000    0.00000    0.00000   0.00000  0.00000  0.00000  0.00000  0.00000  0.00000
2326 297603.000  -33.951428347   18.468549106    83.6157   6   5   0.8909   0.7747   1.8689   0.7013  -0.6482  -0.6294   0.00    0.0    0.00000    0.00000    0.00000   0.00000  0.00000  0.00000  0.00000  0.00000  0.00000
2326 297604.000  -33.951428337   18.468549271    83.6471   6   5   0.8837   0.7688   1.8541   0.6956  -0.6419  -0.6225   0.00    0.0    0.00000    0.00000    0.00000   0.00000  0.00000  0.00000  0.00000  0.00000  0.00000
2326 297605.000  -33.951428354   18.468549288    83.6510   6   5   0.8766   0.7630   1.8395   0.6900  -0.6357  -0.6158   0.00    0.0    0.00000    0.00000    0.00000   0.00000  0.00000  0.00000  0.00000  0.00000  0.00000
2326 297606.000  -33.951428507   18.468549187    83.6680   6   5   0.8697   0.7573   1.8252   0.6845  -0.6296  -0.6092   0.00    0.0    0.00000    0.00000    0.00000   0.00000  0.00000  0.00000  0.00000  0.00000  0.00000
2326 297607.000  -33.951428614   18.468549061    83.7129   6   5   0.8629   0.7517   1.8112   0.6791  -0.6236  -0.6026   0.00    0.0    0.00000    0.00000    0.00000   0.00000  0.00000  0.00000  0.00000  0.00000  0.00000
2326 297608.000  -33.951428885   18.468548988    83.7147   6   5   0.8562   0.7462   1.7974   0.6737  -0.6177  -0.5962   0.00    0.0    0.00000    0.00000    0.00000   0.00000  0.00000  0.00000  0.00000  0.00000  0.00000
2326 297609.000  -33.951428778   18.468549231    83.6864   6   5   0.8496   0.7408   1.7839   0.6685  -0.6118  -0.5898   0.00    0.0    0.00000    0.00000    0.00000   0.00000  0.00000  0.00000  0.00000  0.00000  0.00000
2326 297610.000  -33.951428660   18.468549490    83.6602   6   5   0.8431   0.7355   1.7706   0.6634  -0.6061  -0.5836   0.00    0.0    0.00000    0.00000    0.00000   0.00000  0.00000  0.00000  0.00000  0.00000  0.00000
2326 297611.000  -33.951428567   18.468549629    83.6759   6   5   0.8368   0.7303   1.7576   0.6583  -0.6005  -0.5774   0.00    0.0    0.00000    0.00000    0.00000   0.00000  0.00000  0.00000  0.00000  0.00000  0.00000
2326 297612.000  -33.951428474   18.468549764    83.6712   6   5   0.8305   0.7251   1.7447   0.6533  -0.5949  -0.5713   0.00    0.0    0.00000    0.00000    0.00000   0.00000  0.00000  0.00000  0.00000  0.00000  0.00000
2326 297613.000  -33.951428520   18.468549852    83.6587   6   5   0.8244   0.7201   1.7321   0.6484  -0.5894  -0.5653   0.00    0.0    0.00000    0.00000    0.00000   0.00000  0.00000  0.00000  0.00000  0.00000  0.00000
2326 297614.000  -33.951428647   18.468549877    83.6696   6   5   0.8183   0.7152   1.7197   0.6436  -0.5840  -0.5593   0.00    0.0    0.00000    0.00000    0.00000   0.00000  0.00000  0.00000  0.00000  0.00000  0.00000
2326 297615.000  -33.951428511   18.468550085    83.6702   6   5   0.8124   0.7103   1.7075   0.6389  -0.5787  -0.5534   0.00    0.0    0.00000    0.00000    0.00000   0.00000  0.00000  0.00000  0.00000  0.00000  0.00000
2326 297616.000  -33.951428604   18.468550092    83.6734   6   5   0.8065   0.7055   1.6955   0.6342  -0.5734  -0.5476   0.00    0.0    0.00000    0.00000    0.00000   0.00000  0.00000  0.00000  0.00000  0.00000  0.00000
2326 297617.000  -33.951428701   18.468550049    83.6768   6   5   0.8007   0.7008   1.6837   0.6296  -0.5682  -0.5419   0.00    0.0    0.00000    0.00000    0.00000   0.00000  0.00000  0.00000  0.00000  0.00000  0.00000
2326 297618.000  -33.951428848   18.468549870    83.7119   6   5   0.7950   0.6962   1.6721   0.6251  -0.5631  -0.5362   0.00    0.0    0.00000    0.00000    0.00000   0.00000  0.00000  0.00000  0.00000  0.00000  0.00000
2326 297619.000  -33.951428976   18.468549819    83.7591   6   5   0.7894   0.6917   1.6606   0.6206  -0.5581  -0.5306   0.00    0.0    0.00000    0.00000    0.00000   0.00000  0.00000  0.00000  0.00000  0.00000  0.00000
2326 297620.000  -33.951428913   18.468549825    83.7707   6   5   0.7839   0.6872   1.6493   0.6163  -0.5531  -0.5251   0.00    0.0    0.00000    0.00000    0.00000   0.00000  0.00000  0.00000  0.00000  0.00000  0.00000
2326 297621.000  -33.951429084   18.468549661    83.7733   6   5   0.7785   0.6828   1.6383   0.6119  -0.5482  -0.5196   0.00    0.0    0.00000    0.00000    0.00000   0.00000  0.00000  0.00000  0.00000  0.00000  0.00000
2326 297622.000  -33.951429260   18.468549501    83.8155   6   5   0.7731   0.6784   1.6273   0.6077  -0.5433  -0.5142   0.00    0.0    0.00000    0.00000    0.00000   0.00000  0.00000  0.00000  0.00000  0.00000  0.00000
2326 297623.000  -33.951429283   18.468549570    83.8024   6   5   0.7679   0.6742   1.6166   0.6035  -0.5385  -0.5088   0.00    0.0    0.00000    0.00000    0.00000   0.00000  0.00000  0.00000  0.00000  0.00000  0.00000
2326 297624.000  -33.951429294   18.468549624    83.8254   6   5   0.7627   0.6700   1.6060   0.5993  -0.5338  -0.5035   0.00    0.0    0.00000    0.00000    0.00000   0.00000  0.00000  0.00000  0.00000  0.00000  0.00000
2326 297625.000  -33.951429451   18.468549527    83.8418   6   5   0.7576   0.6658   1.5955   0.5952  -0.5291  -0.4983   0.00    0.0    0.00000    0.00000    0.00000   0.00000  0.00000  0.00000  0.00000  0.00000  0.00000
2326 297626.000  -33.951429531   18.468549491    83.8647   6   5   0.7525   0.6617   1.5853   0.5912  -0.5245  -0.4931   0.00    0.0    0.00000    0.00000    0.00000   0.00000  0.00000  0.00000  0.00000  0.00000  0.00000
2326 297627.000  -33.951429644   18.468549424    83.8797   6   5   0.7475   0.6577   1.5751   0.5873  -0.5199  -0.4880   0.00    0.0    0.00000    0.00000    0.00000   0.00000  0.00000  0.00000  0.00000  0.00000  0.00000
2326 297628.000  -33.951429598   18.468549434    83.9110   6   5   0.7426   0.6537   1.5651   0.5833  -0.5154  -0.4829   0.00    0.0    0.00000    0.00000    0.00000   0.00000  0.00000  0.00000  0.00000  0.00000  0.00000
2326 297629.000  -33.951429688   18.468549428    83.9098   6   5   0.7377   0.6498   1.5553   0.5795  -0.5109  -0.4779   0.00    0.0    0.00000    0.00000    0.00000   0.00000  0.00000  0.00000  0.00000  0.00000  0.00000
2326 297630.000  -33.951429769   18.468549311    83.9081   6   5   0.7330   0.6460   1.5455   0.5757  -0.5065  -0.4729   0.00    0.0    0.00000    0.00000    0.00000   0.00000  0.00000  0.00000  0.00000  0.00000  0.00000
2326 297631.000  -33.951429921   18.468549104    83.9475   6   5   0.7282   0.6422   1.5360   0.5719  -0.5021  -0.4679   0.00    0.0    0.00000    0.00000    0.00000   0.00000  0.00000  0.00000  0.00000  0.00000  0.00000
2326 297632.000  -33.951430031   18.468548930    83.9743   6   5   0.7236   0.6384   1.5265   0.5682  -0.4978  -0.4630   0.00    0.0    0.00000    0.00000    0.00000   0.00000  0.00000  0.00000  0.00000  0.00000  0.00000
2326 297633.000  -33.951430127   18.468548774    84.0008   6   5   0.7190   0.6347   1.5172   0.5645  -0.4936  -0.4582   0.00    0.0    0.00000    0.00000    0.00000   0.00000  0.00000  0.00000  0.00000  0.00000  0.00000
2326 297634.000  -33.951430149   18.468548761    84.0276   6   5   0.7144   0.6311   1.5080   0.5609  -0.4893  -0.4534   0.00    0.0    0.00000    0.00000    0.00000   0.00000  0.00000  0.00000  0.00000  0.00000  0.00000
2326 297635.000  -33.951430319   18.468548609    84.0713   6   5   0.7100   0.6275   1.4989   0.5573  -0.4852  -0.4487   0.00    0.0    0.00000    0.00000    0.00000   0.00000  0.00000  0.00000  0.00000  0.00000  0.00000
2326 297636.000  -33.951430506   18.468548477    84.1335   6   5   0.7055   0.6239   1.4899   0.5538  -0.4810  -0.4439   0.00    0.0    0.00000    0.00000    0.00000   0.00000  0.00000  0.00000  0.00000  0.00000  0.00000
2326 297637.000  -33.951430618   18.468548313    84.1699   6   5   0.7012   0.6204   1.4811   0.5503  -0.4770  -0.4393   0.00    0.0    0.00000    0.00000    0.00000   0.00000  0.00000  0.00000  0.00000  0.00000  0.00000
2326 297638.000  -33.951430613   18.468548307    84.2138   6   5   0.6968   0.6170   1.4723   0.5469  -0.4729  -0.4346   0.00    0.0    0.00000    0.00000    0.00000   0.00000  0.00000  0.00000  0.00000  0.00000  0.00000
2326 297639.000  -33.951430650   18.468548206    84.2521   6   5   0.6926   0.6135   1.4637   0.5435  -0.4689  -0.4301   0.00    0.0    0.00000    0.00000    0.00000   0.00000  0.00000  0.00000  0.00000  0.00000  0.00000
2326 297640.000  -33.951430733   18.468548167    84.2603   6   5   0.6884   0.6102   1.4552   0.5401  -0.4650  -0.4255   0.00    0.0    0.00000    0.00000    0.00000   0.00000  0.00000  0.00000  0.00000  0.00000  0.00000
2326 297641.000  -33.951430866   18.468547972    84.2885   6   5   0.6842   0.6068   1.4468   0.5368  -0.4610  -0.4210   0.00    0.0    0.00000    0.00000    0.00000   0.00000  0.00000  0.00000  0.00000  0.00000  0.00000
2326 297642.000  -33.951431027   18.468547893    84.3252   6   5   0.6801   0.6036   1.4385   0.5335  -0.4572  -0.4165   0.00    0.0    0.00000    0.00000    0.00000   0.00000  0.00000  0.00000  0.00000  0.00000  0.00000
2326 297643.000  -33.951431079   18.468547864    84.3343   6   5   0.6760   0.6003   1.4303   0.5303  -0.4533  -0.4121   0.00    0.0    0.00000    0.00000    0.00000   0.00000  0.00000  0.00000  0.00000  0.00000  0.00000
2326 297644.000  -33.951431133   18.468547879    84.3683   6   5   0.6720   0.5971   1.4222   0.5271  -0.4495  -0.4077   0.00    0.0    0.00000    0.00000    0.00000   0.00000  0.00000  0.00000  0.00000  0.00000  0.00000
2326 297645.000  -33.951431213   18.468547774    84.3816   6   5   0.6680   0.5940   1.4142   0.5239  -0.4457  -0.4033   0.00    0.0    0.00000    0.00000    0.00000   0.00000  0.00000  0.00000  0.00000  0.00000  0.00000
2326 297646.000  -33.951431271   18.468547687    84.3869   6   5   0.6641   0.5908   1.4063   0.5208  -0.4420  -0.3990   0.00    0.0    0.00000    0.00000    0.00000   0.00000  0.00000  0.00000  0.00000  0.00000  0.00000
2326 297647.000  -33.951431353   18.468547566    84.4382   6   5   0.6602   0.5877   1.3985   0.5177  -0.4383  -0.3947   0.00    0.0    0.00000    0.00000    0.00000   0.00000  0.00000  0.00000  0.00000  0.00000  0.00000
2326 297648.000  -33.951431491   18.468547517    84.4368   6   5   0.6564   0.5847   1.3908   0.5146  -0.4347  -0.3904   0.00    0.0    0.00000    0.00000    0.00000   0.00000  0.00000  0.00000  0.00000  0.00000  0.00000
2326 297649.000  -33.951431597   18.468547447    84.4526   6   5   0.6526   0.5817   1.3832   0.5116  -0.4310  -0.3862   0.00    0.0    0.00000    0.00000    0.00000   0.00000  0.00000  0.00000  0.00000  0.00000  0.00000
2326 297650.000  -33.951431706   18.468547390    84.4608   6   5   0.6488   0.5787   1.3756   0.5086  -0.4275  -0.3820   0.00    0.0    0.00000    0.00000    0.00000   0.00000  0.00000  0.00000  0.00000  0.00000  0.00000
2326 297651.000  -33.951431756   18.468547325    84.4699   6   5   0.6451   0.5758   1.3682   0.5056  -0.4239  -0.3778   0.00    0.0    0.00000    0.00000    0.00000   0.00000  0.00000  0.00000  0.00000  0.00000  0.00000
2326 297652.000  -33.951431793   18.468547191    84.5029   6   5   0.6415   0.5729   1.3608   0.5027  -0.4204  -0.3736   0.00    0.0    0.00000    0.00000    0.00000   0.00000  0.00000  0.00000  0.00000  0.00000  0.00000
2326 297653.000  -33.951431793   18.468547108    84.5141   6   5   0.6378   0.5700   1.3535   0.4998  -0.4169  -0.3695   0.00    0.0    0.00000    0.00000    0.00000   0.00000  0.00000  0.00000  0.00000  0.00000  0.00000
2326 297654.000  -33.951431766   18.468547211    84.5231   6   5   0.6342   0.5671   1.3463   0.4970  -0.4134  -0.3654   0.00    0.0    0.00000    0.00000    0.00000   0.00000  0.00000  0.00000  0.00000  0.00000  0.00000
2326 297655.000  -33.951431871   18.468547162    84.5415   6   5   0.6307   0.5643   1.3392   0.4941  -0.4100  -0.3614   0.00    0.0    0.00000    0.00000    0.00000   0.00000  0.00000  0.00000  0.00000  0.00000  0.00000
2326 297656.000  -33.951431784   18.468547240    84.5303   6   5   0.6272   0.5616   1.3322   0.4913  -0.4066  -0.3573   0.00    0.0    0.00000    0.00000    0.00000   0.00000  0.00000  0.00000  0.00000  0.00000  0.00000
2326 297657.000  -33.951431814   18.468547203    84.5374   6   5   0.6237   0.5588   1.3252   0.4885  -0.4032  -0.3533   0.00    0.0    0.00000    0.00000    0.00000   0.00000  0.00000  0.00000  0.00000  0.00000  0.00000
2326 297658.000  -33.951431795   18.468547190    84.5301   6   5   0.6202   0.5561   1.3183   0.4858  -0.3999  -0.3494   0.00    0.0    0.00000    0.00000    0.00000   0.00000  0.00000  0.00000  0.00000  0.00000  0.00000
2326 297659.000  -33.951431743   18.468547258    84.5399   6   5   0.6168   0.5534   1.3115   0.4831  -0.3966  -0.3454   0.00    0.0    0.00000    0.00000    0.00000   0.00000  0.00000  0.00000  0.00000  0.00000  0.00000
2326 297660.000  -33.951431753   18.468547281    84.5414   6   5   0.6135   0.5508   1.3048   0.4804  -0.3933  -0.3415   0.00    0.0    0.00000    0.00000    0.00000   0.00000  0.00000  0.00000  0.00000  0.00000  0.00000
2326 297661.000  -33.951431804   18.468547218    84.5469   6   5   0.6101   0.5481   1.2981   0.4777  -0.3900  -0.3376   0.00    0.0    0.00000    0.00000    0.00000   0.00000  0.00000  0.00000  0.00000  0.00000  0.00000
2326 297662.000  -33.951431759   18.468547258    84.5548   6   5   0.6068   0.5455   1.2915   0.4751  -0.3868  -0.3337   0.00    0.0    0.00000    0.00000    0.00000   0.00000  0.00000  0.00000  0.00000  0.00000  0.00000
2326 297663.000  -33.951431826   18.468547140    84.5662   6   5   0.6035   0.5430   1.2850   0.4725  -0.3836  -0.3298   0.00    0.0    0.00000    0.00000    0.00000   0.00000  0.00000  0.00000  0.00000  0.00000  0.00000
2326 297664.000  -33.951431869   18.468547082    84.5643   6   5   0.6003   0.5404   1.2785   0.4699  -0.3804  -0.3260   0.00    0.0    0.00000    0.00000    0.00000   0.00000  0.00000  0.00000  0.00000  0.00000  0.00000
2326 297665.000  -33.951431894   18.468547031    84.5769   6   5   0.5971   0.5379   1.2722   0.4674  -0.3773  -0.3222   0.00    0.0    0.00000    0.00000    0.00000   0.00000  0.00000  0.00000  0.00000  0.00000  0.00000
2326 297666.000  -33.951431900   18.468547006    84.5979   6   5   0.5939   0.5354   1.2658   0.4648  -0.3742  -0.3184   0.00    0.0    0.00000    0.00000    0.00000   0.00000  0.00000  0.00000  0.00000  0.00000  0.00000
2326 297667.000  -33.951432025   18.468546924    84.6052   6   5   0.5908   0.5330   1.2596   0.4623  -0.3711  -0.3146   0.00    0.0    0.00000    0.00000    0.00000   0.00000  0.00000  0.00000  0.00000  0.00000  0.00000
2326 297668.000  -33.951432011   18.468546930    84.6071   6   6   0.5864   0.5295   1.2503   0.4585  -0.3641  -0.3052   0.00    0.0    0.00000    0.00000    0.00000   0.00000  0.00000  0.00000  0.00000  0.00000  0.00000
2326 297669.000  -33.951432108   18.468546911    84.6193   6   6   0.5821   0.5262   1.2414   0.4547  -0.3575  -0.2962   0.00    0.0    0.00000    0.00000    0.00000   0.00000  0.00000  0.00000  0.00000  0.00000  0.00000
2326 297670.000  -33.951432045   18.468546941    84.6016   6   6   0.5779   0.5230   1.2326   0.4511  -0.3510  -0.2873   0.00    0.0    0.00000    0.00000    0.00000   0.00000  0.00000  0.00000  0.00000  0.00000  0.00000
2326 297671.000  -33.951432118   18.468546834    84.6031   6   6   0.5738   0.5198   1.2241   0.4475  -0.3447  -0.2786   0.00    0.0    0.00000    0.00000    0.00000   0.00000  0.00000  0.00000  0.00000  0.00000  0.00000
2326 297672.000  -33.951432162   18.468546826    84.5788   6   6   0.5697   0.5167   1.2158   0.4441  -0.3385  -0.2699   0.00    0.0    0.00000    0.00000    0.00000   0.00000  0.00000  0.00000  0.00000  0.00000  0.00000
2326 297673.000  -33.951432193   18.468546799    84.5763   6   6   0.5658   0.5137   1.2076   0.4407  -0.3324  -0.2614   0.00    0.0    0.00000    0.00000    0.00000   0.00000  0.00000  0.00000  0.00000  0.00000  0.00000
2326 297674.000  -33.951432239   18.468546780    84.5697   6   6   0.5619   0.5107   1.1996   0.4373  -0.3265  -0.2529   0.00    0.0    0.00000    0.00000    0.00000   0.00000  0.00000  0.00000  0.00000  0.00000  0.00000
2326 297675.000  -33.951432204   18.468546748    84.5674   6   6   0.5582   0.5078   1.1918   0.4341  -0.3207  -0.2445   0.00    0.0    0.00000    0.00000    0.00000   0.00000  0.00000  0.00000  0.00000  0.00000  0.00000
2326 297676.000  -33.951432377   18.468546466    84.5862   6   6   0.5544   0.5049   1.1842   0.4309  -0.3150  -0.2362   0.00    0.0    0.00000    0.00000    0.00000   0.00000  0.00000  0.00000  0.00000  0.00000  0.00000
2326 297677.000  -33.951432389   18.468546481    84.5981   6   6   0.5508   0.5021   1.1767   0.4278  -0.3095  -0.2280   0.00    0.0    0.00000    0.00000    0.00000   0.00000  0.00000  0.00000  0.00000  0.00000  0.00000
2326 297678.000  -33.951432435   18.468546455    84.6079   6   6   0.5472   0.4993   1.1693   0.4248  -0.3040  -0.2198   0.00    0.0    0.00000    0.00000    0.00000   0.00000  0.00000  0.00000  0.00000  0.00000  0.00000
2326 297679.000  -33.951432498   18.468546320    84.6183   6   6   0.5437   0.4966   1.1621   0.4218  -0.2987  -0.2117   0.00    0.0    0.00000    0.00000    0.00000   0.00000  0.00000  0.00000  0.00000  0.00000  0.00000
2326 297680.000  -33.951432545   18.468546198    84.6274   6   6   0.5403   0.4939   1.1551   0.4188  -0.2935  -0.2035   0.00    0.0    0.00000    0.00000    0.00000   0.00000  0.00000  0.00000  0.00000  0.00000  0.00000
2326 297681.000  -33.951432522   18.468546177    84.6462   6   6   0.5369   0.4913   1.1481   0.4160  -0.2883  -0.1954   0.00    0.0    0.00000    0.00000    0.00000   0.00000  0.00000  0.00000  0.00000  0.00000  0.00000
2326 297682.000  -33.951432490   18.468546078    84.6349   6   6   0.5336   0.4888   1.1413   0.4131  -0.2833  -0.1872   0.00    0.0    0.00000    0.00000    0.00000   0.00000  0.00000  0.00000  0.00000  0.00000  0.00000
2326 297683.000  -33.951432567   18.468545916    84.6332   6   6   0.5303   0.4862   1.1347   0.4104  -0.2783  -0.1791   0.00    0.0    0.00000    0.00000    0.00000   0.00000  0.00000  0.00000  0.00000  0.00000  0.00000
2326 297684.000  -33.951432602   18.468545902    84.6252   6   6   0.5271   0.4838   1.1281   0.4077  -0.2735  -0.1708   0.00    0.0    0.00000    0.00000    0.00000   0.00000  0.00000  0.00000  0.00000  0.00000  0.00000
2326 297685.000  -33.951432681   18.468545850    84.6165   6   6   0.5240   0.4813   1.1217   0.4050  -0.2687  -0.1625   0.00    0.0    0.00000    0.00000    0.00000   0.00000  0.00000  0.00000  0.00000  0.00000  0.00000
2326 297686.000  -33.951432684   18.468545880    84.6259   6   6   0.5209   0.4789   1.1153   0.4024  -0.2640  -0.1541   0.00    0.0    0.00000    0.00000    0.00000   0.00000  0.00000  0.00000  0.00000  0.00000  0.00000
2326 297687.000  -33.951432654   18.468545927    84.6220   6   6   0.5178   0.4766   1.1091   0.3998  -0.2594  -0.1456   0.00    0.0    0.00000    0.00000    0.00000   0.00000  0.00000  0.00000  0.00000  0.00000  0.00000
2326 297688.000  -33.951432676   18.468545852    84.6233   6   6   0.5148   0.4742   1.1030   0.3973  -0.2548  -0.1369   0.00    0.0    0.00000    0.00000    0.00000   0.00000  0.00000  0.00000  0.00000  0.00000  0.00000
2326 297689.000  -33.951432638   18.468545774    84.6197   6   6   0.5118   0.4719   1.0970   0.3948  -0.2503  -0.1279   0.00    0.0    0.00000    0.00000    0.00000   0.00000  0.00000  0.00000  0.00000  0.00000  0.00000
2326 297690.000  -33.951432646   18.468545717    84.6280   6   6   0.5089   0.4697   1.0911   0.3924  -0.2459  -0.1186   0.00    0.0    0.00000    0.00000    0.00000   0.00000  0.00000  0.00000  0.00000  0.00000  0.00000
2326 297691.000  -33.951432709   18.468545551    84.6230   6   6   0.5060   0.4675   1.0853   0.3900  -0.2416  -0.1090   0.00    0.0    0.00000    0.00000    0.00000   0.00000  0.00000  0.00000  0.00000  0.00000  0.00000
2326 297692.000  -33.951432756   18.468545387    84.6290   6   6   0.5032   0.4653   1.0795   0.3876  -0.2373  -0.0987   0.00    0.0    0.00000    0.00000    0.00000   0.00000  0.00000  0.00000  0.00000  0.00000  0.00000
2326 297693.000  -33.951432784   18.468545279    84.6339   6   6   0.5004   0.4631   1.0739   0.3853  -0.2331  -0.0878   0.00    0.0    0.00000    0.00000    0.00000   0.00000  0.00000  0.00000  0.00000  0.00000  0.00000
2326 297694.000  -33.951432792   18.468545154    84.6296   6   6   0.4977   0.4610   1.0683   0.3830  -0.2290  -0.0757   0.00    0.0    0.00000    0.00000    0.00000   0.00000  0.00000  0.00000  0.00000  0.00000  0.00000
2326 297695.000  -33.951432776   18.468545118    84.6241   6   6   0.4950   0.4589   1.0629   0.3807  -0.2249  -0.0620   0.00    0.0    0.00000    0.00000    0.00000   0.00000  0.00000  0.00000  0.00000  0.00000  0.00000
2326 297696.000  -33.951432698   18.468545130    84.6068   6   6   0.4923   0.4569   1.0575   0.3785  -0.2208  -0.0448   0.00    0.0    0.00000    0.00000    0.00000   0.00000  0.00000  0.00000  0.00000  0.00000  0.00000
2326 297697.000  -33.951432663   18.468545076    84.5946   6   6   0.4897   0.4548   1.0522   0.3763  -0.2168  -0.0156   0.00    0.0    0.00000    0.00000    0.00000   0.00000  0.00000  0.00000  0.00000  0.00000  0.00000
2326 297698.000  -33.951432602   18.468545098    84.5899   6   6   0.4871   0.4528   1.0469   0.3742  -0.2129   0.0382   0.00    0.0    0.00000    0.00000    0.00000   0.00000  0.00000  0.00000  0.00000  0.00000  0.00000
2326 297699.000  -33.951432661   18.468545060    84.5690   6   6   0.4845   0.4508   1.0418   0.3721  -0.2090   0.0557   0.00    0.0    0.00000    0.00000    0.00000   0.00000  0.00000  0.00000  0.00000  0.00000  0.00000
2326 297700.000  -33.951432689   18.468545010    84.5559   6   6   0.4820   0.4489   1.0367   0.3700  -0.2052   0.0685   0.00    0.0    0.00000    0.00000    0.00000   0.00000  0.00000  0.00000  0.00000  0.00000  0.00000
2326 297701.000  -33.951432721   18.468544889    84.5592   6   6   0.4795   0.4470   1.0317   0.3679  -0.2014   0.0789   0.00    0.0    0.00000    0.00000    0.00000   0.00000  0.00000  0.00000  0.00000  0.00000  0.00000
2326 297702.000  -33.951432744   18.468544756    84.5372   6   6   0.4770   0.4451   1.0267   0.3659  -0.1976   0.0877   0.00    0.0    0.00000    0.00000    0.00000   0.00000  0.00000  0.00000  0.00000  0.00000  0.00000
2326 297703.000  -33.951432726   18.468544761    84.5433   6   6   0.4746   0.4432   1.0219   0.3639  -0.1939   0.0955   0.00    0.0    0.00000    0.00000    0.00000   0.00000  0.00000  0.00000  0.00000  0.00000  0.00000
2326 297704.000  -33.951432729   18.468544718    84.5343   6   6   0.4722   0.4413   1.0171   0.3619  -0.1902   0.1024   0.00    0.0    0.00000    0.00000    0.00000   0.00000  0.00000  0.00000  0.00000  0.00000  0.00000
2326 297705.000  -33.951432732   18.468544682    84.5313   6   6   0.4698   0.4395   1.0123   0.3600  -0.1866   0.1087   0.00    0.0    0.00000    0.00000    0.00000   0.00000  0.00000  0.00000  0.00000  0.00000  0.00000
2326 297706.000  -33.951432710   18.468544646    84.5281   6   6   0.4675   0.4377   1.0076   0.3581  -0.1830   0.1145   0.00    0.0    0.00000    0.00000    0.00000   0.00000  0.00000  0.00000  0.00000  0.00000  0.00000
2326 297707.000  -33.951432758   18.468544481    84.5282   6   6   0.4652   0.4359   1.0030   0.3562  -0.1794   0.1198   0.00    0.0    0.00000    0.00000    0.00000   0.00000  0.00000  0.00000  0.00000  0.00000  0.00000
2326 297708.000  -33.951432766   18.468544433    84.5143   6   6   0.4629   0.4342   0.9984   0.3543  -0.1759   0.1246   0.00    0.0    0.00000    0.00000    0.00000   0.00000  0.00000  0.00000  0.00000  0.00000  0.00000
2326 297709.000  -33.951432773   18.468544359    84.5020   6   6   0.4606   0.4324   0.9939   0.3525  -0.1724   0.1292   0.00    0.0    0.00000    0.00000    0.00000   0.00000  0.00000  0.00000  0.00000  0.00000  0.00000
2326 297710.000  -33.951432779   18.468544280    84.4877   6   6   0.4584   0.4307   0.9895   0.3507  -0.1689   0.1334   0.00    0.0    0.00000    0.00000    0.00000   0.00000  0.00000  0.00000  0.00000  0.00000  0.00000
2326 297711.000  -33.951432820   18.468544194    84.4773   6   6   0.4562   0.4290   0.9851   0.3489  -0.1655   0.1374   0.00    0.0    0.00000    0.00000    0.00000   0.00000  0.00000  0.00000  0.00000  0.00000  0.00000
2326 297712.000  -33.951432833   18.468544129    84.4641   6   6   0.4540   0.4273   0.9808   0.3471  -0.1621   0.1411   0.00    0.0    0.00000    0.00000    0.00000   0.00000  0.00000  0.00000  0.00000  0.00000  0.00000
2326 297713.000  -33.951432829   18.468544054    84.4597   6   6   0.4519   0.4257   0.9765   0.3454  -0.1587   0.1447   0.00    0.0    0.00000    0.00000    0.00000   0.00000  0.00000  0.00000  0.00000  0.00000  0.00000
2326 297714.000  -33.951432793   18.468544026    84.4712   6   6   0.4497   0.4240   0.9722   0.3436  -0.1553   0.1480   0.00    0.0    0.00000    0.00000    0.00000   0.00000  0.00000  0.00000  0.00000  0.00000  0.00000
2326 297715.000  -33.951432791   18.468543962    84.4685   6   6   0.4476   0.4224   0.9680   0.3419  -0.1519   0.1511   0.00    0.0    0.00000    0.00000    0.00000   0.00000  0.00000  0.00000  0.00000  0.00000  0.00000
2326 297716.000  -33.951432794   18.468543910    84.4767   6   6   0.4456   0.4208   0.9639   0.3403  -0.1486   0.1541   0.00    0.0    0.00000    0.00000    0.00000   0.00000  0.00000  0.00000  0.00000  0.00000  0.00000
2326 297717.000  -33.951432751   18.468543900    84.4837   6   6   0.4435   0.4192   0.9598   0.3386  -0.1453   0.1569   0.00    0.0    0.00000    0.00000    0.00000   0.00000  0.00000  0.00000  0.00000  0.00000  0.00000
2326 297718.000  -33.951432756   18.468543843    84.4857   6   6   0.4415   0.4177   0.9558   0.3370  -0.1420   0.1596   0.00    0.0    0.00000    0.00000    0.00000   0.00000  0.00000  0.00000  0.00000  0.00000  0.00000
2326 297719.000  -33.951432770   18.468543781    84.4797   6   6   0.4394   0.4161   0.9518   0.3353  -0.1387   0.1621   0.00    0.0    0.00000    0.00000    0.00000   0.00000  0.00000  0.00000  0.00000  0.00000  0.00000
2326 297720.000  -33.951432750   18.468543775    84.4798   6   6   0.4375   0.4146   0.9478   0.3337  -0.1354   0.1645   0.00    0.0    0.00000    0.00000    0.00000   0.00000  0.00000  0.00000  0.00000  0.00000  0.00000
2326 297721.000  -33.951432755   18.468543725    84.4730   6   6   0.4355   0.4131   0.9439   0.3321  -0.1321   0.1668   0.00    0.0    0.00000    0.00000    0.00000   0.00000  0.00000  0.00000  0.00000  0.00000  0.00000
2326 297722.000  -33.951432745   18.468543689    84.4646   6   6   0.4335   0.4116   0.9400   0.3306  -0.1289   0.1690   0.00    0.0    0.00000    0.00000    0.00000   0.00000  0.00000  0.00000  0.00000  0.00000  0.00000
2326 297723.000  -33.951432794   18.468543606    84.4599   6   6   0.4316   0.4101   0.9362   0.3290  -0.1256   0.1711   0.00    0.0    0.00000    0.00000    0.00000   0.00000  0.00000  0.00000  0.00000  0.00000  0.00000
2326 297724.000  -33.951432793   18.468543584    84.4515   6   6   0.4297   0.4086   0.9324   0.3275  -0.1224   0.1731   0.00    0.0    0.00000    0.00000    0.00000   0.00000  0.00000  0.00000  0.00000  0.00000  0.00000
2326 297725.000  -33.951432815   18.468543513    84.4530   6   6   0.4278   0.4072   0.9287   0.3260  -0.1191   0.1750   0.00    0.0    0.00000    0.00000    0.00000   0.00000  0.00000  0.00000  0.00000  0.00000  0.00000
2326 297726.000  -33.951432848   18.468543408    84.4439   6   6   0.4259   0.4057   0.9250   0.3245  -0.1158   0.1768   0.00    0.0    0.00000    0.00000    0.00000   0.00000  0.00000  0.00000  0.00000  0.00000  0.00000
2326 297727.000  -33.951432777   18.468543447    84.4349   6   6   0.4241   0.4043   0.9213   0.3230  -0.1126   0.1785   0.00    0.0    0.00000    0.00000    0.00000   0.00000  0.00000  0.00000  0.00000  0.00000  0.00000
2326 297728.000  -33.951432765   18.468543430    84.4341   6   6   0.4222   0.4029   0.9177   0.3215  -0.1093   0.1802   0.00    0.0    0.00000    0.00000    0.00000   0.00000  0.00000  0.00000  0.00000  0.00000  0.00000
2326 297729.000  -33.951432723   18.468543406    84.4252   6   6   0.4204   0.4015   0.9141   0.3201  -0.1060   0.1818   0.00    0.0    0.00000    0.00000    0.00000   0.00000  0.00000  0.00000  0.00000  0.00000  0.00000
2326 297730.000  -33.951432685   18.468543387    84.4255   6   6   0.4186   0.4001   0.9106   0.3187  -0.1027   0.1833   0.00    0.0    0.00000    0.00000    0.00000   0.00000  0.00000  0.00000  0.00000  0.00000  0.00000
2326 297731.000  -33.951432670   18.468543319    84.4247   6   6   0.4168   0.3988   0.9071   0.3172  -0.0994   0.1848   0.00    0.0    0.00000    0.00000    0.00000   0.00000  0.00000  0.00000  0.00000  0.00000  0.00000
2326 297732.000  -33.951432670   18.468543196    84.4287   6   6   0.4150   0.3974   0.9036   0.3158  -0.0960   0.1862   0.00    0.0    0.00000    0.00000    0.00000   0.00000  0.00000  0.00000  0.00000  0.00000  0.00000
2326 297733.000  -33.951432671   18.468543141    84.4249   6   6   0.4133   0.3961   0.9001   0.3144  -0.0926   0.1875   0.00    0.0    0.00000    0.00000    0.00000   0.00000  0.00000  0.00000  0.00000  0.00000  0.00000
2326 297734.000  -33.951432667   18.468543121    84.4176   6   6   0.4115   0.3947   0.8967   0.3131  -0.0892   0.1888   0.00    0.0    0.00000    0.00000    0.00000   0.00000  0.00000  0.00000  0.00000  0.00000  0.00000
2326 297735.000  -33.951432647   18.468543114    84.4224   6   6   0.4098   0.3934   0.8934   0.3117  -0.0857   0.1900   0.00    0.0    0.00000    0.00000    0.00000   0.00000  0.00000  0.00000  0.00000  0.00000  0.00000
2326 297736.000  -33.951432656   18.468543062    84.4123   6   6   0.4081   0.3921   0.8900   0.3104  -0.0822   0.1912   0.00    0.0    0.00000    0.00000    0.00000   0.00000  0.00000  0.00000  0.00000  0.00000  0.00000
2326 297737.000  -33.951432632   18.468543016    84.4169   6   6   0.4064   0.3908   0.8867   0.3090  -0.0786   0.1923   0.00    0.0    0.00000    0.00000    0.00000   0.00000  0.00000  0.00000  0.00000  0.00000  0.00000
2326 297738.000  -33.951432621   18.468542959    84.4099   6   6   0.4048   0.3895   0.8834   0.3077  -0.0750   0.1934   0.00    0.0    0.00000    0.00000    0.00000   0.00000  0.00000  0.00000  0.00000  0.00000  0.00000
2326 297739.000  -33.951432618   18.468542924    84.4099   6   6   0.4031   0.3883   0.8802   0.3064  -0.0712   0.1944   0.00    0.0    0.00000    0.00000    0.00000   0.00000  0.00000  0.00000  0.00000  0.00000  0.00000
2326 297740.000  -33.951432598   18.468542906    84.4058   6   6   0.4015   0.3870   0.8770   0.3051  -0.0674   0.1954   0.00    0.0    0.00000    0.00000    0.00000   0.00000  0.00000  0.00000  0.00000  0.00000  0.00000
2326 297741.000  -33.951432578   18.468542844    84.3982   6   6   0.3998   0.3858   0.8738   0.3038  -0.0634   0.1964   0.00    0.0    0.00000    0.00000    0.00000   0.00000  0.00000  0.00000  0.00000  0.00000  0.00000
2326 297742.000  -33.951432587   18.468542786    84.3925   6   6   0.3982   0.3845   0.8706   0.3025  -0.0592   0.1973   0.00    0.0    0.00000    0.00000    0.00000   0.00000  0.00000  0.00000  0.00000  0.00000  0.00000
2326 297743.000  -33.951432619   18.468542697    84.3821   6   6   0.3966   0.3833   0.8675   0.3013  -0.0549   0.1981   0.00    0.0    0.00000    0.00000    0.00000   0.00000  0.00000  0.00000  0.00000  0.00000  0.00000
2326 297744.000  -33.951432611   18.468542693    84.3776   6   6   0.3950   0.3821   0.8644   0.3000  -0.0503   0.1990   0.00    0.0    0.00000    0.00000    0.00000   0.00000  0.00000  0.00000  0.00000  0.00000  0.00000
2326 297745.000  -33.951432592   18.468542707    84.3795   6   6   0.3934   0.3809   0.8613   0.2988  -0.0454   0.1998   0.00    0.0    0.00000    0.00000    0.00000   0.00000  0.00000  0.00000  0.00000  0.00000  0.00000
2326 297746.000  -33.951432544   18.468542743    84.3793   6   6   0.3919   0.3797   0.8583   0.2976  -0.0400   0.2005   0.00    0.0    0.00000    0.00000    0.00000   0.00000  0.00000  0.00000  0.00000  0.00000  0.00000
2326 297747.000  -33.951432508   18.468542754    84.3724   6   6   0.3903   0.3785   0.8553   0.2964  -0.0339   0.2013   0.00    0.0    0.00000    0.00000    0.00000   0.00000  0.00000  0.00000  0.00000  0.00000  0.00000
2326 297748.000  -33.951432481   18.468542756    84.3714   6   6   0.3888   0.3774   0.8523   0.2952  -0.0266   0.2020   0.00    0.0    0.00000    0.00000    0.00000   0.00000  0.00000  0.00000  0.00000  0.00000  0.00000
2326 297749.000  -33.951432421   18.468542747    84.3711   6   6   0.3873   0.3762   0.8494   0.2940  -0.0168   0.2026   0.00    0.0    0.00000    0.00000    0.00000   0.00000  0.00000  0.00000  0.00000  0.00000  0.00000
2326 297750.000  -33.951432378   18.468542733    84.3704   6   6   0.3858   0.3751   0.8464   0.2928   0.0116   0.2033   0.00    0.0    0.00000    0.00000    0.00000   0.00000  0.00000  0.00000  0.00000  0.00000  0.00000
2326 297751.000  -33.951432365   18.468542702    84.3698   6   6   0.3843   0.3739   0.8435   0.2916   0.0233   0.2039   0.00    0.0    0.00000    0.00000    0.00000   0.00000  0.00000  0.00000  0.00000  0.00000  0.00000
2326 297752.000  -33.951432358   18.468542662    84.3679   6   6   0.3828   0.3728   0.8406   0.2905   0.0306   0.2045   0.00    0.0    0.00000    0.00000    0.00000   0.00000  0.00000  0.00000  0.00000  0.00000  0.00000
2326 297753.000  -33.951432313   18.468542672    84.3660   6   6   0.3813   0.3717   0.8378   0.2893   0.0364   0.2051   0.00    0.0    0.00000    0.00000    0.00000   0.00000  0.00000  0.00000  0.00000  0.00000  0.00000
2326 297754.000  -33.951432254   18.468542698    84.3673   6   6   0.3798   0.3706   0.8349   0.2882   0.0413   0.2056   0.00    0.0    0.00000    0.00000    0.00000   0.00000  0.00000  0.00000  0.00000  0.00000  0.00000
2326 297755.000  -33.951432176   18.468542714    84.3740   6   6   0.3784   0.3695   0.8321   0.2870   0.0455   0.2061   0.00    0.0    0.00000    0.00000    0.00000   0.00000  0.00000  0.00000  0.00000  0.00000  0.00000
2326 297756.000  -33.951432186   18.468542658    84.3700   6   6   0.3769   0.3684   0.8294   0.2859   0.0493   0.2066   0.00    0.0    0.00000    0.00000    0.00000   0.00000  0.00000  0.00000  0.00000  0.00000  0.00000
2326 297757.000  -33.951432125   18.468542734    84.3714   6   6   0.3755   0.3673   0.8266   0.2848   0.0528   0.2071   0.00    0.0    0.00000    0.00000    0.00000   0.00000  0.00000  0.00000  0.00000  0.00000  0.00000
2326 297758.000  -33.951432084   18.468542767    84.3688   6   6   0.3741   0.3662   0.8239   0.2837   0.0559   0.2075   0.00    0.0    0.00000    0.00000    0.00000   0.00000  0.00000  0.00000  0.00000  0.00000  0.00000
2326 297759.000  -33.951432059   18.468542775    84.3757   6   6   0.3727   0.3651   0.8212   0.2826   0.0588   0.2079   0.00    0.0    0.00000    0.00000    0.00000   0.00000  0.00000  0.00000  0.00000  0.00000  0.00000
2326 297760.000  -33.951432052   18.468542778    84.3679   6   6   0.3713   0.3641   0.8185   0.2815   0.0615   0.2083   0.00    0.0    0.00000    0.00000    0.00000   0.00000  0.00000  0.00000  0.00000  0.00000  0.00000
2326 297761.000  -33.951432017   18.468542756    84.3658   6   6   0.3699   0.3630   0.8158   0.2805   0.0641   0.2087   0.00    0.0    0.00000    0.00000    0.00000   0.00000  0.00000  0.00000  0.00000  0.00000  0.00000
2326 297762.000  -33.951431993   18.468542736    84.3597   6   6   0.3685   0.3620   0.8132   0.2794   0.0665   0.2091   0.00    0.0    0.00000    0.00000    0.00000   0.00000  0.00000  0.00000  0.00000  0.00000  0.00000
2326 297763.000  -33.951431957   18.468542766    84.3602   6   6   0.3671   0.3610   0.8105   0.2783   0.0687   0.2094   0.00    0.0    0.00000    0.00000    0.00000   0.00000  0.00000  0.00000  0.00000  0.00000  0.00000
2326 297764.000  -33.951431943   18.468542739    84.3640   6   6   0.3658   0.3599   0.8079   0.2773   0.0708   0.2097   0.00    0.0    0.00000    0.00000    0.00000   0.00000  0.00000  0.00000  0.00000  0.00000  0.00000
2326 297765.000  -33.951431920   18.468542750    84.3659   6   6   0.3644   0.3589   0.8054   0.2763   0.0728   0.2101   0.00    0.0    0.00000    0.00000    0.00000   0.00000  0.00000  0.00000  0.00000  0.00000  0.00000
2326 297766.000  -33.951431901   18.468542749    84.3659   6   6   0.3631   0.3579   0.8028   0.2752   0.0747   0.2104   0.00    0.0    0.00000    0.00000    0.00000   0.00000  0.00000  0.00000  0.00000  0.00000  0.00000
2326 297767.000  -33.951431839   18.468542848    84.3695   6   6   0.3618   0.3569   0.8003   0.2742   0.0766   0.2106   0.00    0.0    0.00000    0.00000    0.00000   0.00000  0.00000  0.00000  0.00000  0.00000  0.00000
2326 297768.000  -33.951431770   18.468542916    84.3724   6   6   0.3604   0.3559   0.7978   0.2732   0.0783   0.2109   0.00    0.0    0.00000    0.00000    0.00000   0.00000  0.00000  0.00000  0.00000  0.00000  0.00000
2326 297769.000  -33.951431744   18.468542953    84.3651   6   6   0.3591   0.3549   0.7953   0.2722   0.0800   0.2111   0.00    0.0    0.00000    0.00000    0.00000   0.00000  0.00000  0.00000  0.00000  0.00000  0.00000
2326 297770.000  -33.951431712   18.468542990    84.3631   6   6   0.3578   0.3539   0.7928   0.2712   0.0815   0.2114   0.00    0.0    0.00000    0.00000    0.00000   0.00000  0.00000  0.00000  0.00000  0.00000  0.00000
2326 297771.000  -33.951431724   18.468542965    84.3625   6   6   0.3565   0.3530   0.7903   0.2702   0.0831   0.2116   0.00    0.0    0.00000    0.00000    0.00000   0.00000  0.00000  0.00000  0.00000  0.00000  0.00000
2326 297772.000  -33.951431718   18.468542962    84.3581   6   6   0.3553   0.3520   0.7879   0.2692   0.0845   0.2118   0.00    0.0    0.00000    0.00000    0.00000   0.00000  0.00000  0.00000  0.00000  0.00000  0.00000
2326 297773.000  -33.951431718   18.468542946    84.3544   6   6   0.3540   0.3510   0.7855   0.2682   0.0859   0.2120   0.00    0.0    0.00000    0.00000    0.00000   0.00000  0.00000  0.00000  0.00000  0.00000  0.00000
2326 297774.000  -33.951431726   18.468542905    84.3525   6   6   0.3527   0.3501   0.7831   0.2673   0.0873   0.2121   0.00    0.0    0.00000    0.00000    0.00000   0.00000  0.00000  0.00000  0.00000  0.00000  0.00000
2326 297775.000  -33.951431742   18.468542903    84.3489   6   6   0.3515   0.3491   0.7807   0.2663   0.0885   0.2123   0.00    0.0    0.00000    0.00000    0.00000   0.00000  0.00000  0.00000  0.00000  0.00000  0.00000
2326 297776.000  -33.951431764   18.468542927    84.3503   6   6   0.3502   0.3482   0.7783   0.2653   0.0898   0.2125   0.00    0.0    0.00000    0.00000    0.00000   0.00000  0.00000  0.00000  0.00000  0.00000  0.00000
2326 297777.000  -33.951431797   18.468542886    84.3487   6   6   0.3490   0.3473   0.7760   0.2644   0.0910   0.2126   0.00    0.0    0.00000    0.00000    0.00000   0.00000  0.00000  0.00000  0.00000  0.00000  0.00000
2326 297778.000  -33.951431769   18.468542932    84.3445   6   6   0.3477   0.3463   0.7737   0.2635   0.0921   0.2127   0.00    0.0    0.00000    0.00000    0.00000   0.00000  0.00000  0.00000  0.00000  0.00000  0.00000
2326 297779.000  -33.951431773   18.468542910    84.3368   6   6   0.3465   0.3454   0.7713   0.2625   0.0932   0.2128   0.00    0.0    0.00000    0.00000    0.00000   0.00000  0.00000  0.00000  0.00000  0.00000  0.00000
2326 297780.000  -33.951431757   18.468542918    84.3383   6   6   0.3453   0.3445   0.7691   0.2616   0.0943   0.2129   0.00    0.0    0.00000    0.00000    0.00000   0.00000  0.00000  0.00000  0.00000  0.00000  0.00000
2326 297781.000  -33.951431743   18.468542922    84.3430   6   6   0.3441   0.3436   0.7668   0.2607   0.0953   0.2130   0.00    0.0    0.00000    0.00000    0.00000   0.00000  0.00000  0.00000  0.00000  0.00000  0.00000
2326 297782.000  -33.951431717   18.468542925    84.3450   6   6   0.3429   0.3427   0.7645   0.2598   0.0963   0.2131   0.00    0.0    0.00000    0.00000    0.00000   0.00000  0.00000  0.00000  0.00000  0.00000  0.00000
2326 297783.000  -33.951431734   18.468542915    84.3447   6   6   0.3417   0.3418   0.7623   0.2589   0.0973   0.2132   0.00    0.0    0.00000    0.00000    0.00000   0.00000  0.00000  0.00000  0.00000  0.00000  0.00000
2326 297784.000  -33.951431769   18.468542902    84.3363   6   6   0.3405   0.3409   0.7601   0.2580   0.0982   0.2133   0.00    0.0    0.00000    0.00000    0.00000   0.00000  0.00000  0.00000  0.00000  0.00000  0.00000
2326 297785.000  -33.951431757   18.468542921    84.3399   6   6   0.3393   0.3400   0.7579   0.2571   0.0991   0.2133   0.00    0.0    0.00000    0.00000    0.00000   0.00000  0.00000  0.00000  0.00000  0.00000  0.00000
2326 297786.000  -33.951431761   18.468542936    84.3345   6   6   0.3382   0.3392   0.7557   0.2562   0.1000   0.2134   0.00    0.0    0.00000    0.00000    0.00000   0.00000  0.00000  0.00000  0.00000  0.00000  0.00000
2326 297787.000  -33.951431766   18.468542963    84.3305   6   6   0.3370   0.3383   0.7535   0.2553   0.1009   0.2134   0.00    0.0    0.00000    0.00000    0.00000   0.00000  0.00000  0.00000  0.00000  0.00000  0.00000
2326 297788.000  -33.951431822   18.468542896    84.3332   6   6   0.3359   0.3374   0.7513   0.2544   0.1017   0.2134   0.00    0.0    0.00000    0.00000    0.00000   0.00000  0.00000  0.00000  0.00000  0.00000  0.00000
2326 297789.000  -33.951431832   18.468542882    84.3230   6   6   0.3347   0.3366   0.7492   0.2535   0.1025   0.2135   0.00    0.0    0.00000    0.00000    0.00000   0.00000  0.00000  0.00000  0.00000  0.00000  0.00000
2326 297790.000  -33.951431858   18.468542872    84.3108   6   6   0.3336   0.3357   0.7471   0.2527   0.1032   0.2135   0.00    0.0    0.00000    0.00000    0.00000   0.00000  0.00000  0.00000  0.00000  0.00000  0.00000
2326 297791.000  -33.951431874   18.468542877    84.3089   6   6   0.3324   0.3349   0.7450   0.2518   0.1040   0.2135   0.00    0.0    0.00000    0.00000    0.00000   0.00000  0.00000  0.00000  0.00000  0.00000  0.00000
2326 297792.000  -33.951431894   18.468542851    84.3073   6   6   0.3313   0.3340   0.7429   0.2510   0.1047   0.2135   0.00    0.0    0.00000    0.00000    0.00000   0.00000  0.00000  0.00000  0.00000  0.00000  0.00000
2326 297793.000  -33.951431915   18.468542834    84.3015   6   6   0.3302   0.3332   0.7408   0.2501   0.1054   0.2135   0.00    0.0    0.00000    0.00000    0.00000   0.00000  0.00000  0.00000  0.00000  0.00000  0.00000
2326 297794.000  -33.951431917   18.468542831    84.3006   6   6   0.3291   0.3324   0.7387   0.2493   0.1061   0.2134   0.00    0.0    0.00000    0.00000    0.00000   0.00000  0.00000  0.00000  0.00000  0.00000  0.00000
2326 297795.000  -33.951431906   18.468542856    84.2967   6   6   0.3280   0.3315   0.7367   0.2484   0.1067   0.2134   0.00    0.0    0.00000    0.00000    0.00000   0.00000  0.00000  0.00000  0.00000  0.00000  0.00000
2326 297796.000  -33.951431895   18.468542873    84.2960   6   6   0.3269   0.3307   0.7346   0.2476   0.1074   0.2134   0.00    0.0    0.00000    0.00000    0.00000   0.00000  0.00000  0.00000  0.00000  0.00000  0.00000
2326 297797.000  -33.951431887   18.468542917    84.2967   6   6   0.3258   0.3299   0.7326   0.2468   0.1080   0.2133   0.00    0.0    0.00000    0.00000    0.00000   0.00000  0.00000  0.00000  0.00000  0.00000  0.00000
2326 297798.000  -33.951431872   18.468542947    84.3014   6   6   0.3247   0.3291   0.7306   0.2460   0.1086   0.2133   0.00    0.0    0.00000    0.00000    0.00000   0.00000  0.00000  0.00000  0.00000  0.00000  0.00000
2326 297799.000  -33.951431857   18.468542988    84.3032   6   6   0.3236   0.3283   0.7286   0.2452   0.1092   0.2133   0.00    0.0    0.00000    0.00000    0.00000   0.00000  0.00000  0.00000  0.00000  0.00000  0.00000
2326 297800.000  -33.951431843   18.468542960    84.3018   6   6   0.3226   0.3275   0.7266   0.2443   0.1097   0.2132   0.00    0.0    0.00000    0.00000    0.00000   0.00000  0.00000  0.00000  0.00000  0.00000  0.00000
