% (lat/lon/height=WGS84/ellipsoidal,Q=1:fix,2:float,3:sbas,4:dgps,5:single,6:ppp,ns=# of satellites)
%  GPST          latitude(deg) longitude(deg)  height(m)   Q  ns   sdn(m)   sde(m)   sdu(m)  sdne(m)  sdeu(m)  sdun(m) age(s)  ratio    vn(m/s)    ve(m/s)    vu(m/s)      sdvn     sdve     sdvu    sdvne    sdveu    sdvun
2181  28636.000  -33.951399814   18.468541443    75.3197   6   5  11.7495   6.4614  24.7625  -5.9319   8.4114 -15.8843   0.00    0.0    0.00000    0.00000    0.00000   0.00000  0.00000  0.00000  0.00000  0.00000  0.00000
2181  28637.000  -33.951394317   18.468545825    74.9708   6   5   8.6950   4.6486  18.4774  -4.4134   6.2896 -11.8775   0.00    0.0    0.00000    0.00000    0.00000   0.00000  0.00000  0.00000  0.00000  0.00000  0.00000
2181  28638.000  -33.951394802   18.468547924    75.3525   6   5   7.2136   3.8191  15.3726  -3.6679   5.2355  -9.8877   0.00    0.0    0.00000    0.00000    0.00000   0.00000  0.00000  0.00000  0.00000  0.00000  0.00000
2181  28639.000  -33.951400226   18.468549730    76.1670   6   5   6.2957   3.3176  13.4353  -3.2037   4.5762  -8.6436   0.00    0.0    0.00000    0.00000    0.00000   0.00000  0.00000  0.00000  0.00000  0.00000  0.00000
2181  28640.000  -33.951402614   18.468550781    75.9947   6   5   5.6549   2.9725  12.0779  -2.8789   4.1136  -7.7708   0.00    0.0    0.00000    0.00000    0.00000   0.00000  0.00000  0.00000  0.00000  0.00000  0.00000
2181  28641.000  -33.951405025   18.468550420    75.6150   6   5   5.1744   2.7164  11.0576  -2.6350   3.7655  -7.1141   0.00    0.0    0.00000    0.00000    0.00000   0.00000  0.00000  0.00000  0.00000  0.00000  0.00000
2181  28642.000  -33.951405476   18.468549574    75.5881   6   5   4.7965   2.5165  10.2537  -2.4428   3.4910  -6.5964   0.00    0.0    0.00000    0.00000    0.00000   0.00000  0.00000  0.00000  0.00000  0.00000  0.00000
2181  28643.000  -33.951405465   18.468548667    75.7441   6   5   4.4888   2.3548   9.5984  -2.2863   3.2670  -6.1740   0.00    0.0    0.00000    0.00000    0.00000   0.00000  0.00000  0.00000  0.00000  0.00000  0.00000
2181  28644.000  -33.951402657   18.468548590    75.2778   6   5   4.2317   2.2205   9.0502  -2.1553   3.0795  -5.8204   0.00    0.0    0.00000    0.00000    0.00000   0.00000  0.00000  0.00000  0.00000  0.00000  0.00000
2181  28645.000  -33.951402276   18.468548719    75.2727   6   5   4.0124   2.1065   8.5823  -2.0436   2.9194  -5.5185   0.00    0.0    0.00000    0.00000    0.00000   0.00000  0.00000  0.00000  0.00000  0.00000  0.00000
2181  28646.000  -33.951402263   18.468548163    75.1980   6   5   3.8223   2.0083   8.1763  -1.9466   2.7803  -5.2563   0.00    0.0    0.00000    0.00000    0.00000   0.00000  0.00000  0.00000  0.00000  0.00000  0.00000
2181  28647.000  -33.951403639   18.468547366    75.4049   6   5   3.6553   1.9223   7.8194  -1.8614   2.6579  -5.0257   0.00    0.0    0.00000    0.00000    0.00000   0.00000  0.00000  0.00000  0.00000  0.00000  0.00000
2181  28648.000  -33.951403521   18.468546493    75.4072   6   5   3.5069   1.8464   7.5020  -1.7856   2.5491  -4.8205   0.00    0.0    0.00000    0.00000    0.00000   0.00000  0.00000  0.00000  0.00000  0.00000  0.00000
2181  28649.000  -33.951404352   18.468546157    75.6332   6   5   3.3737   1.7785   7.2171  -1.7175   2.4512  -4.6362   0.00    0.0    0.00000    0.00000    0.00000   0.00000  0.00000  0.00000  0.00000  0.00000  0.00000
2181  28650.000  -33.951404346   18.468545909    75.5963   6   5   3.2533   1.7175   6.9593  -1.6559   2.3626  -4.4692   0.00    0.0    0.00000    0.00000    0.00000   0.00000  0.00000  0.00000  0.00000  0.00000  0.00000
2181  28651.000  -33.951405655   18.468546639    75.6882   6   5   3.1435   1.6621   6.7242  -1.5998   2.2817  -4.3169   0.00    0.0    0.00000    0.00000    0.00000   0.00000  0.00000  0.00000  0.00000  0.00000  0.00000
2181  28652.000  -33.951406259   18.468546988    75.8015   6   5   3.0429   1.6116   6.5086  -1.5483   2.2075  -4.1771   0.00    0.0    0.00000    0.00000    0.00000   0.00000  0.00000  0.00000  0.00000  0.00000  0.00000
2181  28653.000  -33.951405925   18.468547365    75.7466   6   5   2.9501   1.5653   6.3097  -1.5008   2.1390  -4.0481   0.00    0.0    0.00000    0.00000    0.00000   0.00000  0.00000  0.00000  0.00000  0.00000  0.00000
2181  28654.000  -33.951405955   18.468547345    75.7832   6   5   2.8641   1.5226   6.1253  -1.4567   2.0754  -3.9283   0.00    0.0    0.00000    0.00000    0.00000   0.00000  0.00000  0.00000  0.00000  0.00000  0.00000
2181  28655.000  -33.951407351   18.468547724    76.0788   6   5   2.7841   1.4830   5.9536  -1.4157   2.0161  -3.8168   0.00    0.0    0.00000    0.00000    0.00000   0.00000  0.00000  0.00000  0.00000  0.00000  0.00000
2181  28656.000  -33.951407849   18.468547431    76.1273   6   5   2.7094   1.4462   5.7931  -1.3773   1.9607  -3.7124   0.00    0.0    0.00000    0.00000    0.00000   0.00000  0.00000  0.00000  0.00000  0.00000  0.00000
2181  28657.000  -33.951408197   18.468547509    76.2136   6   5   2.6392   1.4119   5.6426  -1.3413   1.9086  -3.6145   0.00    0.0    0.00000    0.00000    0.00000   0.00000  0.00000  0.00000  0.00000  0.00000  0.00000
2181  28658.000  -33.951408454   18.468547737    76.3543   6   5   2.5733   1.3798   5.5009  -1.3074   1.8596  -3.5222   0.00    0.0    0.00000    0.00000    0.00000   0.00000  0.00000  0.00000  0.00000  0.00000  0.00000
2181  28659.000  -33.951408344   18.468547305    76.2984   6   5   2.5110   1.3496   5.3671  -1.2754   1.8133  -3.4350   0.00    0.0    0.00000    0.00000    0.00000   0.00000  0.00000  0.00000  0.00000  0.00000  0.00000
2181  28660.000  -33.951407633   18.468547174    76.1491   6   5   2.4521   1.3212   5.2405  -1.2451   1.7694  -3.3524   0.00    0.0    0.00000    0.00000    0.00000   0.00000  0.00000  0.00000  0.00000  0.00000  0.00000
2181  28661.000  -33.951407708   18.468547345    76.2786   6   5   2.3963   1.2945   5.1204  -1.2164   1.7277  -3.2740   0.00    0.0    0.00000    0.00000    0.00000   0.00000  0.00000  0.00000  0.00000  0.00000  0.00000
2181  28662.000  -33.951408198   18.468547348    76.3672   6   5   2.3432   1.2691   5.0061  -1.1891   1.6880  -3.1993   0.00    0.0    0.00000    0.00000    0.00000   0.00000  0.00000  0.00000  0.00000  0.00000  0.00000
2181  28663.000  -33.951408773   18.468547407    76.4780   6   5   2.2926   1.2451   4.8973  -1.1630   1.6501  -3.1281   0.00    0.0    0.00000    0.00000    0.00000   0.00000  0.00000  0.00000  0.00000  0.00000  0.00000
2181  28664.000  -33.951409369   18.468547608    76.5624   6   5   2.2443   1.2223   4.7933  -1.1381   1.6139  -3.0601   0.00    0.0    0.00000    0.00000    0.00000   0.00000  0.00000  0.00000  0.00000  0.00000  0.00000
2181  28665.000  -33.951409780   18.468547807    76.6987   6   5   2.1981   1.2006   4.6939  -1.1143   1.5793  -2.9950   0.00    0.0    0.00000    0.00000    0.00000   0.00000  0.00000  0.00000  0.00000  0.00000  0.00000
2181  28666.000  -33.951409532   18.468547477    76.6531   6   5   2.1539   1.1799   4.5987  -1.0915   1.5461  -2.9326   0.00    0.0    0.00000    0.00000    0.00000   0.00000  0.00000  0.00000  0.00000  0.00000  0.00000
2181  28667.000  -33.951409824   18.468547363    76.6362   6   5   2.1115   1.1602   4.5073  -1.0696   1.5141  -2.8726   0.00    0.0    0.00000    0.00000    0.00000   0.00000  0.00000  0.00000  0.00000  0.00000  0.00000
2181  28668.000  -33.951409836   18.468547126    76.6359   6   5   2.0707   1.1413   4.4195  -1.0485   1.4834  -2.8149   0.00    0.0    0.00000    0.00000    0.00000   0.00000  0.00000  0.00000  0.00000  0.00000  0.00000
2181  28669.000  -33.951410521   18.468547400    76.7788   6   5   2.0316   1.1232   4.3350  -1.0283   1.4539  -2.7594   0.00    0.0    0.00000    0.00000    0.00000   0.00000  0.00000  0.00000  0.00000  0.00000  0.00000
2181  28670.000  -33.951411543   18.468547412    77.0345   6   5   1.9938   1.1059   4.2536  -1.0087   1.4254  -2.7059   0.00    0.0    0.00000    0.00000    0.00000   0.00000  0.00000  0.00000  0.00000  0.00000  0.00000
2181  28671.000  -33.951412180   18.468547157    77.2278   6   5   1.9574   1.0893   4.1752  -0.9899   1.3979  -2.6543   0.00    0.0    0.00000    0.00000    0.00000   0.00000  0.00000  0.00000  0.00000  0.00000  0.00000
2181  28672.000  -33.951412601   18.468546760    77.3431   6   5   1.9223   1.0733   4.0994  -0.9717   1.3713  -2.6044   0.00    0.0    0.00000    0.00000    0.00000   0.00000  0.00000  0.00000  0.00000  0.00000  0.00000
2181  28673.000  -33.951412989   18.468546896    77.4813   6   5   1.8884   1.0580   4.0262  -0.9541   1.3456  -2.5561   0.00    0.0    0.00000    0.00000    0.00000   0.00000  0.00000  0.00000  0.00000  0.00000  0.00000
2181  28674.000  -33.951413423   18.468547098    77.5773   6   5   1.8556   1.0432   3.9555  -0.9371   1.3207  -2.5094   0.00    0.0    0.00000    0.00000    0.00000   0.00000  0.00000  0.00000  0.00000  0.00000  0.00000
2181  28675.000  -33.951414035   18.468547035    77.7677   6   5   1.8239   1.0289   3.8870  -0.9207   1.2965  -2.4641   0.00    0.0    0.00000    0.00000    0.00000   0.00000  0.00000  0.00000  0.00000  0.00000  0.00000
2181  28676.000  -33.951414446   18.468547315    77.8484   6   5   1.7931   1.0152   3.8206  -0.9047   1.2731  -2.4203   0.00    0.0    0.00000    0.00000    0.00000   0.00000  0.00000  0.00000  0.00000  0.00000  0.00000
2181  28677.000  -33.951414683   18.468547272    77.9151   6   5   1.7633   1.0019   3.7563  -0.8893   1.2504  -2.3777   0.00    0.0    0.00000    0.00000    0.00000   0.00000  0.00000  0.00000  0.00000  0.00000  0.00000
2181  28678.000  -33.951414808   18.468547222    77.9595   6   5   1.7344   0.9891   3.6939  -0.8742   1.2284  -2.3364   0.00    0.0    0.00000    0.00000    0.00000   0.00000  0.00000  0.00000  0.00000  0.00000  0.00000
2181  28679.000  -33.951415253   18.468547387    78.1112   6   5   1.7064   0.9767   3.6333  -0.8597   1.2069  -2.2962   0.00    0.0    0.00000    0.00000    0.00000   0.00000  0.00000  0.00000  0.00000  0.00000  0.00000
2181  28680.000  -33.951415992   18.468547590    78.3098   6   5   1.6791   0.9647   3.5744  -0.8455   1.1861  -2.2572   0.00    0.0    0.00000    0.00000    0.00000   0.00000  0.00000  0.00000  0.00000  0.00000  0.00000
2181  28681.000  -33.951416334   18.468547525    78.4011   6   5   1.6526   0.9531   3.5173  -0.8317   1.1658  -2.2192   0.00    0.0    0.00000    0.00000    0.00000   0.00000  0.00000  0.00000  0.00000  0.00000  0.00000
2181  28682.000  -33.951416650   18.468547681    78.4692   6   5   1.6269   0.9419   3.4617  -0.8183   1.1461  -2.1823   0.00    0.0    0.00000    0.00000    0.00000   0.00000  0.00000  0.00000  0.00000  0.00000  0.00000
2181  28683.000  -33.951416975   18.468547835    78.5610   6   5   1.6019   0.9310   3.4076  -0.8053   1.1269  -2.1463   0.00    0.0    0.00000    0.00000    0.00000   0.00000  0.00000  0.00000  0.00000  0.00000  0.00000
2181  28684.000  -33.951417014   18.468547770    78.6135   6   5   1.5775   0.9204   3.3549  -0.7926   1.1081  -2.1112   0.00    0.0    0.00000    0.00000    0.00000   0.00000  0.00000  0.00000  0.00000  0.00000  0.00000
2181  28685.000  -33.951417312   18.468547742    78.7204   6   5   1.5538   0.9101   3.3036  -0.7802   1.0899  -2.0771   0.00    0.0    0.00000    0.00000    0.00000   0.00000  0.00000  0.00000  0.00000  0.00000  0.00000
2181  28686.000  -33.951417883   18.468547751    78.8391   6   5   1.5306   0.9001   3.2537  -0.7681   1.0721  -2.0438   0.00    0.0    0.00000    0.00000    0.00000   0.00000  0.00000  0.00000  0.00000  0.00000  0.00000
2181  28687.000  -33.951417961   18.468547909    78.8740   6   5   1.5081   0.8904   3.2050  -0.7564   1.0547  -2.0113   0.00    0.0    0.00000    0.00000    0.00000   0.00000  0.00000  0.00000  0.00000  0.00000  0.00000
2181  28688.000  -33.951418438   18.468548235    78.9291   6   5   1.4861   0.8810   3.1576  -0.7449   1.0377  -1.9796   0.00    0.0    0.00000    0.00000    0.00000   0.00000  0.00000  0.00000  0.00000  0.00000  0.00000
2181  28689.000  -33.951418416   18.468548073    78.9056   6   5   1.4647   0.8718   3.1113  -0.7337   1.0211  -1.9487   0.00    0.0    0.00000    0.00000    0.00000   0.00000  0.00000  0.00000  0.00000  0.00000  0.00000
2181  28690.000  -33.951418587   18.468548324    78.9556   6   5   1.4438   0.8629   3.0661  -0.7228   1.0050  -1.9184   0.00    0.0    0.00000    0.00000    0.00000   0.00000  0.00000  0.00000  0.00000  0.00000  0.00000
2181  28691.000  -33.951418614   18.468548323    78.9668   6   5   1.4234   0.8542   3.0221  -0.7121   0.9892  -1.8889   0.00    0.0    0.00000    0.00000    0.00000   0.00000  0.00000  0.00000  0.00000  0.00000  0.00000
2181  28692.000  -33.951419063   18.468548445    79.0797   6   5   1.4035   0.8458   2.9791  -0.7017   0.9737  -1.8601   0.00    0.0    0.00000    0.00000    0.00000   0.00000  0.00000  0.00000  0.00000  0.00000  0.00000
2181  28693.000  -33.951419367   18.468548393    79.1981   6   5   1.3841   0.8375   2.9371  -0.6916   0.9586  -1.8319   0.00    0.0    0.00000    0.00000    0.00000   0.00000  0.00000  0.00000  0.00000  0.00000  0.00000
2181  28694.000  -33.951419546   18.468548168    79.2407   6   5   1.3651   0.8295   2.8960  -0.6816   0.9438  -1.8044   0.00    0.0    0.00000    0.00000    0.00000   0.00000  0.00000  0.00000  0.00000  0.00000  0.00000
2181  28695.000  -33.951419705   18.468548234    79.2965   6   5   1.3465   0.8217   2.8560  -0.6719   0.9294  -1.7775   0.00    0.0    0.00000    0.00000    0.00000   0.00000  0.00000  0.00000  0.00000  0.00000  0.00000
2181  28696.000  -33.951420181   18.468548550    79.4268   6   5   1.3284   0.8140   2.8168  -0.6624   0.9152  -1.7511   0.00    0.0    0.00000    0.00000    0.00000   0.00000  0.00000  0.00000  0.00000  0.00000  0.00000
2181  28697.000  -33.951420722   18.468548524    79.5423   6   5   1.3107   0.8066   2.7785  -0.6531   0.9014  -1.7253   0.00    0.0    0.00000    0.00000    0.00000   0.00000  0.00000  0.00000  0.00000  0.00000  0.00000
2181  28698.000  -33.951421332   18.468548541    79.6587   6   5   1.2933   0.7993   2.7411  -0.6440   0.8878  -1.7001   0.00    0.0    0.00000    0.00000    0.00000   0.00000  0.00000  0.00000  0.00000  0.00000  0.00000
2181  28699.000  -33.951421516   18.468548464    79.7212   6   5   1.2764   0.7922   2.7045  -0.6351   0.8746  -1.6754   0.00    0.0    0.00000    0.00000    0.00000   0.00000  0.00000  0.00000  0.00000  0.00000  0.00000
2181  28700.000  -33.951421854   18.468548746    79.7896   6   5   1.2598   0.7853   2.6687  -0.6264   0.8616  -1.6513   0.00    0.0    0.00000    0.00000    0.00000   0.00000  0.00000  0.00000  0.00000  0.00000  0.00000
2181  28701.000  -33.951422047   18.468548970    79.8785   6   5   1.2436   0.7785   2.6337  -0.6179   0.8488  -1.6276   0.00    0.0    0.00000    0.00000    0.00000   0.00000  0.00000  0.00000  0.00000  0.00000  0.00000
2181  28702.000  -33.951421976   18.468549164    79.8724   6   5   1.2277   0.7719   2.5994  -0.6095   0.8364  -1.6044   0.00    0.0    0.00000    0.00000    0.00000   0.00000  0.00000  0.00000  0.00000  0.00000  0.00000
2181  28703.000  -33.951422152   18.468549315    79.9439   6   5   1.2121   0.7654   2.5659  -0.6014   0.8241  -1.5817   0.00    0.0    0.00000    0.00000    0.00000   0.00000  0.00000  0.00000  0.00000  0.00000  0.00000
2181  28704.000  -33.951422261   18.468549462    79.9686   6   5   1.1969   0.7590   2.5331  -0.5934   0.8122  -1.5595   0.00    0.0    0.00000    0.00000    0.00000   0.00000  0.00000  0.00000  0.00000  0.00000  0.00000
2181  28705.000  -33.951422339   18.468549543    79.9726   6   5   1.1820   0.7529   2.5009  -0.5855   0.8004  -1.5377   0.00    0.0    0.00000    0.00000    0.00000   0.00000  0.00000  0.00000  0.00000  0.00000  0.00000
2181  28706.000  -33.951422356   18.468549537    79.9873   6   5   1.1674   0.7468   2.4695  -0.5778   0.7889  -1.5164   0.00    0.0    0.00000    0.00000    0.00000   0.00000  0.00000  0.00000  0.00000  0.00000  0.00000
2181  28707.000  -33.951422623   18.468549727    80.0616   6   5   1.1531   0.7409   2.4386  -0.5703   0.7776  -1.4954   0.00    0.0    0.00000    0.00000    0.00000   0.00000  0.00000  0.00000  0.00000  0.00000  0.00000
2181  28708.000  -33.951423030   18.468549952    80.1458   6   5   1.1391   0.7350   2.4085  -0.5629   0.7665  -1.4749   0.00    0.0    0.00000    0.00000    0.00000   0.00000  0.00000  0.00000  0.00000  0.00000  0.00000
2181  28709.000  -33.951423160   18.468549996    80.1891   6   5   1.1254   0.7294   2.3789  -0.5557   0.7556  -1.4548   0.00    0.0    0.00000    0.00000    0.00000   0.00000  0.00000  0.00000  0.00000  0.00000  0.00000
2181  28710.000  -33.951423328   18.468550049    80.2102   6   5   1.1120   0.7238   2.3500  -0.5486   0.7450  -1.4351   0.00    0.0    0.00000    0.00000    0.00000   0.00000  0.00000  0.00000  0.00000  0.00000  0.00000
2181  28711.000  -33.951423421   18.468550163    80.2735   6   5   1.0988   0.7183   2.3216  -0.5417   0.7345  -1.4157   0.00    0.0    0.00000    0.00000    0.00000   0.00000  0.00000  0.00000  0.00000  0.00000  0.00000
2181  28712.000  -33.951423518   18.468550212    80.2879   6   5   1.0859   0.7130   2.2938  -0.5349   0.7242  -1.3967   0.00    0.0    0.00000    0.00000    0.00000   0.00000  0.00000  0.00000  0.00000  0.00000  0.00000
2181  28713.000  -33.951423560   18.468550236    80.3391   6   5   1.0732   0.7077   2.2665  -0.5282   0.7141  -1.3781   0.00    0.0    0.00000    0.00000    0.00000   0.00000  0.00000  0.00000  0.00000  0.00000  0.00000
2181  28714.000  -33.951423828   18.468550551    80.4268   6   5   1.0608   0.7026   2.2398  -0.5216   0.7042  -1.3598   0.00    0.0    0.00000    0.00000    0.00000   0.00000  0.00000  0.00000  0.00000  0.00000  0.00000
2181  28715.000  -33.951424087   18.468550552    80.5168   6   5   1.0486   0.6976   2.2136  -0.5152   0.6945  -1.3419   0.00    0.0    0.00000    0.00000    0.00000   0.00000  0.00000  0.00000  0.00000  0.00000  0.00000
2181  28716.000  -33.951424329   18.468550646    80.5644   6   5   1.0367   0.6926   2.1879  -0.5089   0.6849  -1.3243   0.00    0.0    0.00000    0.00000    0.00000   0.00000  0.00000  0.00000  0.00000  0.00000  0.00000
2181  28717.000  -33.951424414   18.468550606    80.5834   6   5   1.0249   0.6878   2.1628  -0.5027   0.6756  -1.3071   0.00    0.0    0.00000    0.00000    0.00000   0.00000  0.00000  0.00000  0.00000  0.00000  0.00000
2181  28718.000  -33.951424442   18.468550619    80.6138   6   5   1.0134   0.6830   2.1381  -0.4966   0.6663  -1.2901   0.00    0.0    0.00000    0.00000    0.00000   0.00000  0.00000  0.00000  0.00000  0.00000  0.00000
2181  28719.000  -33.951424749   18.468550503    80.6770   6   5   1.0022   0.6784   2.1139  -0.4906   0.6573  -1.2735   0.00    0.0    0.00000    0.00000    0.00000   0.00000  0.00000  0.00000  0.00000  0.00000  0.00000
2181  28720.000  -33.951424807   18.468550493    80.7206   6   5   0.9911   0.6738   2.0901  -0.4848   0.6484  -1.2571   0.00    0.0    0.00000    0.00000    0.00000   0.00000  0.00000  0.00000  0.00000  0.00000  0.00000
2181  28721.000  -33.951424931   18.468550658    80.7529   6   5   0.9802   0.6693   2.0668  -0.4790   0.6396  -1.2411   0.00    0.0    0.00000    0.00000    0.00000   0.00000  0.00000  0.00000  0.00000  0.00000  0.00000
2181  28722.000  -33.951425145   18.468550898    80.7942   6   5   0.9696   0.6649   2.0439  -0.4734   0.6310  -1.2253   0.00    0.0    0.00000    0.00000    0.00000   0.00000  0.00000  0.00000  0.00000  0.00000  0.00000
2181  28723.000  -33.951425329   18.468550956    80.8346   6   5   0.9591   0.6605   2.0215  -0.4678   0.6226  -1.2098   0.00    0.0    0.00000    0.00000    0.00000   0.00000  0.00000  0.00000  0.00000  0.00000  0.00000
2181  28724.000  -33.951425433   18.468550843    80.8611   6   5   0.9488   0.6563   1.9995  -0.4624   0.6143  -1.1946   0.00    0.0    0.00000    0.00000    0.00000   0.00000  0.00000  0.00000  0.00000  0.00000  0.00000
2181  28725.000  -33.951425513   18.468550716    80.8844   6   5   0.9388   0.6521   1.9779  -0.4570   0.6061  -1.1797   0.00    0.0    0.00000    0.00000    0.00000   0.00000  0.00000  0.00000  0.00000  0.00000  0.00000
2181  28726.000  -33.951425668   18.468550655    80.9141   6   5   0.9289   0.6480   1.9567  -0.4518   0.5981  -1.1650   0.00    0.0    0.00000    0.00000    0.00000   0.00000  0.00000  0.00000  0.00000  0.00000  0.00000
2181  28727.000  -33.951425837   18.468550689    80.9326   6   5   0.9191   0.6440   1.9359  -0.4466   0.5902  -1.1506   0.00    0.0    0.00000    0.00000    0.00000   0.00000  0.00000  0.00000  0.00000  0.00000  0.00000
2181  28728.000  -33.951426025   18.468550655    80.9734   6   5   0.9096   0.6400   1.9155  -0.4416   0.5824  -1.1364   0.00    0.0    0.00000    0.00000    0.00000   0.00000  0.00000  0.00000  0.00000  0.00000  0.00000
2181  28729.000  -33.951426141   18.468550784    81.0035   6   5   0.9002   0.6361   1.8954  -0.4366   0.5748  -1.1225   0.00    0.0    0.00000    0.00000    0.00000   0.00000  0.00000  0.00000  0.00000  0.00000  0.00000
2181  28730.000  -33.951426192   18.468550771    81.0132   6   5   0.8910   0.6323   1.8757  -0.4317   0.5673  -1.1088   0.00    0.0    0.00000    0.00000    0.00000   0.00000  0.00000  0.00000  0.00000  0.00000  0.00000
2181  28731.000  -33.951426347   18.468550910    81.0136   6   5   0.8819   0.6285   1.8564  -0.4269   0.5599  -1.0954   0.00    0.0    0.00000    0.00000    0.00000   0.00000  0.00000  0.00000  0.00000  0.00000  0.00000
2181  28732.000  -33.951426566   18.468551202    81.0528   6   5   0.8730   0.6248   1.8374  -0.4221   0.5526  -1.0821   0.00    0.0    0.00000    0.00000    0.00000   0.00000  0.00000  0.00000  0.00000  0.00000  0.00000
2181  28733.000  -33.951426578   18.468551302    81.0688   6   5   0.8643   0.6211   1.8188  -0.4175   0.5454  -1.0691   0.00    0.0    0.00000    0.00000    0.00000   0.00000  0.00000  0.00000  0.00000  0.00000  0.00000
2181  28734.000  -33.951426763   18.468551502    81.1134   6   5   0.8557   0.6175   1.8005  -0.4129   0.5384  -1.0563   0.00    0.0    0.00000    0.00000    0.00000   0.00000  0.00000  0.00000  0.00000  0.00000  0.00000
2181  28735.000  -33.951426964   18.468551682    81.1559   6   5   0.8473   0.6140   1.7825  -0.4084   0.5314  -1.0438   0.00    0.0    0.00000    0.00000    0.00000   0.00000  0.00000  0.00000  0.00000  0.00000  0.00000
2181  28736.000  -33.951427112   18.468551809    81.1922   6   5   0.8390   0.6105   1.7648  -0.4040   0.5246  -1.0314   0.00    0.0    0.00000    0.00000    0.00000   0.00000  0.00000  0.00000  0.00000  0.00000  0.00000
2181  28737.000  -33.951427202   18.468551831    81.2187   6   5   0.8308   0.6071   1.7475  -0.3997   0.5179  -1.0192   0.00    0.0    0.00000    0.00000    0.00000   0.00000  0.00000  0.00000  0.00000  0.00000  0.00000
2181  28738.000  -33.951427269   18.468551916    81.2474   6   5   0.8228   0.6037   1.7304  -0.3954   0.5112  -1.0073   0.00    0.0    0.00000    0.00000    0.00000   0.00000  0.00000  0.00000  0.00000  0.00000  0.00000
2181  28739.000  -33.951427431   18.468551905    81.2737   6   5   0.8149   0.6004   1.7137  -0.3912   0.5047  -0.9955   0.00    0.0    0.00000    0.00000    0.00000   0.00000  0.00000  0.00000  0.00000  0.00000  0.00000
2181  28740.000  -33.951427459   18.468551919    81.2678   6   5   0.8072   0.5972   1.6972  -0.3871   0.4983  -0.9839   0.00    0.0    0.00000    0.00000    0.00000   0.00000  0.00000  0.00000  0.00000  0.00000  0.00000
2181  28741.000  -33.951427595   18.468552039    81.2883   6   5   0.7995   0.5940   1.6811  -0.3830   0.4920  -0.9726   0.00    0.0    0.00000    0.00000    0.00000   0.00000  0.00000  0.00000  0.00000  0.00000  0.00000
2181  28742.000  -33.951427711   18.468552057    81.3037   6   5   0.7920   0.5908   1.6652  -0.3790   0.4857  -0.9614   0.00    0.0    0.00000    0.00000    0.00000   0.00000  0.00000  0.00000  0.00000  0.00000  0.00000
2181  28743.000  -33.951427761   18.468552115    81.3306   6   5   0.7847   0.5877   1.6496  -0.3751   0.4796  -0.9503   0.00    0.0    0.00000    0.00000    0.00000   0.00000  0.00000  0.00000  0.00000  0.00000  0.00000
2181  28744.000  -33.951427910   18.468552298    81.3291   6   5   0.7774   0.5846   1.6342  -0.3712   0.4735  -0.9395   0.00    0.0    0.00000    0.00000    0.00000   0.00000  0.00000  0.00000  0.00000  0.00000  0.00000
2181  28745.000  -33.951428165   18.468552374    81.3750   6   5   0.7703   0.5816   1.6191  -0.3674   0.4675  -0.9288   0.00    0.0    0.00000    0.00000    0.00000   0.00000  0.00000  0.00000  0.00000  0.00000  0.00000
2181  28746.000  -33.951428260   18.468552367    81.4310   6   5   0.7633   0.5786   1.6043  -0.3636   0.4617  -0.9183   0.00    0.0    0.00000    0.00000    0.00000   0.00000  0.00000  0.00000  0.00000  0.00000  0.00000
2181  28747.000  -33.951428437   18.468552399    81.4655   6   5   0.7564   0.5757   1.5897  -0.3599   0.4559  -0.9079   0.00    0.0    0.00000    0.00000    0.00000   0.00000  0.00000  0.00000  0.00000  0.00000  0.00000
2181  28748.000  -33.951428665   18.468552488    81.5159   6   5   0.7496   0.5728   1.5754  -0.3563   0.4502  -0.8978   0.00    0.0    0.00000    0.00000    0.00000   0.00000  0.00000  0.00000  0.00000  0.00000  0.00000
2181  28749.000  -33.951428734   18.468552531    81.5544   6   5   0.7429   0.5699   1.5613  -0.3527   0.4445  -0.8877   0.00    0.0    0.00000    0.00000    0.00000   0.00000  0.00000  0.00000  0.00000  0.00000  0.00000
2181  28750.000  -33.951428752   18.468552604    81.6027   6   5   0.7363   0.5671   1.5474  -0.3492   0.4390  -0.8779   0.00    0.0    0.00000    0.00000    0.00000   0.00000  0.00000  0.00000  0.00000  0.00000  0.00000
2181  28751.000  -33.951428733   18.468552684    81.6174   6   5   0.7298   0.5643   1.5338  -0.3457   0.4335  -0.8681   0.00    0.0    0.00000    0.00000    0.00000   0.00000  0.00000  0.00000  0.00000  0.00000  0.00000
2181  28752.000  -33.951428703   18.468552832    81.6397   6   5   0.7235   0.5616   1.5204  -0.3423   0.4281  -0.8586   0.00    0.0    0.00000    0.00000    0.00000   0.00000  0.00000  0.00000  0.00000  0.00000  0.00000
2181  28753.000  -33.951428782   18.468552952    81.6653   6   5   0.7172   0.5589   1.5072  -0.3390   0.4227  -0.8492   0.00    0.0    0.00000    0.00000    0.00000   0.00000  0.00000  0.00000  0.00000  0.00000  0.00000
2181  28754.000  -33.951428710   18.468553084    81.6774   6   5   0.7110   0.5563   1.4942  -0.3357   0.4175  -0.8399   0.00    0.0    0.00000    0.00000    0.00000   0.00000  0.00000  0.00000  0.00000  0.00000  0.00000
2181  28755.000  -33.951428658   18.468553138    81.6817   6   5   0.7050   0.5536   1.4815  -0.3324   0.4123  -0.8307   0.00    0.0    0.00000    0.00000    0.00000   0.00000  0.00000  0.00000  0.00000  0.00000  0.00000
2181  28756.000  -33.951428749   18.468553223    81.6937   6   5   0.6990   0.5510   1.4689  -0.3292   0.4072  -0.8217   0.00    0.0    0.00000    0.00000    0.00000   0.00000  0.00000  0.00000  0.00000  0.00000  0.00000
2181  28757.000  -33.951428790   18.468553253    81.6939   6   5   0.6931   0.5485   1.4566  -0.3260   0.4021  -0.8128   0.00    0.0    0.00000    0.00000    0.00000   0.00000  0.00000  0.00000  0.00000  0.00000  0.00000
2181  28758.000  -33.951428731   18.468553296    81.6940   6   5   0.6873   0.5460   1.4444  -0.3229   0.3971  -0.8041   0.00    0.0    0.00000    0.00000    0.00000   0.00000  0.00000  0.00000  0.00000  0.00000  0.00000
2181  28759.000  -33.951428664   18.468553298    81.6704   6   5   0.6816   0.5435   1.4325  -0.3199   0.3922  -0.7955   0.00    0.0    0.00000    0.00000    0.00000   0.00000  0.00000  0.00000  0.00000  0.00000  0.00000
2181  28760.000  -33.951428635   18.468553315    81.6792   6   5   0.6760   0.5410   1.4207  -0.3168   0.3874  -0.7870   0.00    0.0    0.00000    0.00000    0.00000   0.00000  0.00000  0.00000  0.00000  0.00000  0.00000
2181  28761.000  -33.951428512   18.468553400    81.6706   6   5   0.6704   0.5386   1.4091  -0.3139   0.3826  -0.7787   0.00    0.0    0.00000    0.00000    0.00000   0.00000  0.00000  0.00000  0.00000  0.00000  0.00000
2181  28762.000  -33.951428461   18.468553435    81.6737   6   5   0.6650   0.5362   1.3978  -0.3109   0.3778  -0.7704   0.00    0.0    0.00000    0.00000    0.00000   0.00000  0.00000  0.00000  0.00000  0.00000  0.00000
2181  28763.000  -33.951428438   18.468553409    81.6800   6   5   0.6596   0.5339   1.3865  -0.3081   0.3732  -0.7623   0.00    0.0    0.00000    0.00000    0.00000   0.00000  0.00000  0.00000  0.00000  0.00000  0.00000
2181  28764.000  -33.951428364   18.468553406    81.6809   6   5   0.6543   0.5315   1.3755  -0.3052   0.3686  -0.7543   0.00    0.0    0.00000    0.00000    0.00000   0.00000  0.00000  0.00000  0.00000  0.00000  0.00000
2181  28765.000  -33.951428326   18.468553460    81.6746   6   5   0.6491   0.5292   1.3647  -0.3024   0.3640  -0.7464   0.00    0.0    0.00000    0.00000    0.00000   0.00000  0.00000  0.00000  0.00000  0.00000  0.00000
2181  28766.000  -33.951428308   18.468553505    81.6714   6   5   0.6439   0.5270   1.3540  -0.2996   0.3595  -0.7386   0.00    0.0    0.00000    0.00000    0.00000   0.00000  0.00000  0.00000  0.00000  0.00000  0.00000
2181  28767.000  -33.951428278   18.468553590    81.6969   6   5   0.6389   0.5247   1.3435  -0.2969   0.3550  -0.7310   0.00    0.0    0.00000    0.00000    0.00000   0.00000  0.00000  0.00000  0.00000  0.00000  0.00000
2181  28768.000  -33.951428325   18.468553660    81.7091   6   5   0.6339   0.5225   1.3331  -0.2942   0.3507  -0.7234   0.00    0.0    0.00000    0.00000    0.00000   0.00000  0.00000  0.00000  0.00000  0.00000  0.00000
2181  28769.000  -33.951428380   18.468553743    81.7148   6   5   0.6290   0.5203   1.3229  -0.2916   0.3463  -0.7160   0.00    0.0    0.00000    0.00000    0.00000   0.00000  0.00000  0.00000  0.00000  0.00000  0.00000
2181  28770.000  -33.951428331   18.468553786    81.7063   6   5   0.6241   0.5182   1.3129  -0.2890   0.3420  -0.7086   0.00    0.0    0.00000    0.00000    0.00000   0.00000  0.00000  0.00000  0.00000  0.00000  0.00000
2181  28771.000  -33.951428376   18.468553873    81.7172   6   5   0.6193   0.5160   1.3030  -0.2864   0.3378  -0.7014   0.00    0.0    0.00000    0.00000    0.00000   0.00000  0.00000  0.00000  0.00000  0.00000  0.00000
2181  28772.000  -33.951428382   18.468553948    81.7131   6   5   0.6146   0.5139   1.2933  -0.2839   0.3336  -0.6942   0.00    0.0    0.00000    0.00000    0.00000   0.00000  0.00000  0.00000  0.00000  0.00000  0.00000
2181  28773.000  -33.951428390   18.468554049    81.7178   6   5   0.6100   0.5118   1.2837  -0.2814   0.3294  -0.6872   0.00    0.0    0.00000    0.00000    0.00000   0.00000  0.00000  0.00000  0.00000  0.00000  0.00000
2181  28774.000  -33.951428441   18.468554084    81.7193   6   5   0.6054   0.5098   1.2743  -0.2789   0.3253  -0.6802   0.00    0.0    0.00000    0.00000    0.00000   0.00000  0.00000  0.00000  0.00000  0.00000  0.00000
2181  28775.000  -33.951428424   18.468554165    81.7534   6   5   0.6009   0.5078   1.2650  -0.2765   0.3213  -0.6734   0.00    0.0    0.00000    0.00000    0.00000   0.00000  0.00000  0.00000  0.00000  0.00000  0.00000
2181  28776.000  -33.951428431   18.468554250    81.7775   6   5   0.5964   0.5057   1.2558  -0.2741   0.3173  -0.6666   0.00    0.0    0.00000    0.00000    0.00000   0.00000  0.00000  0.00000  0.00000  0.00000  0.00000
2181  28777.000  -33.951428459   18.468554313    81.8053   6   5   0.5921   0.5038   1.2468  -0.2717   0.3133  -0.6599   0.00    0.0    0.00000    0.00000    0.00000   0.00000  0.00000  0.00000  0.00000  0.00000  0.00000
2181  28778.000  -33.951428422   18.468554395    81.8238   6   5   0.5877   0.5018   1.2379  -0.2694   0.3094  -0.6534   0.00    0.0    0.00000    0.00000    0.00000   0.00000  0.00000  0.00000  0.00000  0.00000  0.00000
2181  28779.000  -33.951428433   18.468554444    81.8445   6   5   0.5835   0.4998   1.2292  -0.2671   0.3055  -0.6469   0.00    0.0    0.00000    0.00000    0.00000   0.00000  0.00000  0.00000  0.00000  0.00000  0.00000
2181  28780.000  -33.951428417   18.468554552    81.8490   6   5   0.5793   0.4979   1.2205  -0.2648   0.3017  -0.6405   0.00    0.0    0.00000    0.00000    0.00000   0.00000  0.00000  0.00000  0.00000  0.00000  0.00000
2181  28781.000  -33.951428362   18.468554632    81.8535   6   5   0.5751   0.4960   1.2121  -0.2625   0.2979  -0.6341   0.00    0.0    0.00000    0.00000    0.00000   0.00000  0.00000  0.00000  0.00000  0.00000  0.00000
2181  28782.000  -33.951428329   18.468554699    81.8584   6   5   0.5710   0.4942   1.2037  -0.2603   0.2941  -0.6279   0.00    0.0    0.00000    0.00000    0.00000   0.00000  0.00000  0.00000  0.00000  0.00000  0.00000
2181  28783.000  -33.951428331   18.468554760    81.8632   6   5   0.5670   0.4923   1.1954  -0.2581   0.2904  -0.6218   0.00    0.0    0.00000    0.00000    0.00000   0.00000  0.00000  0.00000  0.00000  0.00000  0.00000
2181  28784.000  -33.951428379   18.468554829    81.8905   6   5   0.5630   0.4905   1.1873  -0.2560   0.2867  -0.6157   0.00    0.0    0.00000    0.00000    0.00000   0.00000  0.00000  0.00000  0.00000  0.00000  0.00000
2181  28785.000  -33.951428417   18.468554850    81.9009   6   5   0.5591   0.4886   1.1793  -0.2539   0.2831  -0.6097   0.00    0.0    0.00000    0.00000    0.00000   0.00000  0.00000  0.00000  0.00000  0.00000  0.00000
2181  28786.000  -33.951428441   18.468554853    81.9256   6   5   0.5552   0.4869   1.1714  -0.2518   0.2795  -0.6038   0.00    0.0    0.00000    0.00000    0.00000   0.00000  0.00000  0.00000  0.00000  0.00000  0.00000
2181  28787.000  -33.951428516   18.468554923    81.9462   6   5   0.5514   0.4851   1.1637  -0.2497   0.2759  -0.5979   0.00    0.0    0.00000    0.00000    0.00000   0.00000  0.00000  0.00000  0.00000  0.00000  0.00000
2181  28788.000  -33.951428572   18.468555018    81.9619   6   5   0.5476   0.4833   1.1560  -0.2477   0.2724  -0.5922   0.00    0.0    0.00000    0.00000    0.00000   0.00000  0.00000  0.00000  0.00000  0.00000  0.00000
2181  28789.000  -33.951428646   18.468555093    81.9832   6   5   0.5439   0.4816   1.1484  -0.2457   0.2688  -0.5865   0.00    0.0    0.00000    0.00000    0.00000   0.00000  0.00000  0.00000  0.00000  0.00000  0.00000
2181  28790.000  -33.951428678   18.468555140    82.0043   6   5   0.5402   0.4799   1.1410  -0.2437   0.2654  -0.5808   0.00    0.0    0.00000    0.00000    0.00000   0.00000  0.00000  0.00000  0.00000  0.00000  0.00000
2181  28791.000  -33.951428658   18.468555247    82.0284   6   5   0.5366   0.4782   1.1337  -0.2417   0.2619  -0.5753   0.00    0.0    0.00000    0.00000    0.00000   0.00000  0.00000  0.00000  0.00000  0.00000  0.00000
2181  28792.000  -33.951428699   18.468555271    82.0502   6   5   0.5330   0.4765   1.1264  -0.2398   0.2585  -0.5698   0.00    0.0    0.00000    0.00000    0.00000   0.00000  0.00000  0.00000  0.00000  0.00000  0.00000
2181  28793.000  -33.951428710   18.468555351    82.0622   6   5   0.5295   0.4748   1.1193  -0.2378   0.2551  -0.5644   0.00    0.0    0.00000    0.00000    0.00000   0.00000  0.00000  0.00000  0.00000  0.00000  0.00000
2181  28794.000  -33.951428737   18.468555459    82.0709   6   5   0.5260   0.4732   1.1123  -0.2360   0.2518  -0.5590   0.00    0.0    0.00000    0.00000    0.00000   0.00000  0.00000  0.00000  0.00000  0.00000  0.00000
2181  28795.000  -33.951428666   18.468555531    82.0836   6   5   0.5225   0.4715   1.1053  -0.2341   0.2485  -0.5538   0.00    0.0    0.00000    0.00000    0.00000   0.00000  0.00000  0.00000  0.00000  0.00000  0.00000
2181  28796.000  -33.951428714   18.468555607    82.0933   6   5   0.5191   0.4699   1.0985  -0.2322   0.2452  -0.5486   0.00    0.0    0.00000    0.00000    0.00000   0.00000  0.00000  0.00000  0.00000  0.00000  0.00000
2181  28797.000  -33.951428735   18.468555559    82.1087   6   5   0.5158   0.4683   1.0917  -0.2304   0.2419  -0.5434   0.00    0.0    0.00000    0.00000    0.00000   0.00000  0.00000  0.00000  0.00000  0.00000  0.00000
2181  28798.000  -33.951428767   18.468555605    82.1315   6   5   0.5125   0.4667   1.0851  -0.2286   0.2387  -0.5383   0.00    0.0    0.00000    0.00000    0.00000   0.00000  0.00000  0.00000  0.00000  0.00000  0.00000
2181  28799.000  -33.951428829   18.468555721    82.1564   6   5   0.5092   0.4652   1.0785  -0.2269   0.2354  -0.5333   0.00    0.0    0.00000    0.00000    0.00000   0.00000  0.00000  0.00000  0.00000  0.00000  0.00000
2181  28800.000  -33.951428884   18.468555763    82.1637   6   5   0.5059   0.4636   1.0721  -0.2251   0.2322  -0.5283   0.00    0.0    0.00000    0.00000    0.00000   0.00000  0.00000  0.00000  0.00000  0.00000  0.00000
2181  28801.000  -33.951428900   18.468555807    82.1650   6   5   0.5028   0.4621   1.0657  -0.2234   0.2291  -0.5234   0.00    0.0    0.00000    0.00000    0.00000   0.00000  0.00000  0.00000  0.00000  0.00000  0.00000
2181  28802.000  -33.951428922   18.468555869    82.1841   6   5   0.4996   0.4606   1.0594  -0.2217   0.2259  -0.5186   0.00    0.0    0.00000    0.00000    0.00000   0.00000  0.00000  0.00000  0.00000  0.00000  0.00000
2181  28803.000  -33.951428930   18.468555894    82.1794   6   5   0.4965   0.4591   1.0532  -0.2200   0.2228  -0.5138   0.00    0.0    0.00000    0.00000    0.00000   0.00000  0.00000  0.00000  0.00000  0.00000  0.00000
2181  28804.000  -33.951428999   18.468555942    82.1839   6   5   0.4934   0.4576   1.0471  -0.2183   0.2197  -0.5090   0.00    0.0    0.00000    0.00000    0.00000   0.00000  0.00000  0.00000  0.00000  0.00000  0.00000
2181  28805.000  -33.951429040   18.468555860    82.1931   6   5   0.4904   0.4561   1.0410  -0.2167   0.2166  -0.5044   0.00    0.0    0.00000    0.00000    0.00000   0.00000  0.00000  0.00000  0.00000  0.00000  0.00000
2181  28806.000  -33.951429144   18.468555907    82.2117   6   5   0.4874   0.4546   1.0351  -0.2150   0.2136  -0.4997   0.00    0.0    0.00000    0.00000    0.00000   0.00000  0.00000  0.00000  0.00000  0.00000  0.00000
2181  28807.000  -33.951429167   18.468555925    82.2326   6   5   0.4844   0.4532   1.0292  -0.2134   0.2106  -0.4952   0.00    0.0    0.00000    0.00000    0.00000   0.00000  0.00000  0.00000  0.00000  0.00000  0.00000
2181  28808.000  -33.951429219   18.468555870    82.2516   6   5   0.4815   0.4517   1.0234  -0.2118   0.2075  -0.4906   0.00    0.0    0.00000    0.00000    0.00000   0.00000  0.00000  0.00000  0.00000  0.00000  0.00000
2181  28809.000  -33.951429332   18.468555902    82.2729   6   5   0.4786   0.4503   1.0176  -0.2103   0.2045  -0.4862   0.00    0.0    0.00000    0.00000    0.00000   0.00000  0.00000  0.00000  0.00000  0.00000  0.00000
2181  28810.000  -33.951429401   18.468555922    82.2918   6   5   0.4757   0.4489   1.0120  -0.2087   0.2016  -0.4818   0.00    0.0    0.00000    0.00000    0.00000   0.00000  0.00000  0.00000  0.00000  0.00000  0.00000
2181  28811.000  -33.951429414   18.468556003    82.3122   6   5   0.4729   0.4475   1.0064  -0.2072   0.1986  -0.4774   0.00    0.0    0.00000    0.00000    0.00000   0.00000  0.00000  0.00000  0.00000  0.00000  0.00000
2181  28812.000  -33.951429431   18.468556011    82.3253   6   5   0.4701   0.4461   1.0009  -0.2057   0.1957  -0.4731   0.00    0.0    0.00000    0.00000    0.00000   0.00000  0.00000  0.00000  0.00000  0.00000  0.00000
2181  28813.000  -33.951429519   18.468556044    82.3442   6   5   0.4674   0.4448   0.9955  -0.2042   0.1927  -0.4688   0.00    0.0    0.00000    0.00000    0.00000   0.00000  0.00000  0.00000  0.00000  0.00000  0.00000
2181  28814.000  -33.951429584   18.468556045    82.3532   6   5   0.4646   0.4434   0.9901  -0.2027   0.1898  -0.4646   0.00    0.0    0.00000    0.00000    0.00000   0.00000  0.00000  0.00000  0.00000  0.00000  0.00000
2181  28815.000  -33.951429644   18.468556084    82.3644   6   5   0.4619   0.4421   0.9848  -0.2012   0.1869  -0.4604   0.00    0.0    0.00000    0.00000    0.00000   0.00000  0.00000  0.00000  0.00000  0.00000  0.00000
2181  28816.000  -33.951429696   18.468556138    82.3825   6   5   0.4593   0.4407   0.9796  -0.1998   0.1840  -0.4563   0.00    0.0    0.00000    0.00000    0.00000   0.00000  0.00000  0.00000  0.00000  0.00000  0.00000
2181  28817.000  -33.951429773   18.468556194    82.4030   6   5   0.4566   0.4394   0.9744  -0.1983   0.1811  -0.4522   0.00    0.0    0.00000    0.00000    0.00000   0.00000  0.00000  0.00000  0.00000  0.00000  0.00000
2181  28818.000  -33.951429788   18.468556231    82.4203   6   5   0.4540   0.4381   0.9693  -0.1969   0.1783  -0.4482   0.00    0.0    0.00000    0.00000    0.00000   0.00000  0.00000  0.00000  0.00000  0.00000  0.00000
2181  28819.000  -33.951429834   18.468556358    82.4252   6   5   0.4515   0.4368   0.9643  -0.1955   0.1754  -0.4442   0.00    0.0    0.00000    0.00000    0.00000   0.00000  0.00000  0.00000  0.00000  0.00000  0.00000
2181  28820.000  -33.951429907   18.468556443    82.4453   6   5   0.4489   0.4355   0.9594  -0.1942   0.1726  -0.4402   0.00    0.0    0.00000    0.00000    0.00000   0.00000  0.00000  0.00000  0.00000  0.00000  0.00000
2181  28821.000  -33.951429955   18.468556462    82.4686   6   5   0.4464   0.4342   0.9544  -0.1928   0.1698  -0.4363   0.00    0.0    0.00000    0.00000    0.00000   0.00000  0.00000  0.00000  0.00000  0.00000  0.00000
2181  28851.000  -33.951429992   18.468556456    82.4964   6   6   0.4409   0.4305   0.9447  -0.1853   0.1561  -0.4270   0.00    0.0    0.00000    0.00000    0.00000   0.00000  0.00000  0.00000  0.00000  0.00000  0.00000
2181  28852.000  -33.951430041   18.468556467    82.5245   6   6   0.4356   0.4269   0.9354  -0.1781   0.1425  -0.4182   0.00    0.0    0.00000    0.00000    0.00000   0.00000  0.00000  0.00000  0.00000  0.00000  0.00000
2181  28853.000  -33.951430123   18.468556514    82.5518   6   6   0.4306   0.4235   0.9266  -0.1713   0.1287  -0.4098   0.00    0.0    0.00000    0.00000    0.00000   0.00000  0.00000  0.00000  0.00000  0.00000  0.00000
2181  28854.000  -33.951430146   18.468556512    82.5663   6   6   0.4259   0.4202   0.9182  -0.1646   0.1147  -0.4017   0.00    0.0    0.00000    0.00000    0.00000   0.00000  0.00000  0.00000  0.00000  0.00000  0.00000
2181  28855.000  -33.951430179   18.468556480    82.5820   6   6   0.4213   0.4171   0.9101  -0.1582   0.1001  -0.3941   0.00    0.0    0.00000    0.00000    0.00000   0.00000  0.00000  0.00000  0.00000  0.00000  0.00000
2181  28856.000  -33.951430236   18.468556551    82.5962   6   7   0.4170   0.4139   0.9024  -0.1523   0.0845  -0.3867   0.00    0.0    0.00000    0.00000    0.00000   0.00000  0.00000  0.00000  0.00000  0.00000  0.00000
2181  28857.000  -33.951430208   18.468556453    82.6075   6   7   0.4128   0.4108   0.8949  -0.1465   0.0670  -0.3797   0.00    0.0    0.00000    0.00000    0.00000   0.00000  0.00000  0.00000  0.00000  0.00000  0.00000
2181  28858.000  -33.951430229   18.468556382    82.6251   6   7   0.4088   0.4078   0.8878  -0.1409   0.0451  -0.3729   0.00    0.0    0.00000    0.00000    0.00000   0.00000  0.00000  0.00000  0.00000  0.00000  0.00000
2181  28859.000  -33.951430283   18.468556308    82.6380   6   7   0.4049   0.4050   0.8809  -0.1355  -0.0154  -0.3664   0.00    0.0    0.00000    0.00000    0.00000   0.00000  0.00000  0.00000  0.00000  0.00000  0.00000
2181  28860.000  -33.951430314   18.468556344    82.6577   6   7   0.4012   0.4022   0.8743  -0.1302  -0.0484  -0.3601   0.00    0.0    0.00000    0.00000    0.00000   0.00000  0.00000  0.00000  0.00000  0.00000  0.00000
2181  28861.000  -33.951430344   18.468556263    82.6751   6   7   0.3976   0.3995   0.8679  -0.1251  -0.0655  -0.3541   0.00    0.0    0.00000    0.00000    0.00000   0.00000  0.00000  0.00000  0.00000  0.00000  0.00000
2181  28862.000  -33.951430380   18.468556221    82.6870   6   7   0.3942   0.3969   0.8618  -0.1201  -0.0781  -0.3483   0.00    0.0    0.00000    0.00000    0.00000   0.00000  0.00000  0.00000  0.00000  0.00000  0.00000
2181  28863.000  -33.951430421   18.468556231    82.7019   6   7   0.3909   0.3943   0.8558  -0.1152  -0.0882  -0.3427   0.00    0.0    0.00000    0.00000    0.00000   0.00000  0.00000  0.00000  0.00000  0.00000  0.00000
2181  28864.000  -33.951430480   18.468556157    82.7138   6   7   0.3876   0.3919   0.8500  -0.1104  -0.0967  -0.3372   0.00    0.0    0.00000    0.00000    0.00000   0.00000  0.00000  0.00000  0.00000  0.00000  0.00000
2181  28865.000  -33.951430463   18.468555992    82.7140   6   7   0.3845   0.3895   0.8444  -0.1057  -0.1040  -0.3320   0.00    0.0    0.00000    0.00000    0.00000   0.00000  0.00000  0.00000  0.00000  0.00000  0.00000
2181  28866.000  -33.951430430   18.468555813    82.7222   6   7   0.3815   0.3872   0.8390  -0.1011  -0.1103  -0.3269   0.00    0.0    0.00000    0.00000    0.00000   0.00000  0.00000  0.00000  0.00000  0.00000  0.00000
2181  28867.000  -33.951430449   18.468555792    82.7326   6   7   0.3786   0.3849   0.8337  -0.0965  -0.1159  -0.3220   0.00    0.0    0.00000    0.00000    0.00000   0.00000  0.00000  0.00000  0.00000  0.00000  0.00000
2181  28868.000  -33.951430422   18.468555787    82.7335   6   7   0.3758   0.3827   0.8286  -0.0920  -0.1209  -0.3172   0.00    0.0    0.00000    0.00000    0.00000   0.00000  0.00000  0.00000  0.00000  0.00000  0.00000
2181  28869.000  -33.951430463   18.468555784    82.7445   6   7   0.3730   0.3806   0.8236  -0.0876  -0.1254  -0.3125   0.00    0.0    0.00000    0.00000    0.00000   0.00000  0.00000  0.00000  0.00000  0.00000  0.00000
2181  28870.000  -33.951430455   18.468555701    82.7448   6   7   0.3703   0.3785   0.8187  -0.0831  -0.1295  -0.3080   0.00    0.0    0.00000    0.00000    0.00000   0.00000  0.00000  0.00000  0.00000  0.00000  0.00000
2181  28871.000  -33.951430469   18.468555626    82.7568   6   7   0.3677   0.3764   0.8140  -0.0787  -0.1332  -0.3036   0.00    0.0    0.00000    0.00000    0.00000   0.00000  0.00000  0.00000  0.00000  0.00000  0.00000
2181  28872.000  -33.951430489   18.468555546    82.7672   6   7   0.3652   0.3744   0.8094  -0.0743  -0.1365  -0.2994   0.00    0.0    0.00000    0.00000    0.00000   0.00000  0.00000  0.00000  0.00000  0.00000  0.00000
2181  28873.000  -33.951430507   18.468555536    82.7838   6   7   0.3627   0.3725   0.8049  -0.0698  -0.1396  -0.2952   0.00    0.0    0.00000    0.00000    0.00000   0.00000  0.00000  0.00000  0.00000  0.00000  0.00000
2181  28874.000  -33.951430491   18.468555428    82.7956   6   7   0.3603   0.3706   0.8005  -0.0653  -0.1424  -0.2912   0.00    0.0    0.00000    0.00000    0.00000   0.00000  0.00000  0.00000  0.00000  0.00000  0.00000
2181  28875.000  -33.951430484   18.468555319    82.7987   6   7   0.3580   0.3687   0.7962  -0.0607  -0.1450  -0.2872   0.00    0.0    0.00000    0.00000    0.00000   0.00000  0.00000  0.00000  0.00000  0.00000  0.00000
2181  28876.000  -33.951430512   18.468555279    82.8062   6   7   0.3557   0.3669   0.7920  -0.0560  -0.1474  -0.2834   0.00    0.0    0.00000    0.00000    0.00000   0.00000  0.00000  0.00000  0.00000  0.00000  0.00000
2181  28877.000  -33.951430521   18.468555176    82.8184   6   7   0.3535   0.3651   0.7879  -0.0512  -0.1496  -0.2796   0.00    0.0    0.00000    0.00000    0.00000   0.00000  0.00000  0.00000  0.00000  0.00000  0.00000
2181  28878.000  -33.951430567   18.468555186    82.8256   6   7   0.3513   0.3633   0.7839  -0.0461  -0.1516  -0.2759   0.00    0.0    0.00000    0.00000    0.00000   0.00000  0.00000  0.00000  0.00000  0.00000  0.00000
2181  28879.000  -33.951430545   18.468555148    82.8286   6   7   0.3492   0.3616   0.7799  -0.0408  -0.1534  -0.2724   0.00    0.0    0.00000    0.00000    0.00000   0.00000  0.00000  0.00000  0.00000  0.00000  0.00000
2181  28880.000  -33.951430516   18.468555018    82.8339   6   7   0.3471   0.3599   0.7761  -0.0349  -0.1552  -0.2689   0.00    0.0    0.00000    0.00000    0.00000   0.00000  0.00000  0.00000  0.00000  0.00000  0.00000
2181  28881.000  -33.951430503   18.468554957    82.8428   6   7   0.3450   0.3583   0.7723  -0.0282  -0.1568  -0.2654   0.00    0.0    0.00000    0.00000    0.00000   0.00000  0.00000  0.00000  0.00000  0.00000  0.00000
2181  28882.000  -33.951430494   18.468554834    82.8404   6   7   0.3430   0.3567   0.7686  -0.0198  -0.1583  -0.2621   0.00    0.0    0.00000    0.00000    0.00000   0.00000  0.00000  0.00000  0.00000  0.00000  0.00000
2181  28883.000  -33.951430528   18.468554800    82.8460   6   7   0.3411   0.3551   0.7650  -0.0030  -0.1596  -0.2588   0.00    0.0    0.00000    0.00000    0.00000   0.00000  0.00000  0.00000  0.00000  0.00000  0.00000
2181  28884.000  -33.951430534   18.468554730    82.8532   6   7   0.3392   0.3535   0.7615   0.0188  -0.1609  -0.2556   0.00    0.0    0.00000    0.00000    0.00000   0.00000  0.00000  0.00000  0.00000  0.00000  0.00000
2181  28885.000  -33.951430510   18.468554693    82.8549   6   7   0.3373   0.3520   0.7580   0.0265  -0.1621  -0.2525   0.00    0.0    0.00000    0.00000    0.00000   0.00000  0.00000  0.00000  0.00000  0.00000  0.00000
2181  28886.000  -33.951430508   18.468554646    82.8550   6   7   0.3354   0.3504   0.7546   0.0321  -0.1632  -0.2494   0.00    0.0    0.00000    0.00000    0.00000   0.00000  0.00000  0.00000  0.00000  0.00000  0.00000
2181  28887.000  -33.951430526   18.468554569    82.8645   6   7   0.3336   0.3489   0.7512   0.0367  -0.1643  -0.2464   0.00    0.0    0.00000    0.00000    0.00000   0.00000  0.00000  0.00000  0.00000  0.00000  0.00000
2181  28888.000  -33.951430515   18.468554448    82.8582   6   7   0.3318   0.3475   0.7479   0.0406  -0.1652  -0.2434   0.00    0.0    0.00000    0.00000    0.00000   0.00000  0.00000  0.00000  0.00000  0.00000  0.00000
2181  28889.000  -33.951430580   18.468554354    82.8609   6   7   0.3301   0.3460   0.7446   0.0440  -0.1661  -0.2405   0.00    0.0    0.00000    0.00000    0.00000   0.00000  0.00000  0.00000  0.00000  0.00000  0.00000
2181  28890.000  -33.951430615   18.468554317    82.8667   6   7   0.3284   0.3446   0.7414   0.0470  -0.1669  -0.2377   0.00    0.0    0.00000    0.00000    0.00000   0.00000  0.00000  0.00000  0.00000  0.00000  0.00000
2181  28891.000  -33.951430657   18.468554242    82.8826   6   7   0.3267   0.3432   0.7383   0.0497  -0.1677  -0.2348   0.00    0.0    0.00000    0.00000    0.00000   0.00000  0.00000  0.00000  0.00000  0.00000  0.00000
2181  28892.000  -33.951430693   18.468554247    82.8981   6   7   0.3251   0.3419   0.7352   0.0521  -0.1684  -0.2321   0.00    0.0    0.00000    0.00000    0.00000   0.00000  0.00000  0.00000  0.00000  0.00000  0.00000
2181  28893.000  -33.951430703   18.468554163    82.9060   6   7   0.3234   0.3405   0.7322   0.0543  -0.1690  -0.2294   0.00    0.0    0.00000    0.00000    0.00000   0.00000  0.00000  0.00000  0.00000  0.00000  0.00000
2181  28894.000  -33.951430749   18.468554060    82.9165   6   7   0.3218   0.3392   0.7292   0.0564  -0.1696  -0.2267   0.00    0.0    0.00000    0.00000    0.00000   0.00000  0.00000  0.00000  0.00000  0.00000  0.00000
2181  28895.000  -33.951430765   18.468553952    82.9292   6   7   0.3203   0.3379   0.7262   0.0582  -0.1702  -0.2241   0.00    0.0    0.00000    0.00000    0.00000   0.00000  0.00000  0.00000  0.00000  0.00000  0.00000
2181  28896.000  -33.951430816   18.468553913    82.9434   6   7   0.3187   0.3366   0.7233   0.0600  -0.1707  -0.2216   0.00    0.0    0.00000    0.00000    0.00000   0.00000  0.00000  0.00000  0.00000  0.00000  0.00000
2181  28897.000  -33.951430850   18.468553895    82.9544   6   7   0.3172   0.3353   0.7205   0.0616  -0.1712  -0.2190   0.00    0.0    0.00000    0.00000    0.00000   0.00000  0.00000  0.00000  0.00000  0.00000  0.00000
2181  28898.000  -33.951430885   18.468553833    82.9636   6   7   0.3157   0.3340   0.7176   0.0631  -0.1716  -0.2165   0.00    0.0    0.00000    0.00000    0.00000   0.00000  0.00000  0.00000  0.00000  0.00000  0.00000
2181  28899.000  -33.951430892   18.468553758    82.9709   6   7   0.3142   0.3328   0.7149   0.0645  -0.1720  -0.2141   0.00    0.0    0.00000    0.00000    0.00000   0.00000  0.00000  0.00000  0.00000  0.00000  0.00000
2181  28900.000  -33.951430863   18.468553679    82.9819   6   7   0.3128   0.3316   0.7121   0.0658  -0.1724  -0.2117   0.00    0.0    0.00000    0.00000    0.00000   0.00000  0.00000  0.00000  0.00000  0.00000  0.00000
2181  28901.000  -33.951430925   18.468553695    82.9864   6   7   0.3113   0.3303   0.7094   0.0670  -0.1727  -0.2093   0.00    0.0    0.00000    0.00000    0.00000   0.00000  0.00000  0.00000  0.00000  0.00000  0.00000
2181  28902.000  -33.951430975   18.468553638    82.9929   6   7   0.3099   0.3292   0.7067   0.0682  -0.1730  -0.2070   0.00    0.0    0.00000    0.00000    0.00000   0.00000  0.00000  0.00000  0.00000  0.00000  0.00000
2181  28903.000  -33.951431010   18.468553527    82.9990   6   7   0.3085   0.3280   0.7041   0.0693  -0.1733  -0.2047   0.00    0.0    0.00000    0.00000    0.00000   0.00000  0.00000  0.00000  0.00000  0.00000  0.00000
2181  28904.000  -33.951431046   18.468553467    83.0081   6   7   0.3072   0.3268   0.7015   0.0703  -0.1736  -0.2024   0.00    0.0    0.00000    0.00000    0.00000   0.00000  0.00000  0.00000  0.00000  0.00000  0.00000
2181  28905.000  -33.951431032   18.468553380    83.0122   6   7   0.3058   0.3257   0.6989   0.0713  -0.1738  -0.2001   0.00    0.0    0.00000    0.00000    0.00000   0.00000  0.00000  0.00000  0.00000  0.00000  0.00000
2181  28906.000  -33.951431096   18.468553359    83.0226   6   7   0.3045   0.3245   0.6964   0.0722  -0.1740  -0.1979   0.00    0.0    0.00000    0.00000    0.00000   0.00000  0.00000  0.00000  0.00000  0.00000  0.00000
2181  28907.000  -33.951431090   18.468553272    83.0267   6   7   0.3032   0.3234   0.6939   0.0730  -0.1742  -0.1957   0.00    0.0    0.00000    0.00000    0.00000   0.00000  0.00000  0.00000  0.00000  0.00000  0.00000
2181  28908.000  -33.951431100   18.468553187    83.0328   6   7   0.3019   0.3223   0.6914   0.0738  -0.1743  -0.1936   0.00    0.0    0.00000    0.00000    0.00000   0.00000  0.00000  0.00000  0.00000  0.00000  0.00000
2181  28909.000  -33.951431124   18.468553101    83.0339   6   7   0.3006   0.3212   0.6890   0.0746  -0.1745  -0.1915   0.00    0.0    0.00000    0.00000    0.00000   0.00000  0.00000  0.00000  0.00000  0.00000  0.00000
2181  28910.000  -33.951431117   18.468553062    83.0405   6   7   0.2993   0.3201   0.6866   0.0753  -0.1746  -0.1894   0.00    0.0    0.00000    0.00000    0.00000   0.00000  0.00000  0.00000  0.00000  0.00000  0.00000
2181  28911.000  -33.951431138   18.468553052    83.0437   6   7   0.2981   0.3191   0.6842   0.0760  -0.1747  -0.1873   0.00    0.0    0.00000    0.00000    0.00000   0.00000  0.00000  0.00000  0.00000  0.00000  0.00000
2181  28912.000  -33.951431140   18.468553007    83.0470   6   7   0.2968   0.3180   0.6818   0.0766  -0.1747  -0.1852   0.00    0.0    0.00000    0.00000    0.00000   0.00000  0.00000  0.00000  0.00000  0.00000  0.00000
2181  28913.000  -33.951431153   18.468552950    83.0520   6   7   0.2956   0.3170   0.6795   0.0772  -0.1748  -0.1832   0.00    0.0    0.00000    0.00000    0.00000   0.00000  0.00000  0.00000  0.00000  0.00000  0.00000
2181  28914.000  -33.951431176   18.468552912    83.0504   6   7   0.2944   0.3159   0.6772   0.0778  -0.1749  -0.1812   0.00    0.0    0.00000    0.00000    0.00000   0.00000  0.00000  0.00000  0.00000  0.00000  0.00000
2181  28915.000  -33.951431192   18.468552862    83.0442   6   7   0.2932   0.3149   0.6749   0.0783  -0.1749  -0.1792   0.00    0.0    0.00000    0.00000    0.00000   0.00000  0.00000  0.00000  0.00000  0.00000  0.00000
2181  28916.000  -33.951431211   18.468552793    83.0418   6   7   0.2921   0.3139   0.6727   0.0788  -0.1749  -0.1773   0.00    0.0    0.00000    0.00000    0.00000   0.00000  0.00000  0.00000  0.00000  0.00000  0.00000
2181  28917.000  -33.951431203   18.468552780    83.0450   6   7   0.2909   0.3129   0.6704   0.0793  -0.1749  -0.1754   0.00    0.0    0.00000    0.00000    0.00000   0.00000  0.00000  0.00000  0.00000  0.00000  0.00000
2181  28918.000  -33.951431210   18.468552765    83.0507   6   7   0.2897   0.3119   0.6682   0.0798  -0.1749  -0.1735   0.00    0.0    0.00000    0.00000    0.00000   0.00000  0.00000  0.00000  0.00000  0.00000  0.00000
2181  28919.000  -33.951431219   18.468552755    83.0547   6   7   0.2886   0.3109   0.6660   0.0802  -0.1749  -0.1716   0.00    0.0    0.00000    0.00000    0.00000   0.00000  0.00000  0.00000  0.00000  0.00000  0.00000
2181  28920.000  -33.951431223   18.468552737    83.0568   6   7   0.2875   0.3100   0.6639   0.0806  -0.1748  -0.1697   0.00    0.0    0.00000    0.00000    0.00000   0.00000  0.00000  0.00000  0.00000  0.00000  0.00000
2181  28921.000  -33.951431232   18.468552729    83.0651   6   7   0.2864   0.3090   0.6617   0.0810  -0.1748  -0.1678   0.00    0.0    0.00000    0.00000    0.00000   0.00000  0.00000  0.00000  0.00000  0.00000  0.00000
2181  28922.000  -33.951431233   18.468552666    83.0712   6   7   0.2853   0.3081   0.6596   0.0814  -0.1747  -0.1660   0.00    0.0    0.00000    0.00000    0.00000   0.00000  0.00000  0.00000  0.00000  0.00000  0.00000
2181  28923.000  -33.951431231   18.468552613    83.0738   6   7   0.2842   0.3071   0.6575   0.0817  -0.1747  -0.1642   0.00    0.0    0.00000    0.00000    0.00000   0.00000  0.00000  0.00000  0.00000  0.00000  0.00000
2181  28924.000  -33.951431213   18.468552609    83.0839   6   7   0.2831   0.3062   0.6554   0.0820  -0.1746  -0.1624   0.00    0.0    0.00000    0.00000    0.00000   0.00000  0.00000  0.00000  0.00000  0.00000  0.00000
2181  28925.000  -33.951431234   18.468552582    83.0918   6   7   0.2821   0.3053   0.6533   0.0824  -0.1745  -0.1606   0.00    0.0    0.00000    0.00000    0.00000   0.00000  0.00000  0.00000  0.00000  0.00000  0.00000
2181  28926.000  -33.951431234   18.468552569    83.1012   6   7   0.2810   0.3044   0.6513   0.0826  -0.1744  -0.1589   0.00    0.0    0.00000    0.00000    0.00000   0.00000  0.00000  0.00000  0.00000  0.00000  0.00000
2181  28927.000  -33.951431251   18.468552484    83.1045   6   7   0.2800   0.3035   0.6493   0.0829  -0.1743  -0.1571   0.00    0.0    0.00000    0.00000    0.00000   0.00000  0.00000  0.00000  0.00000  0.00000  0.00000
2181  28928.000  -33.951431263   18.468552398    83.1057   6   7   0.2789   0.3026   0.6473   0.0832  -0.1742  -0.1554   0.00    0.0    0.00000    0.00000    0.00000   0.00000  0.00000  0.00000  0.00000  0.00000  0.00000
2181  28929.000  -33.951431317   18.468552365    83.1061   6   7   0.2779   0.3017   0.6453   0.0834  -0.1740  -0.1537   0.00    0.0    0.00000    0.00000    0.00000   0.00000  0.00000  0.00000  0.00000  0.00000  0.00000
2181  28930.000  -33.951431337   18.468552332    83.1106   6   7   0.2769   0.3008   0.6433   0.0836  -0.1739  -0.1520   0.00    0.0    0.00000    0.00000    0.00000   0.00000  0.00000  0.00000  0.00000  0.00000  0.00000
2181  28931.000  -33.951431372   18.468552336    83.1159   6   7   0.2759   0.3000   0.6414   0.0839  -0.1738  -0.1503   0.00    0.0    0.00000    0.00000    0.00000   0.00000  0.00000  0.00000  0.00000  0.00000  0.00000
2181  28932.000  -33.951431407   18.468552263    83.1207   6   7   0.2749   0.2991   0.6394   0.0841  -0.1736  -0.1486   0.00    0.0    0.00000    0.00000    0.00000   0.00000  0.00000  0.00000  0.00000  0.00000  0.00000
