% (lat/lon/height=WGS84/ellipsoidal,Q=1:fix,2:float,3:sbas,4:dgps,5:single,6:ppp,ns=# of satellites)
%  GPST          latitude(deg) longitude(deg)  height(m)   Q  ns   sdn(m)   sde(m)   sdu(m)  sdne(m)  sdeu(m)  sdun(m) age(s)  ratio    vn(m/s)    ve(m/s)    vu(m/s)      sdvn     sdve     sdvu    sdvne    sdveu    sdvun
2182 400264.000  -33.951432643   18.468550975    86.6333   6   7   5.2770   3.3570  12.7178  -2.0190  -2.4359   4.6166   0.00    0.0    0.00000    0.00000    0.00000   0.00000  0.00000  0.00000  0.00000  0.00000  0.00000
2182 400265.000  -33.951432559   18.468547725    85.8052   6   7   3.7495   2.3814   9.1204  -1.4373  -1.7554   3.3167   0.00    0.0    0.00000    0.00000    0.00000   0.00000  0.00000  0.00000  0.00000  0.00000  0.00000
2182 400266.000  -33.951432321   18.468547383    85.5325   6   7   3.0663   1.9465   7.4837  -1.1762  -1.4423   2.7226   0.00    0.0    0.00000    0.00000    0.00000   0.00000  0.00000  0.00000  0.00000  0.00000  0.00000
2182 400267.000  -33.951432633   18.468548728    85.4735   6   7   2.6576   1.6866   6.4979  -1.0197  -1.2530   2.3641   0.00    0.0    0.00000    0.00000    0.00000   0.00000  0.00000  0.00000  0.00000  0.00000  0.00000
2182 400268.000  -33.951434041   18.468548361    85.5269   6   7   2.3781   1.5090   5.8215  -0.9126  -1.1227   2.1179   0.00    0.0    0.00000    0.00000    0.00000   0.00000  0.00000  0.00000  0.00000  0.00000  0.00000
2182 400269.000  -33.951434137   18.468547781    85.3252   6   7   2.1715   1.3778   5.3205  -0.8334  -1.0260   1.9354   0.00    0.0    0.00000    0.00000    0.00000   0.00000  0.00000  0.00000  0.00000  0.00000  0.00000
2182 400270.000  -33.951433280   18.468548189    85.4980   6   7   2.0107   1.2757   4.9301  -0.7717  -0.9506   1.7931   0.00    0.0    0.00000    0.00000    0.00000   0.00000  0.00000  0.00000  0.00000  0.00000  0.00000
2182 400271.000  -33.951433739   18.468548830    84.9671   6   7   1.8811   1.1934   4.6149  -0.7220  -0.8896   1.6782   0.00    0.0    0.00000    0.00000    0.00000   0.00000  0.00000  0.00000  0.00000  0.00000  0.00000
2182 400272.000  -33.951434670   18.468549155    84.7981   6   7   1.7736   1.1253   4.3535  -0.6807  -0.8390   1.5828   0.00    0.0    0.00000    0.00000    0.00000   0.00000  0.00000  0.00000  0.00000  0.00000  0.00000
2182 400273.000  -33.951434498   18.468548629    84.6778   6   7   1.6827   1.0676   4.1320  -0.6458  -0.7961   1.5020   0.00    0.0    0.00000    0.00000    0.00000   0.00000  0.00000  0.00000  0.00000  0.00000  0.00000
2182 400274.000  -33.951435165   18.468548845    84.5136   6   7   1.6044   1.0179   3.9413  -0.6157  -0.7591   1.4324   0.00    0.0    0.00000    0.00000    0.00000   0.00000  0.00000  0.00000  0.00000  0.00000  0.00000
2182 400275.000  -33.951435116   18.468548952    84.2802   6   7   1.5360   0.9746   3.7749  -0.5895  -0.7268   1.3717   0.00    0.0    0.00000    0.00000    0.00000   0.00000  0.00000  0.00000  0.00000  0.00000  0.00000
2182 400276.000  -33.951435143   18.468548821    84.2064   6   7   1.4757   0.9363   3.6279  -0.5663  -0.6983   1.3181   0.00    0.0    0.00000    0.00000    0.00000   0.00000  0.00000  0.00000  0.00000  0.00000  0.00000
2182 400277.000  -33.951434732   18.468549040    84.2956   6   7   1.4220   0.9023   3.4968  -0.5456  -0.6728   1.2703   0.00    0.0    0.00000    0.00000    0.00000   0.00000  0.00000  0.00000  0.00000  0.00000  0.00000
2182 400278.000  -33.951434615   18.468549572    84.3806   6   7   1.3737   0.8717   3.3791  -0.5271  -0.6499   1.2273   0.00    0.0    0.00000    0.00000    0.00000   0.00000  0.00000  0.00000  0.00000  0.00000  0.00000
2182 400279.000  -33.951435213   18.468549800    84.3058   6   7   1.3300   0.8440   3.2724  -0.5102  -0.6291   1.1884   0.00    0.0    0.00000    0.00000    0.00000   0.00000  0.00000  0.00000  0.00000  0.00000  0.00000
2182 400280.000  -33.951435785   18.468549432    84.3717   6   7   1.2901   0.8188   3.1753  -0.4949  -0.6102   1.1530   0.00    0.0    0.00000    0.00000    0.00000   0.00000  0.00000  0.00000  0.00000  0.00000  0.00000
2182 400281.000  -33.951435796   18.468548873    84.3333   6   7   1.2537   0.7957   3.0863  -0.4809  -0.5929   1.1205   0.00    0.0    0.00000    0.00000    0.00000   0.00000  0.00000  0.00000  0.00000  0.00000  0.00000
2182 400282.000  -33.951435530   18.468548630    84.4073   6   7   1.2201   0.7744   3.0044  -0.4680  -0.5769   1.0906   0.00    0.0    0.00000    0.00000    0.00000   0.00000  0.00000  0.00000  0.00000  0.00000  0.00000
2182 400283.000  -33.951435992   18.468548713    84.2984   6   7   1.1891   0.7548   2.9286  -0.4560  -0.5621   1.0630   0.00    0.0    0.00000    0.00000    0.00000   0.00000  0.00000  0.00000  0.00000  0.00000  0.00000
2182 400284.000  -33.951436312   18.468548715    84.1842   6   7   1.1603   0.7366   2.8583  -0.4450  -0.5483   1.0374   0.00    0.0    0.00000    0.00000    0.00000   0.00000  0.00000  0.00000  0.00000  0.00000  0.00000
2182 400285.000  -33.951436303   18.468548530    84.1164   6   7   1.1335   0.7196   2.7928  -0.4346  -0.5355   1.0135   0.00    0.0    0.00000    0.00000    0.00000   0.00000  0.00000  0.00000  0.00000  0.00000  0.00000
2182 400286.000  -33.951436258   18.468548217    84.0292   6   7   1.1084   0.7038   2.7316  -0.4250  -0.5236   0.9912   0.00    0.0    0.00000    0.00000    0.00000   0.00000  0.00000  0.00000  0.00000  0.00000  0.00000
2182 400287.000  -33.951436401   18.468548079    83.8740   6   7   1.0850   0.6889   2.6742  -0.4159  -0.5123   0.9703   0.00    0.0    0.00000    0.00000    0.00000   0.00000  0.00000  0.00000  0.00000  0.00000  0.00000
2182 400288.000  -33.951436319   18.468547754    83.8344   6   7   1.0629   0.6750   2.6202  -0.4074  -0.5017   0.9507   0.00    0.0    0.00000    0.00000    0.00000   0.00000  0.00000  0.00000  0.00000  0.00000  0.00000
2182 400289.000  -33.951436525   18.468547871    83.7352   6   7   1.0421   0.6618   2.5693  -0.3994  -0.4918   0.9322   0.00    0.0    0.00000    0.00000    0.00000   0.00000  0.00000  0.00000  0.00000  0.00000  0.00000
2182 400290.000  -33.951436852   18.468547865    83.6030   6   7   1.0224   0.6494   2.5213  -0.3918  -0.4823   0.9147   0.00    0.0    0.00000    0.00000    0.00000   0.00000  0.00000  0.00000  0.00000  0.00000  0.00000
2182 400329.000  -33.951436581   18.468547861    83.5747   6   7   1.0010   0.6371   2.4606  -0.3828  -0.4687   0.8971   0.00    0.0    0.00000    0.00000    0.00000   0.00000  0.00000  0.00000  0.00000  0.00000  0.00000
2182 400330.000  -33.951436305   18.468547976    83.5962   6   7   0.9810   0.6255   2.4046  -0.3745  -0.4562   0.8804   0.00    0.0    0.00000    0.00000    0.00000   0.00000  0.00000  0.00000  0.00000  0.00000  0.00000
2182 400331.000  -33.951436456   18.468548094    83.6519   6   7   0.9622   0.6145   2.3528  -0.3667  -0.4446   0.8647   0.00    0.0    0.00000    0.00000    0.00000   0.00000  0.00000  0.00000  0.00000  0.00000  0.00000
2182 400332.000  -33.951435996   18.468548343    83.7348   6   7   0.9445   0.6041   2.3047  -0.3594  -0.4340   0.8498   0.00    0.0    0.00000    0.00000    0.00000   0.00000  0.00000  0.00000  0.00000  0.00000  0.00000
2182 400333.000  -33.951435837   18.468548549    83.7251   6   7   0.9277   0.5942   2.2597  -0.3526  -0.4241   0.8356   0.00    0.0    0.00000    0.00000    0.00000   0.00000  0.00000  0.00000  0.00000  0.00000  0.00000
2182 400334.000  -33.951436077   18.468548705    83.6637   6   7   0.9119   0.5848   2.2176  -0.3461  -0.4149   0.8221   0.00    0.0    0.00000    0.00000    0.00000   0.00000  0.00000  0.00000  0.00000  0.00000  0.00000
2182 400335.000  -33.951436070   18.468549040    83.6558   6   7   0.8969   0.5758   2.1779  -0.3400  -0.4063   0.8092   0.00    0.0    0.00000    0.00000    0.00000   0.00000  0.00000  0.00000  0.00000  0.00000  0.00000
2182 400336.000  -33.951435960   18.468549083    83.7249   6   7   0.8826   0.5673   2.1406  -0.3342  -0.3982   0.7970   0.00    0.0    0.00000    0.00000    0.00000   0.00000  0.00000  0.00000  0.00000  0.00000  0.00000
2182 400337.000  -33.951435911   18.468549324    83.7331   6   7   0.8691   0.5591   2.1052  -0.3288  -0.3907   0.7853   0.00    0.0    0.00000    0.00000    0.00000   0.00000  0.00000  0.00000  0.00000  0.00000  0.00000
2182 400338.000  -33.951435900   18.468549371    83.7425   6   7   0.8561   0.5513   2.0718  -0.3235  -0.3835   0.7740   0.00    0.0    0.00000    0.00000    0.00000   0.00000  0.00000  0.00000  0.00000  0.00000  0.00000
2182 400339.000  -33.951435781   18.468549599    83.7894   6   7   0.8437   0.5437   2.0400  -0.3186  -0.3767   0.7633   0.00    0.0    0.00000    0.00000    0.00000   0.00000  0.00000  0.00000  0.00000  0.00000  0.00000
2182 400340.000  -33.951435748   18.468549897    83.7824   6   7   0.8319   0.5365   2.0097  -0.3138  -0.3703   0.7530   0.00    0.0    0.00000    0.00000    0.00000   0.00000  0.00000  0.00000  0.00000  0.00000  0.00000
2182 400341.000  -33.951435793   18.468550149    83.8025   6   7   0.8205   0.5296   1.9808  -0.3093  -0.3642   0.7431   0.00    0.0    0.00000    0.00000    0.00000   0.00000  0.00000  0.00000  0.00000  0.00000  0.00000
2182 400342.000  -33.951435734   18.468550332    83.7625   6   7   0.8097   0.5229   1.9532  -0.3050  -0.3584   0.7335   0.00    0.0    0.00000    0.00000    0.00000   0.00000  0.00000  0.00000  0.00000  0.00000  0.00000
2182 400343.000  -33.951435611   18.468550640    83.7694   6   7   0.7992   0.5165   1.9268  -0.3008  -0.3529   0.7244   0.00    0.0    0.00000    0.00000    0.00000   0.00000  0.00000  0.00000  0.00000  0.00000  0.00000
2182 400344.000  -33.951435562   18.468550831    83.7905   6   7   0.7891   0.5103   1.9016  -0.2968  -0.3476   0.7155   0.00    0.0    0.00000    0.00000    0.00000   0.00000  0.00000  0.00000  0.00000  0.00000  0.00000
2182 400345.000  -33.951435353   18.468550845    83.7601   6   7   0.7794   0.5044   1.8773  -0.2930  -0.3425   0.7070   0.00    0.0    0.00000    0.00000    0.00000   0.00000  0.00000  0.00000  0.00000  0.00000  0.00000
2182 400346.000  -33.951435033   18.468550976    83.7243   6   7   0.7701   0.4986   1.8540  -0.2893  -0.3377   0.6988   0.00    0.0    0.00000    0.00000    0.00000   0.00000  0.00000  0.00000  0.00000  0.00000  0.00000
2182 400347.000  -33.951434888   18.468551199    83.7222   6   7   0.7611   0.4930   1.8315  -0.2857  -0.3330   0.6909   0.00    0.0    0.00000    0.00000    0.00000   0.00000  0.00000  0.00000  0.00000  0.00000  0.00000
2182 400348.000  -33.951434671   18.468551355    83.7082   6   7   0.7524   0.4876   1.8099  -0.2823  -0.3285   0.6832   0.00    0.0    0.00000    0.00000    0.00000   0.00000  0.00000  0.00000  0.00000  0.00000  0.00000
2182 400349.000  -33.951434511   18.468551555    83.7267   6   7   0.7440   0.4824   1.7890  -0.2789  -0.3242   0.6757   0.00    0.0    0.00000    0.00000    0.00000   0.00000  0.00000  0.00000  0.00000  0.00000  0.00000
2182 400350.000  -33.951434344   18.468551554    83.6942   6   7   0.7358   0.4774   1.7689  -0.2757  -0.3201   0.6685   0.00    0.0    0.00000    0.00000    0.00000   0.00000  0.00000  0.00000  0.00000  0.00000  0.00000
2182 400351.000  -33.951434262   18.468551676    83.7093   6   7   0.7279   0.4725   1.7495  -0.2726  -0.3161   0.6616   0.00    0.0    0.00000    0.00000    0.00000   0.00000  0.00000  0.00000  0.00000  0.00000  0.00000
2182 400352.000  -33.951433999   18.468551592    83.7233   6   7   0.7203   0.4677   1.7307  -0.2696  -0.3122   0.6548   0.00    0.0    0.00000    0.00000    0.00000   0.00000  0.00000  0.00000  0.00000  0.00000  0.00000
2182 400353.000  -33.951433712   18.468551596    83.7526   6   7   0.7129   0.4631   1.7124  -0.2667  -0.3085   0.6482   0.00    0.0    0.00000    0.00000    0.00000   0.00000  0.00000  0.00000  0.00000  0.00000  0.00000
2182 400354.000  -33.951433505   18.468551671    83.7905   6   7   0.7057   0.4586   1.6948  -0.2639  -0.3049   0.6419   0.00    0.0    0.00000    0.00000    0.00000   0.00000  0.00000  0.00000  0.00000  0.00000  0.00000
2182 400355.000  -33.951433364   18.468551744    83.8099   6   7   0.6987   0.4543   1.6777  -0.2611  -0.3014   0.6357   0.00    0.0    0.00000    0.00000    0.00000   0.00000  0.00000  0.00000  0.00000  0.00000  0.00000
2182 400356.000  -33.951433126   18.468551823    83.8208   6   7   0.6919   0.4500   1.6611  -0.2585  -0.2980   0.6296   0.00    0.0    0.00000    0.00000    0.00000   0.00000  0.00000  0.00000  0.00000  0.00000  0.00000
2182 400357.000  -33.951433044   18.468552016    83.8179   6   7   0.6853   0.4459   1.6450  -0.2559  -0.2947   0.6238   0.00    0.0    0.00000    0.00000    0.00000   0.00000  0.00000  0.00000  0.00000  0.00000  0.00000
2182 400358.000  -33.951432954   18.468552047    83.7556   6   7   0.6789   0.4419   1.6293  -0.2534  -0.2915   0.6181   0.00    0.0    0.00000    0.00000    0.00000   0.00000  0.00000  0.00000  0.00000  0.00000  0.00000
2182 400359.000  -33.951432821   18.468552065    83.7289   6   7   0.6727   0.4380   1.6141  -0.2509  -0.2884   0.6125   0.00    0.0    0.00000    0.00000    0.00000   0.00000  0.00000  0.00000  0.00000  0.00000  0.00000
2182 400360.000  -33.951432789   18.468552022    83.7349   6   7   0.6666   0.4342   1.5992  -0.2486  -0.2854   0.6071   0.00    0.0    0.00000    0.00000    0.00000   0.00000  0.00000  0.00000  0.00000  0.00000  0.00000
2182 400361.000  -33.951432734   18.468552173    83.7146   6   7   0.6606   0.4305   1.5848  -0.2462  -0.2825   0.6019   0.00    0.0    0.00000    0.00000    0.00000   0.00000  0.00000  0.00000  0.00000  0.00000  0.00000
2182 400362.000  -33.951432679   18.468552338    83.7135   6   7   0.6549   0.4269   1.5707  -0.2440  -0.2797   0.5967   0.00    0.0    0.00000    0.00000    0.00000   0.00000  0.00000  0.00000  0.00000  0.00000  0.00000
2182 400363.000  -33.951432490   18.468552470    83.7258   6   7   0.6492   0.4234   1.5570  -0.2418  -0.2769   0.5917   0.00    0.0    0.00000    0.00000    0.00000   0.00000  0.00000  0.00000  0.00000  0.00000  0.00000
2182 400364.000  -33.951432326   18.468552545    83.7524   6   7   0.6437   0.4199   1.5437  -0.2396  -0.2742   0.5868   0.00    0.0    0.00000    0.00000    0.00000   0.00000  0.00000  0.00000  0.00000  0.00000  0.00000
2182 400365.000  -33.951432147   18.468552631    83.7475   6   7   0.6383   0.4166   1.5306  -0.2375  -0.2715   0.5820   0.00    0.0    0.00000    0.00000    0.00000   0.00000  0.00000  0.00000  0.00000  0.00000  0.00000
2182 400366.000  -33.951432001   18.468552664    83.7606   6   7   0.6331   0.4133   1.5179  -0.2355  -0.2690   0.5774   0.00    0.0    0.00000    0.00000    0.00000   0.00000  0.00000  0.00000  0.00000  0.00000  0.00000
2182 400367.000  -33.951431924   18.468552651    83.7943   6   7   0.6280   0.4101   1.5054  -0.2335  -0.2664   0.5728   0.00    0.0    0.00000    0.00000    0.00000   0.00000  0.00000  0.00000  0.00000  0.00000  0.00000
2182 400368.000  -33.951431785   18.468552694    83.8265   6   7   0.6230   0.4070   1.4933  -0.2315  -0.2640   0.5684   0.00    0.0    0.00000    0.00000    0.00000   0.00000  0.00000  0.00000  0.00000  0.00000  0.00000
2182 400369.000  -33.951431643   18.468552662    83.8560   6   7   0.6181   0.4039   1.4814  -0.2296  -0.2616   0.5640   0.00    0.0    0.00000    0.00000    0.00000   0.00000  0.00000  0.00000  0.00000  0.00000  0.00000
2182 400370.000  -33.951431523   18.468552587    83.8626   6   7   0.6133   0.4009   1.4698  -0.2277  -0.2592   0.5597   0.00    0.0    0.00000    0.00000    0.00000   0.00000  0.00000  0.00000  0.00000  0.00000  0.00000
2182 400371.000  -33.951431370   18.468552586    83.8687   6   7   0.6086   0.3980   1.4584  -0.2259  -0.2570   0.5556   0.00    0.0    0.00000    0.00000    0.00000   0.00000  0.00000  0.00000  0.00000  0.00000  0.00000
2182 400372.000  -33.951431228   18.468552618    83.8860   6   7   0.6040   0.3951   1.4473  -0.2241  -0.2547   0.5515   0.00    0.0    0.00000    0.00000    0.00000   0.00000  0.00000  0.00000  0.00000  0.00000  0.00000
2182 400373.000  -33.951431151   18.468552554    83.9191   6   7   0.5995   0.3923   1.4364  -0.2223  -0.2525   0.5475   0.00    0.0    0.00000    0.00000    0.00000   0.00000  0.00000  0.00000  0.00000  0.00000  0.00000
2182 400374.000  -33.951431032   18.468552559    83.9509   6   7   0.5951   0.3895   1.4258  -0.2206  -0.2504   0.5436   0.00    0.0    0.00000    0.00000    0.00000   0.00000  0.00000  0.00000  0.00000  0.00000  0.00000
2182 400375.000  -33.951430828   18.468552607    83.9753   6   7   0.5907   0.3868   1.4153  -0.2189  -0.2482   0.5397   0.00    0.0    0.00000    0.00000    0.00000   0.00000  0.00000  0.00000  0.00000  0.00000  0.00000
2182 400376.000  -33.951430763   18.468552652    83.9833   6   7   0.5865   0.3842   1.4051  -0.2172  -0.2462   0.5360   0.00    0.0    0.00000    0.00000    0.00000   0.00000  0.00000  0.00000  0.00000  0.00000  0.00000
2182 400377.000  -33.951430661   18.468552588    83.9968   6   7   0.5824   0.3816   1.3950  -0.2156  -0.2441   0.5323   0.00    0.0    0.00000    0.00000    0.00000   0.00000  0.00000  0.00000  0.00000  0.00000  0.00000
2182 400378.000  -33.951430615   18.468552662    83.9853   6   7   0.5783   0.3791   1.3852  -0.2140  -0.2422   0.5287   0.00    0.0    0.00000    0.00000    0.00000   0.00000  0.00000  0.00000  0.00000  0.00000  0.00000
2182 400379.000  -33.951430496   18.468552618    83.9834   6   7   0.5743   0.3766   1.3755  -0.2124  -0.2402   0.5251   0.00    0.0    0.00000    0.00000    0.00000   0.00000  0.00000  0.00000  0.00000  0.00000  0.00000
2182 400380.000  -33.951430395   18.468552589    83.9822   6   7   0.5704   0.3741   1.3660  -0.2109  -0.2383   0.5217   0.00    0.0    0.00000    0.00000    0.00000   0.00000  0.00000  0.00000  0.00000  0.00000  0.00000
2182 400381.000  -33.951430423   18.468552642    83.9839   6   7   0.5665   0.3717   1.3567  -0.2094  -0.2364   0.5182   0.00    0.0    0.00000    0.00000    0.00000   0.00000  0.00000  0.00000  0.00000  0.00000  0.00000
2182 400382.000  -33.951430421   18.468552588    83.9766   6   7   0.5627   0.3694   1.3476  -0.2079  -0.2346   0.5149   0.00    0.0    0.00000    0.00000    0.00000   0.00000  0.00000  0.00000  0.00000  0.00000  0.00000
2182 400383.000  -33.951430473   18.468552549    83.9743   6   7   0.5590   0.3670   1.3386  -0.2065  -0.2327   0.5116   0.00    0.0    0.00000    0.00000    0.00000   0.00000  0.00000  0.00000  0.00000  0.00000  0.00000
2182 400384.000  -33.951430576   18.468552510    83.9584   6   7   0.5554   0.3648   1.3298  -0.2050  -0.2310   0.5084   0.00    0.0    0.00000    0.00000    0.00000   0.00000  0.00000  0.00000  0.00000  0.00000  0.00000
2182 400385.000  -33.951430531   18.468552519    83.9664   6   7   0.5518   0.3625   1.3211  -0.2036  -0.2292   0.5052   0.00    0.0    0.00000    0.00000    0.00000   0.00000  0.00000  0.00000  0.00000  0.00000  0.00000
2182 400386.000  -33.951430529   18.468552480    83.9543   6   7   0.5483   0.3604   1.3126  -0.2022  -0.2275   0.5021   0.00    0.0    0.00000    0.00000    0.00000   0.00000  0.00000  0.00000  0.00000  0.00000  0.00000
2182 400387.000  -33.951430575   18.468552493    83.9625   6   7   0.5448   0.3582   1.3042  -0.2009  -0.2258   0.4990   0.00    0.0    0.00000    0.00000    0.00000   0.00000  0.00000  0.00000  0.00000  0.00000  0.00000
2182 400388.000  -33.951430683   18.468552648    83.9424   6   7   0.5414   0.3561   1.2959  -0.1995  -0.2241   0.4960   0.00    0.0    0.00000    0.00000    0.00000   0.00000  0.00000  0.00000  0.00000  0.00000  0.00000
2182 400389.000  -33.951430748   18.468552686    83.9192   6   7   0.5380   0.3540   1.2878  -0.1982  -0.2225   0.4930   0.00    0.0    0.00000    0.00000    0.00000   0.00000  0.00000  0.00000  0.00000  0.00000  0.00000
2182 400390.000  -33.951430687   18.468552728    83.9052   6   7   0.5347   0.3520   1.2798  -0.1969  -0.2208   0.4901   0.00    0.0    0.00000    0.00000    0.00000   0.00000  0.00000  0.00000  0.00000  0.00000  0.00000
2182 400391.000  -33.951430764   18.468552782    83.8857   6   7   0.5315   0.3499   1.2720  -0.1956  -0.2192   0.4872   0.00    0.0    0.00000    0.00000    0.00000   0.00000  0.00000  0.00000  0.00000  0.00000  0.00000
2182 400392.000  -33.951430785   18.468552763    83.8860   6   7   0.5283   0.3480   1.2643  -0.1944  -0.2177   0.4844   0.00    0.0    0.00000    0.00000    0.00000   0.00000  0.00000  0.00000  0.00000  0.00000  0.00000
2182 400393.000  -33.951430857   18.468552738    83.8675   6   7   0.5252   0.3460   1.2567  -0.1931  -0.2161   0.4816   0.00    0.0    0.00000    0.00000    0.00000   0.00000  0.00000  0.00000  0.00000  0.00000  0.00000
2182 400394.000  -33.951430882   18.468552761    83.8690   6   7   0.5221   0.3441   1.2492  -0.1919  -0.2146   0.4789   0.00    0.0    0.00000    0.00000    0.00000   0.00000  0.00000  0.00000  0.00000  0.00000  0.00000
2182 400395.000  -33.951430825   18.468552765    83.8569   6   7   0.5190   0.3422   1.2418  -0.1907  -0.2131   0.4762   0.00    0.0    0.00000    0.00000    0.00000   0.00000  0.00000  0.00000  0.00000  0.00000  0.00000
2182 400396.000  -33.951430832   18.468552733    83.8579   6   7   0.5160   0.3404   1.2345  -0.1895  -0.2116   0.4735   0.00    0.0    0.00000    0.00000    0.00000   0.00000  0.00000  0.00000  0.00000  0.00000  0.00000
2182 400397.000  -33.951430819   18.468552632    83.8447   6   7   0.5131   0.3385   1.2273  -0.1883  -0.2102   0.4709   0.00    0.0    0.00000    0.00000    0.00000   0.00000  0.00000  0.00000  0.00000  0.00000  0.00000
2182 400398.000  -33.951430820   18.468552647    83.8322   6   7   0.5101   0.3367   1.2203  -0.1872  -0.2087   0.4684   0.00    0.0    0.00000    0.00000    0.00000   0.00000  0.00000  0.00000  0.00000  0.00000  0.00000
2182 400399.000  -33.951430911   18.468552616    83.8263   6   7   0.5073   0.3350   1.2133  -0.1860  -0.2073   0.4658   0.00    0.0    0.00000    0.00000    0.00000   0.00000  0.00000  0.00000  0.00000  0.00000  0.00000
2182 400400.000  -33.951431027   18.468552589    83.7918   6   7   0.5044   0.3332   1.2065  -0.1849  -0.2059   0.4633   0.00    0.0    0.00000    0.00000    0.00000   0.00000  0.00000  0.00000  0.00000  0.00000  0.00000
2182 400401.000  -33.951431037   18.468552581    83.7865   6   7   0.5017   0.3315   1.1997  -0.1838  -0.2045   0.4609   0.00    0.0    0.00000    0.00000    0.00000   0.00000  0.00000  0.00000  0.00000  0.00000  0.00000
2182 400402.000  -33.951431054   18.468552498    83.7606   6   7   0.4989   0.3298   1.1930  -0.1827  -0.2031   0.4584   0.00    0.0    0.00000    0.00000    0.00000   0.00000  0.00000  0.00000  0.00000  0.00000  0.00000
2182 400403.000  -33.951431057   18.468552479    83.7639   6   7   0.4962   0.3281   1.1864  -0.1816  -0.2018   0.4560   0.00    0.0    0.00000    0.00000    0.00000   0.00000  0.00000  0.00000  0.00000  0.00000  0.00000
2182 400404.000  -33.951431104   18.468552482    83.7562   6   7   0.4935   0.3265   1.1799  -0.1806  -0.2005   0.4537   0.00    0.0    0.00000    0.00000    0.00000   0.00000  0.00000  0.00000  0.00000  0.00000  0.00000
2182 400405.000  -33.951431103   18.468552461    83.7603   6   7   0.4909   0.3249   1.1735  -0.1795  -0.1991   0.4514   0.00    0.0    0.00000    0.00000    0.00000   0.00000  0.00000  0.00000  0.00000  0.00000  0.00000
2182 400406.000  -33.951431161   18.468552398    83.7346   6   7   0.4883   0.3233   1.1672  -0.1785  -0.1978   0.4491   0.00    0.0    0.00000    0.00000    0.00000   0.00000  0.00000  0.00000  0.00000  0.00000  0.00000
2182 400407.000  -33.951431199   18.468552344    83.7061   6   7   0.4857   0.3217   1.1610  -0.1775  -0.1966   0.4468   0.00    0.0    0.00000    0.00000    0.00000   0.00000  0.00000  0.00000  0.00000  0.00000  0.00000
2182 400408.000  -33.951431315   18.468552307    83.6818   6   7   0.4832   0.3201   1.1548  -0.1764  -0.1953   0.4446   0.00    0.0    0.00000    0.00000    0.00000   0.00000  0.00000  0.00000  0.00000  0.00000  0.00000
2182 400409.000  -33.951431297   18.468552268    83.6904   6   7   0.4806   0.3186   1.1487  -0.1754  -0.1940   0.4424   0.00    0.0    0.00000    0.00000    0.00000   0.00000  0.00000  0.00000  0.00000  0.00000  0.00000
2182 400410.000  -33.951431363   18.468552299    83.6868   6   7   0.4782   0.3171   1.1427  -0.1745  -0.1928   0.4402   0.00    0.0    0.00000    0.00000    0.00000   0.00000  0.00000  0.00000  0.00000  0.00000  0.00000
2182 400411.000  -33.951431362   18.468552288    83.6875   6   7   0.4757   0.3156   1.1368  -0.1735  -0.1916   0.4381   0.00    0.0    0.00000    0.00000    0.00000   0.00000  0.00000  0.00000  0.00000  0.00000  0.00000
2182 400412.000  -33.951431385   18.468552307    83.6793   6   7   0.4733   0.3141   1.1309  -0.1725  -0.1904   0.4359   0.00    0.0    0.00000    0.00000    0.00000   0.00000  0.00000  0.00000  0.00000  0.00000  0.00000
2182 400413.000  -33.951431448   18.468552290    83.6604   6   7   0.4709   0.3126   1.1252  -0.1716  -0.1892   0.4338   0.00    0.0    0.00000    0.00000    0.00000   0.00000  0.00000  0.00000  0.00000  0.00000  0.00000
2182 400414.000  -33.951431487   18.468552223    83.6455   6   7   0.4686   0.3112   1.1194  -0.1706  -0.1880   0.4318   0.00    0.0    0.00000    0.00000    0.00000   0.00000  0.00000  0.00000  0.00000  0.00000  0.00000
2182 400415.000  -33.951431508   18.468552175    83.6146   6   7   0.4663   0.3098   1.1138  -0.1697  -0.1868   0.4297   0.00    0.0    0.00000    0.00000    0.00000   0.00000  0.00000  0.00000  0.00000  0.00000  0.00000
2182 400416.000  -33.951431514   18.468552074    83.5987   6   7   0.4640   0.3084   1.1082  -0.1688  -0.1857   0.4277   0.00    0.0    0.00000    0.00000    0.00000   0.00000  0.00000  0.00000  0.00000  0.00000  0.00000
2182 400417.000  -33.951431532   18.468552039    83.5887   6   7   0.4617   0.3070   1.1027  -0.1678  -0.1845   0.4257   0.00    0.0    0.00000    0.00000    0.00000   0.00000  0.00000  0.00000  0.00000  0.00000  0.00000
2182 400418.000  -33.951431529   18.468551961    83.5897   6   7   0.4595   0.3056   1.0972  -0.1669  -0.1834   0.4238   0.00    0.0    0.00000    0.00000    0.00000   0.00000  0.00000  0.00000  0.00000  0.00000  0.00000
2182 400419.000  -33.951431570   18.468551965    83.5819   6   7   0.4572   0.3043   1.0919  -0.1660  -0.1823   0.4218   0.00    0.0    0.00000    0.00000    0.00000   0.00000  0.00000  0.00000  0.00000  0.00000  0.00000
2182 400420.000  -33.951431588   18.468551928    83.5763   6   7   0.4551   0.3030   1.0865  -0.1652  -0.1812   0.4199   0.00    0.0    0.00000    0.00000    0.00000   0.00000  0.00000  0.00000  0.00000  0.00000  0.00000
2182 400421.000  -33.951431517   18.468551837    83.5861   6   7   0.4529   0.3016   1.0813  -0.1643  -0.1801   0.4180   0.00    0.0    0.00000    0.00000    0.00000   0.00000  0.00000  0.00000  0.00000  0.00000  0.00000
2182 400422.000  -33.951431564   18.468551796    83.5777   6   7   0.4507   0.3003   1.0761  -0.1634  -0.1790   0.4161   0.00    0.0    0.00000    0.00000    0.00000   0.00000  0.00000  0.00000  0.00000  0.00000  0.00000
2182 400423.000  -33.951431646   18.468551752    83.5704   6   7   0.4486   0.2991   1.0709  -0.1626  -0.1779   0.4143   0.00    0.0    0.00000    0.00000    0.00000   0.00000  0.00000  0.00000  0.00000  0.00000  0.00000
2182 400424.000  -33.951431758   18.468551709    83.5444   6   7   0.4465   0.2978   1.0658  -0.1617  -0.1769   0.4125   0.00    0.0    0.00000    0.00000    0.00000   0.00000  0.00000  0.00000  0.00000  0.00000  0.00000
2182 400425.000  -33.951431771   18.468551734    83.5413   6   7   0.4445   0.2965   1.0608  -0.1609  -0.1758   0.4106   0.00    0.0    0.00000    0.00000    0.00000   0.00000  0.00000  0.00000  0.00000  0.00000  0.00000
2182 400426.000  -33.951431871   18.468551717    83.5297   6   7   0.4424   0.2953   1.0558  -0.1601  -0.1748   0.4089   0.00    0.0    0.00000    0.00000    0.00000   0.00000  0.00000  0.00000  0.00000  0.00000  0.00000
2182 400427.000  -33.951431896   18.468551725    83.5267   6   7   0.4404   0.2941   1.0509  -0.1592  -0.1737   0.4071   0.00    0.0    0.00000    0.00000    0.00000   0.00000  0.00000  0.00000  0.00000  0.00000  0.00000
2182 400428.000  -33.951431950   18.468551713    83.5125   6   7   0.4384   0.2929   1.0460  -0.1584  -0.1727   0.4053   0.00    0.0    0.00000    0.00000    0.00000   0.00000  0.00000  0.00000  0.00000  0.00000  0.00000
2182 400429.000  -33.951431992   18.468551663    83.5066   6   7   0.4364   0.2917   1.0412  -0.1576  -0.1717   0.4036   0.00    0.0    0.00000    0.00000    0.00000   0.00000  0.00000  0.00000  0.00000  0.00000  0.00000
2182 400430.000  -33.951432063   18.468551691    83.5041   6   7   0.4344   0.2905   1.0364  -0.1568  -0.1707   0.4019   0.00    0.0    0.00000    0.00000    0.00000   0.00000  0.00000  0.00000  0.00000  0.00000  0.00000
2182 400431.000  -33.951432126   18.468551678    83.4862   6   7   0.4325   0.2893   1.0316  -0.1560  -0.1697   0.4002   0.00    0.0    0.00000    0.00000    0.00000   0.00000  0.00000  0.00000  0.00000  0.00000  0.00000
2182 400432.000  -33.951432220   18.468551684    83.4750   6   7   0.4306   0.2882   1.0270  -0.1552  -0.1687   0.3985   0.00    0.0    0.00000    0.00000    0.00000   0.00000  0.00000  0.00000  0.00000  0.00000  0.00000
2182 400433.000  -33.951432224   18.468551724    83.4705   6   7   0.4287   0.2870   1.0223  -0.1545  -0.1677   0.3968   0.00    0.0    0.00000    0.00000    0.00000   0.00000  0.00000  0.00000  0.00000  0.00000  0.00000
2182 400434.000  -33.951432311   18.468551771    83.4657   6   7   0.4268   0.2859   1.0178  -0.1537  -0.1668   0.3952   0.00    0.0    0.00000    0.00000    0.00000   0.00000  0.00000  0.00000  0.00000  0.00000  0.00000
2182 400435.000  -33.951432329   18.468551792    83.4662   6   7   0.4249   0.2848   1.0132  -0.1529  -0.1658   0.3936   0.00    0.0    0.00000    0.00000    0.00000   0.00000  0.00000  0.00000  0.00000  0.00000  0.00000
2182 400436.000  -33.951432427   18.468551821    83.4511   6   7   0.4231   0.2837   1.0087  -0.1522  -0.1648   0.3920   0.00    0.0    0.00000    0.00000    0.00000   0.00000  0.00000  0.00000  0.00000  0.00000  0.00000
2182 400437.000  -33.951432442   18.468551832    83.4531   6   7   0.4213   0.2826   1.0043  -0.1514  -0.1639   0.3904   0.00    0.0    0.00000    0.00000    0.00000   0.00000  0.00000  0.00000  0.00000  0.00000  0.00000
2182 400438.000  -33.951432506   18.468551869    83.4432   6   7   0.4195   0.2815   0.9999  -0.1507  -0.1630   0.3888   0.00    0.0    0.00000    0.00000    0.00000   0.00000  0.00000  0.00000  0.00000  0.00000  0.00000
2182 400439.000  -33.951432577   18.468551871    83.4307   6   7   0.4177   0.2804   0.9955  -0.1499  -0.1620   0.3872   0.00    0.0    0.00000    0.00000    0.00000   0.00000  0.00000  0.00000  0.00000  0.00000  0.00000
2182 400440.000  -33.951432586   18.468551912    83.4311   6   7   0.4159   0.2794   0.9912  -0.1492  -0.1611   0.3857   0.00    0.0    0.00000    0.00000    0.00000   0.00000  0.00000  0.00000  0.00000  0.00000  0.00000
2182 400441.000  -33.951432667   18.468551956    83.4300   6   7   0.4141   0.2783   0.9869  -0.1485  -0.1602   0.3842   0.00    0.0    0.00000    0.00000    0.00000   0.00000  0.00000  0.00000  0.00000  0.00000  0.00000
2182 400442.000  -33.951432714   18.468552011    83.4333   6   7   0.4124   0.2773   0.9827  -0.1478  -0.1593   0.3826   0.00    0.0    0.00000    0.00000    0.00000   0.00000  0.00000  0.00000  0.00000  0.00000  0.00000
2182 400443.000  -33.951432805   18.468552044    83.4235   6   7   0.4107   0.2762   0.9785  -0.1471  -0.1584   0.3811   0.00    0.0    0.00000    0.00000    0.00000   0.00000  0.00000  0.00000  0.00000  0.00000  0.00000
2182 400444.000  -33.951432843   18.468552111    83.4240   6   7   0.4090   0.2752   0.9743  -0.1464  -0.1575   0.3796   0.00    0.0    0.00000    0.00000    0.00000   0.00000  0.00000  0.00000  0.00000  0.00000  0.00000
2182 400445.000  -33.951432884   18.468552099    83.4139   6   7   0.4073   0.2742   0.9702  -0.1457  -0.1566   0.3782   0.00    0.0    0.00000    0.00000    0.00000   0.00000  0.00000  0.00000  0.00000  0.00000  0.00000
2182 400446.000  -33.951432954   18.468552087    83.4006   6   7   0.4056   0.2732   0.9661  -0.1450  -0.1558   0.3767   0.00    0.0    0.00000    0.00000    0.00000   0.00000  0.00000  0.00000  0.00000  0.00000  0.00000
2182 400447.000  -33.951432989   18.468552084    83.3897   6   7   0.4039   0.2722   0.9620  -0.1443  -0.1549   0.3753   0.00    0.0    0.00000    0.00000    0.00000   0.00000  0.00000  0.00000  0.00000  0.00000  0.00000
2182 400448.000  -33.951432978   18.468552080    83.3973   6   7   0.4023   0.2713   0.9580  -0.1436  -0.1540   0.3738   0.00    0.0    0.00000    0.00000    0.00000   0.00000  0.00000  0.00000  0.00000  0.00000  0.00000
2182 400449.000  -33.951433004   18.468552100    83.3857   6   7   0.4007   0.2703   0.9540  -0.1429  -0.1532   0.3724   0.00    0.0    0.00000    0.00000    0.00000   0.00000  0.00000  0.00000  0.00000  0.00000  0.00000
2182 400450.000  -33.951433017   18.468552111    83.3839   6   7   0.3990   0.2693   0.9501  -0.1422  -0.1523   0.3710   0.00    0.0    0.00000    0.00000    0.00000   0.00000  0.00000  0.00000  0.00000  0.00000  0.00000
2182 400451.000  -33.951433008   18.468552091    83.3856   6   7   0.3974   0.2684   0.9462  -0.1416  -0.1515   0.3696   0.00    0.0    0.00000    0.00000    0.00000   0.00000  0.00000  0.00000  0.00000  0.00000  0.00000
2182 400452.000  -33.951433015   18.468552087    83.3845   6   7   0.3958   0.2674   0.9423  -0.1409  -0.1507   0.3682   0.00    0.0    0.00000    0.00000    0.00000   0.00000  0.00000  0.00000  0.00000  0.00000  0.00000
2182 400453.000  -33.951433037   18.468552097    83.3833   6   7   0.3943   0.2665   0.9385  -0.1403  -0.1498   0.3668   0.00    0.0    0.00000    0.00000    0.00000   0.00000  0.00000  0.00000  0.00000  0.00000  0.00000
2182 400454.000  -33.951433021   18.468552133    83.3825   6   7   0.3927   0.2656   0.9347  -0.1396  -0.1490   0.3655   0.00    0.0    0.00000    0.00000    0.00000   0.00000  0.00000  0.00000  0.00000  0.00000  0.00000
2182 400455.000  -33.951433041   18.468552133    83.3938   6   7   0.3912   0.2647   0.9309  -0.1390  -0.1482   0.3641   0.00    0.0    0.00000    0.00000    0.00000   0.00000  0.00000  0.00000  0.00000  0.00000  0.00000
2182 400456.000  -33.951433089   18.468552185    83.3896   6   7   0.3896   0.2638   0.9272  -0.1383  -0.1474   0.3628   0.00    0.0    0.00000    0.00000    0.00000   0.00000  0.00000  0.00000  0.00000  0.00000  0.00000
2182 400457.000  -33.951433111   18.468552225    83.3842   6   7   0.3881   0.2629   0.9235  -0.1377  -0.1466   0.3615   0.00    0.0    0.00000    0.00000    0.00000   0.00000  0.00000  0.00000  0.00000  0.00000  0.00000
2182 400458.000  -33.951433153   18.468552311    83.3973   6   7   0.3866   0.2620   0.9198  -0.1370  -0.1458   0.3602   0.00    0.0    0.00000    0.00000    0.00000   0.00000  0.00000  0.00000  0.00000  0.00000  0.00000
2182 400459.000  -33.951433223   18.468552359    83.3979   6   7   0.3851   0.2611   0.9162  -0.1364  -0.1450   0.3589   0.00    0.0    0.00000    0.00000    0.00000   0.00000  0.00000  0.00000  0.00000  0.00000  0.00000
2182 400460.000  -33.951433276   18.468552414    83.3953   6   7   0.3836   0.2602   0.9126  -0.1358  -0.1442   0.3576   0.00    0.0    0.00000    0.00000    0.00000   0.00000  0.00000  0.00000  0.00000  0.00000  0.00000
2182 400461.000  -33.951433257   18.468552467    83.3977   6   7   0.3821   0.2594   0.9090  -0.1352  -0.1434   0.3563   0.00    0.0    0.00000    0.00000    0.00000   0.00000  0.00000  0.00000  0.00000  0.00000  0.00000
2182 400462.000  -33.951433257   18.468552481    83.4081   6   7   0.3807   0.2585   0.9054  -0.1345  -0.1426   0.3550   0.00    0.0    0.00000    0.00000    0.00000   0.00000  0.00000  0.00000  0.00000  0.00000  0.00000
2182 400463.000  -33.951433255   18.468552527    83.4205   6   7   0.3792   0.2577   0.9019  -0.1339  -0.1419   0.3537   0.00    0.0    0.00000    0.00000    0.00000   0.00000  0.00000  0.00000  0.00000  0.00000  0.00000
2182 400464.000  -33.951433267   18.468552557    83.4287   6   7   0.3778   0.2568   0.8984  -0.1333  -0.1411   0.3525   0.00    0.0    0.00000    0.00000    0.00000   0.00000  0.00000  0.00000  0.00000  0.00000  0.00000
2182 400465.000  -33.951433273   18.468552579    83.4367   6   7   0.3764   0.2560   0.8949  -0.1327  -0.1404   0.3513   0.00    0.0    0.00000    0.00000    0.00000   0.00000  0.00000  0.00000  0.00000  0.00000  0.00000
2182 400466.000  -33.951433307   18.468552593    83.4398   6   7   0.3749   0.2552   0.8915  -0.1321  -0.1396   0.3500   0.00    0.0    0.00000    0.00000    0.00000   0.00000  0.00000  0.00000  0.00000  0.00000  0.00000
2182 400467.000  -33.951433321   18.468552634    83.4432   6   7   0.3735   0.2543   0.8881  -0.1315  -0.1388   0.3488   0.00    0.0    0.00000    0.00000    0.00000   0.00000  0.00000  0.00000  0.00000  0.00000  0.00000
2182 400468.000  -33.951433357   18.468552654    83.4476   6   7   0.3721   0.2535   0.8847  -0.1309  -0.1381   0.3476   0.00    0.0    0.00000    0.00000    0.00000   0.00000  0.00000  0.00000  0.00000  0.00000  0.00000
2182 400469.000  -33.951433392   18.468552693    83.4448   6   7   0.3708   0.2527   0.8813  -0.1304  -0.1374   0.3464   0.00    0.0    0.00000    0.00000    0.00000   0.00000  0.00000  0.00000  0.00000  0.00000  0.00000
2182 400470.000  -33.951433400   18.468552711    83.4353   6   7   0.3694   0.2519   0.8780  -0.1298  -0.1366   0.3452   0.00    0.0    0.00000    0.00000    0.00000   0.00000  0.00000  0.00000  0.00000  0.00000  0.00000
2182 400471.000  -33.951433444   18.468552746    83.4291   6   7   0.3680   0.2511   0.8747  -0.1292  -0.1359   0.3440   0.00    0.0    0.00000    0.00000    0.00000   0.00000  0.00000  0.00000  0.00000  0.00000  0.00000
2182 400472.000  -33.951433459   18.468552782    83.4294   6   7   0.3667   0.2503   0.8714  -0.1286  -0.1352   0.3428   0.00    0.0    0.00000    0.00000    0.00000   0.00000  0.00000  0.00000  0.00000  0.00000  0.00000
2182 400473.000  -33.951433457   18.468552819    83.4341   6   7   0.3653   0.2496   0.8682  -0.1280  -0.1345   0.3417   0.00    0.0    0.00000    0.00000    0.00000   0.00000  0.00000  0.00000  0.00000  0.00000  0.00000
2182 400474.000  -33.951433436   18.468552865    83.4385   6   7   0.3640   0.2488   0.8650  -0.1275  -0.1337   0.3405   0.00    0.0    0.00000    0.00000    0.00000   0.00000  0.00000  0.00000  0.00000  0.00000  0.00000
2182 400475.000  -33.951433477   18.468552883    83.4486   6   7   0.3627   0.2480   0.8618  -0.1269  -0.1330   0.3394   0.00    0.0    0.00000    0.00000    0.00000   0.00000  0.00000  0.00000  0.00000  0.00000  0.00000
2182 400476.000  -33.951433479   18.468552921    83.4472   6   7   0.3614   0.2473   0.8586  -0.1264  -0.1323   0.3382   0.00    0.0    0.00000    0.00000    0.00000   0.00000  0.00000  0.00000  0.00000  0.00000  0.00000
2182 400477.000  -33.951433466   18.468552952    83.4366   6   7   0.3601   0.2465   0.8554  -0.1258  -0.1316   0.3371   0.00    0.0    0.00000    0.00000    0.00000   0.00000  0.00000  0.00000  0.00000  0.00000  0.00000
2182 400478.000  -33.951433491   18.468552974    83.4371   6   7   0.3588   0.2458   0.8523  -0.1252  -0.1309   0.3360   0.00    0.0    0.00000    0.00000    0.00000   0.00000  0.00000  0.00000  0.00000  0.00000  0.00000
2182 400479.000  -33.951433506   18.468552955    83.4348   6   7   0.3575   0.2450   0.8492  -0.1247  -0.1302   0.3348   0.00    0.0    0.00000    0.00000    0.00000   0.00000  0.00000  0.00000  0.00000  0.00000  0.00000
2182 400480.000  -33.951433522   18.468552954    83.4360   6   7   0.3562   0.2443   0.8461  -0.1241  -0.1295   0.3337   0.00    0.0    0.00000    0.00000    0.00000   0.00000  0.00000  0.00000  0.00000  0.00000  0.00000
2182 400481.000  -33.951433501   18.468552959    83.4401   6   7   0.3550   0.2435   0.8431  -0.1236  -0.1289   0.3326   0.00    0.0    0.00000    0.00000    0.00000   0.00000  0.00000  0.00000  0.00000  0.00000  0.00000
2182 400482.000  -33.951433487   18.468552958    83.4362   6   7   0.3537   0.2428   0.8400  -0.1231  -0.1282   0.3315   0.00    0.0    0.00000    0.00000    0.00000   0.00000  0.00000  0.00000  0.00000  0.00000  0.00000
2182 400483.000  -33.951433459   18.468552936    83.4343   6   7   0.3525   0.2421   0.8370  -0.1225  -0.1275   0.3304   0.00    0.0    0.00000    0.00000    0.00000   0.00000  0.00000  0.00000  0.00000  0.00000  0.00000
2182 400484.000  -33.951433450   18.468552944    83.4361   6   7   0.3512   0.2414   0.8340  -0.1220  -0.1268   0.3294   0.00    0.0    0.00000    0.00000    0.00000   0.00000  0.00000  0.00000  0.00000  0.00000  0.00000
2182 400485.000  -33.951433476   18.468552956    83.4254   6   7   0.3500   0.2407   0.8311  -0.1215  -0.1262   0.3283   0.00    0.0    0.00000    0.00000    0.00000   0.00000  0.00000  0.00000  0.00000  0.00000  0.00000
2182 400486.000  -33.951433474   18.468552970    83.4225   6   7   0.3488   0.2400   0.8281  -0.1209  -0.1255   0.3272   0.00    0.0    0.00000    0.00000    0.00000   0.00000  0.00000  0.00000  0.00000  0.00000  0.00000
2182 400487.000  -33.951433511   18.468552978    83.4192   6   7   0.3476   0.2393   0.8252  -0.1204  -0.1248   0.3262   0.00    0.0    0.00000    0.00000    0.00000   0.00000  0.00000  0.00000  0.00000  0.00000  0.00000
2182 400488.000  -33.951433559   18.468552982    83.4127   6   7   0.3464   0.2386   0.8223  -0.1199  -0.1242   0.3251   0.00    0.0    0.00000    0.00000    0.00000   0.00000  0.00000  0.00000  0.00000  0.00000  0.00000
2182 400489.000  -33.951433590   18.468552954    83.4054   6   7   0.3452   0.2379   0.8194  -0.1194  -0.1235   0.3241   0.00    0.0    0.00000    0.00000    0.00000   0.00000  0.00000  0.00000  0.00000  0.00000  0.00000
2182 400490.000  -33.951433629   18.468552990    83.3945   6   7   0.3440   0.2372   0.8165  -0.1188  -0.1229   0.3231   0.00    0.0    0.00000    0.00000    0.00000   0.00000  0.00000  0.00000  0.00000  0.00000  0.00000
2182 400491.000  -33.951433655   18.468553004    83.3877   6   7   0.3428   0.2366   0.8137  -0.1183  -0.1222   0.3220   0.00    0.0    0.00000    0.00000    0.00000   0.00000  0.00000  0.00000  0.00000  0.00000  0.00000
2182 400492.000  -33.951433674   18.468553021    83.3725   6   7   0.3416   0.2359   0.8109  -0.1178  -0.1216   0.3210   0.00    0.0    0.00000    0.00000    0.00000   0.00000  0.00000  0.00000  0.00000  0.00000  0.00000
2182 400493.000  -33.951433705   18.468553047    83.3669   6   7   0.3405   0.2352   0.8081  -0.1173  -0.1210   0.3200   0.00    0.0    0.00000    0.00000    0.00000   0.00000  0.00000  0.00000  0.00000  0.00000  0.00000
2182 400494.000  -33.951433709   18.468553071    83.3686   6   7   0.3393   0.2346   0.8053  -0.1168  -0.1203   0.3190   0.00    0.0    0.00000    0.00000    0.00000   0.00000  0.00000  0.00000  0.00000  0.00000  0.00000
2182 400495.000  -33.951433732   18.468553086    83.3694   6   7   0.3382   0.2339   0.8025  -0.1163  -0.1197   0.3180   0.00    0.0    0.00000    0.00000    0.00000   0.00000  0.00000  0.00000  0.00000  0.00000  0.00000
2182 400496.000  -33.951433703   18.468553101    83.3794   6   7   0.3370   0.2333   0.7998  -0.1158  -0.1191   0.3170   0.00    0.0    0.00000    0.00000    0.00000   0.00000  0.00000  0.00000  0.00000  0.00000  0.00000
2182 400497.000  -33.951433691   18.468553111    83.3846   6   7   0.3359   0.2326   0.7971  -0.1153  -0.1185   0.3160   0.00    0.0    0.00000    0.00000    0.00000   0.00000  0.00000  0.00000  0.00000  0.00000  0.00000
2182 400498.000  -33.951433724   18.468553109    83.3844   6   7   0.3348   0.2320   0.7944  -0.1148  -0.1178   0.3150   0.00    0.0    0.00000    0.00000    0.00000   0.00000  0.00000  0.00000  0.00000  0.00000  0.00000
2182 400499.000  -33.951433750   18.468553133    83.3885   6   7   0.3337   0.2313   0.7917  -0.1143  -0.1172   0.3140   0.00    0.0    0.00000    0.00000    0.00000   0.00000  0.00000  0.00000  0.00000  0.00000  0.00000
2182 400500.000  -33.951433793   18.468553109    83.3856   6   7   0.3325   0.2307   0.7890  -0.1138  -0.1166   0.3131   0.00    0.0    0.00000    0.00000    0.00000   0.00000  0.00000  0.00000  0.00000  0.00000  0.00000
2182 400501.000  -33.951433823   18.468553101    83.3785   6   7   0.3314   0.2301   0.7864  -0.1133  -0.1160   0.3121   0.00    0.0    0.00000    0.00000    0.00000   0.00000  0.00000  0.00000  0.00000  0.00000  0.00000
2182 400502.000  -33.951433834   18.468553097    83.3669   6   7   0.3303   0.2294   0.7838  -0.1129  -0.1154   0.3111   0.00    0.0    0.00000    0.00000    0.00000   0.00000  0.00000  0.00000  0.00000  0.00000  0.00000
2182 400503.000  -33.951433870   18.468553086    83.3567   6   7   0.3293   0.2288   0.7812  -0.1124  -0.1148   0.3102   0.00    0.0    0.00000    0.00000    0.00000   0.00000  0.00000  0.00000  0.00000  0.00000  0.00000
2182 400504.000  -33.951433924   18.468553054    83.3514   6   7   0.3282   0.2282   0.7786  -0.1119  -0.1142   0.3092   0.00    0.0    0.00000    0.00000    0.00000   0.00000  0.00000  0.00000  0.00000  0.00000  0.00000
2182 400505.000  -33.951433961   18.468553025    83.3425   6   7   0.3271   0.2276   0.7760  -0.1114  -0.1136   0.3083   0.00    0.0    0.00000    0.00000    0.00000   0.00000  0.00000  0.00000  0.00000  0.00000  0.00000
2182 400506.000  -33.951433958   18.468553003    83.3420   6   7   0.3260   0.2270   0.7734  -0.1109  -0.1130   0.3074   0.00    0.0    0.00000    0.00000    0.00000   0.00000  0.00000  0.00000  0.00000  0.00000  0.00000
2182 400507.000  -33.951433967   18.468552975    83.3403   6   7   0.3250   0.2264   0.7709  -0.1105  -0.1124   0.3064   0.00    0.0    0.00000    0.00000    0.00000   0.00000  0.00000  0.00000  0.00000  0.00000  0.00000
2182 400508.000  -33.951433975   18.468552955    83.3347   6   7   0.3239   0.2258   0.7684  -0.1100  -0.1119   0.3055   0.00    0.0    0.00000    0.00000    0.00000   0.00000  0.00000  0.00000  0.00000  0.00000  0.00000
2182 400509.000  -33.951433959   18.468552940    83.3347   6   7   0.3229   0.2252   0.7659  -0.1095  -0.1113   0.3046   0.00    0.0    0.00000    0.00000    0.00000   0.00000  0.00000  0.00000  0.00000  0.00000  0.00000
2182 400510.000  -33.951433967   18.468552959    83.3335   6   7   0.3218   0.2246   0.7634  -0.1091  -0.1107   0.3037   0.00    0.0    0.00000    0.00000    0.00000   0.00000  0.00000  0.00000  0.00000  0.00000  0.00000
2182 400511.000  -33.951433974   18.468552945    83.3330   6   7   0.3208   0.2240   0.7609  -0.1086  -0.1101   0.3028   0.00    0.0    0.00000    0.00000    0.00000   0.00000  0.00000  0.00000  0.00000  0.00000  0.00000
2182 400512.000  -33.951433942   18.468552945    83.3329   6   7   0.3197   0.2235   0.7585  -0.1081  -0.1095   0.3019   0.00    0.0    0.00000    0.00000    0.00000   0.00000  0.00000  0.00000  0.00000  0.00000  0.00000
2182 400513.000  -33.951433945   18.468552936    83.3288   6   7   0.3187   0.2229   0.7560  -0.1077  -0.1090   0.3010   0.00    0.0    0.00000    0.00000    0.00000   0.00000  0.00000  0.00000  0.00000  0.00000  0.00000
2182 400514.000  -33.951433952   18.468552923    83.3296   6   7   0.3177   0.2223   0.7536  -0.1072  -0.1084   0.3001   0.00    0.0    0.00000    0.00000    0.00000   0.00000  0.00000  0.00000  0.00000  0.00000  0.00000
2182 400515.000  -33.951434000   18.468552881    83.3245   6   7   0.3167   0.2217   0.7512  -0.1068  -0.1078   0.2992   0.00    0.0    0.00000    0.00000    0.00000   0.00000  0.00000  0.00000  0.00000  0.00000  0.00000
2182 400516.000  -33.951434016   18.468552835    83.3143   6   7   0.3157   0.2212   0.7488  -0.1063  -0.1073   0.2983   0.00    0.0    0.00000    0.00000    0.00000   0.00000  0.00000  0.00000  0.00000  0.00000  0.00000
2182 400517.000  -33.951434023   18.468552809    83.3111   6   7   0.3147   0.2206   0.7465  -0.1059  -0.1067   0.2974   0.00    0.0    0.00000    0.00000    0.00000   0.00000  0.00000  0.00000  0.00000  0.00000  0.00000
2182 400518.000  -33.951434009   18.468552741    83.3111   6   7   0.3137   0.2200   0.7441  -0.1054  -0.1062   0.2966   0.00    0.0    0.00000    0.00000    0.00000   0.00000  0.00000  0.00000  0.00000  0.00000  0.00000
2182 400519.000  -33.951433969   18.468552727    83.3166   6   7   0.3127   0.2195   0.7418  -0.1050  -0.1056   0.2957   0.00    0.0    0.00000    0.00000    0.00000   0.00000  0.00000  0.00000  0.00000  0.00000  0.00000
2182 400520.000  -33.951433955   18.468552708    83.3133   6   7   0.3117   0.2189   0.7394  -0.1045  -0.1051   0.2948   0.00    0.0    0.00000    0.00000    0.00000   0.00000  0.00000  0.00000  0.00000  0.00000  0.00000
2182 400521.000  -33.951433947   18.468552699    83.3097   6   7   0.3107   0.2184   0.7371  -0.1041  -0.1045   0.2940   0.00    0.0    0.00000    0.00000    0.00000   0.00000  0.00000  0.00000  0.00000  0.00000  0.00000
2182 400522.000  -33.951433913   18.468552682    83.3088   6   7   0.3098   0.2178   0.7348  -0.1037  -0.1040   0.2931   0.00    0.0    0.00000    0.00000    0.00000   0.00000  0.00000  0.00000  0.00000  0.00000  0.00000
2182 400523.000  -33.951433882   18.468552643    83.3093   6   7   0.3088   0.2173   0.7326  -0.1032  -0.1034   0.2923   0.00    0.0    0.00000    0.00000    0.00000   0.00000  0.00000  0.00000  0.00000  0.00000  0.00000
2182 400524.000  -33.951433841   18.468552612    83.3071   6   7   0.3078   0.2168   0.7303  -0.1028  -0.1029   0.2914   0.00    0.0    0.00000    0.00000    0.00000   0.00000  0.00000  0.00000  0.00000  0.00000  0.00000
2182 400525.000  -33.951433821   18.468552563    83.3005   6   7   0.3069   0.2162   0.7281  -0.1023  -0.1024   0.2906   0.00    0.0    0.00000    0.00000    0.00000   0.00000  0.00000  0.00000  0.00000  0.00000  0.00000
2182 400526.000  -33.951433839   18.468552542    83.3021   6   7   0.3059   0.2157   0.7258  -0.1019  -0.1018   0.2897   0.00    0.0    0.00000    0.00000    0.00000   0.00000  0.00000  0.00000  0.00000  0.00000  0.00000
2182 400527.000  -33.951433814   18.468552513    83.3031   6   7   0.3050   0.2152   0.7236  -0.1015  -0.1013   0.2889   0.00    0.0    0.00000    0.00000    0.00000   0.00000  0.00000  0.00000  0.00000  0.00000  0.00000
2182 400528.000  -33.951433819   18.468552491    83.3016   6   7   0.3040   0.2147   0.7214  -0.1011  -0.1008   0.2881   0.00    0.0    0.00000    0.00000    0.00000   0.00000  0.00000  0.00000  0.00000  0.00000  0.00000
2182 400529.000  -33.951433815   18.468552467    83.2964   6   7   0.3031   0.2141   0.7192  -0.1006  -0.1003   0.2873   0.00    0.0    0.00000    0.00000    0.00000   0.00000  0.00000  0.00000  0.00000  0.00000  0.00000
2182 400530.000  -33.951433793   18.468552446    83.2972   6   7   0.3022   0.2136   0.7170  -0.1002  -0.0997   0.2864   0.00    0.0    0.00000    0.00000    0.00000   0.00000  0.00000  0.00000  0.00000  0.00000  0.00000
2182 400531.000  -33.951433823   18.468552437    83.2935   6   7   0.3013   0.2131   0.7149  -0.0998  -0.0992   0.2856   0.00    0.0    0.00000    0.00000    0.00000   0.00000  0.00000  0.00000  0.00000  0.00000  0.00000
2182 400532.000  -33.951433805   18.468552445    83.2952   6   7   0.3003   0.2126   0.7127  -0.0994  -0.0987   0.2848   0.00    0.0    0.00000    0.00000    0.00000   0.00000  0.00000  0.00000  0.00000  0.00000  0.00000
2182 400533.000  -33.951433815   18.468552451    83.2948   6   7   0.2994   0.2121   0.7106  -0.0989  -0.0982   0.2840   0.00    0.0    0.00000    0.00000    0.00000   0.00000  0.00000  0.00000  0.00000  0.00000  0.00000
2182 400534.000  -33.951433779   18.468552432    83.2989   6   7   0.2985   0.2116   0.7084  -0.0985  -0.0977   0.2832   0.00    0.0    0.00000    0.00000    0.00000   0.00000  0.00000  0.00000  0.00000  0.00000  0.00000
2182 400535.000  -33.951433740   18.468552416    83.3006   6   7   0.2976   0.2111   0.7063  -0.0981  -0.0972   0.2824   0.00    0.0    0.00000    0.00000    0.00000   0.00000  0.00000  0.00000  0.00000  0.00000  0.00000
2182 400536.000  -33.951433742   18.468552377    83.2982   6   7   0.2967   0.2106   0.7042  -0.0977  -0.0966   0.2816   0.00    0.0    0.00000    0.00000    0.00000   0.00000  0.00000  0.00000  0.00000  0.00000  0.00000
2182 400537.000  -33.951433685   18.468552363    83.3003   6   7   0.2958   0.2101   0.7022  -0.0973  -0.0961   0.2808   0.00    0.0    0.00000    0.00000    0.00000   0.00000  0.00000  0.00000  0.00000  0.00000  0.00000
2182 400538.000  -33.951433665   18.468552390    83.2983   6   7   0.2949   0.2096   0.7001  -0.0969  -0.0956   0.2801   0.00    0.0    0.00000    0.00000    0.00000   0.00000  0.00000  0.00000  0.00000  0.00000  0.00000
2182 400539.000  -33.951433672   18.468552372    83.2894   6   7   0.2940   0.2091   0.6980  -0.0965  -0.0951   0.2793   0.00    0.0    0.00000    0.00000    0.00000   0.00000  0.00000  0.00000  0.00000  0.00000  0.00000
2182 400540.000  -33.951433690   18.468552340    83.2903   6   7   0.2932   0.2086   0.6960  -0.0961  -0.0946   0.2785   0.00    0.0    0.00000    0.00000    0.00000   0.00000  0.00000  0.00000  0.00000  0.00000  0.00000
2182 400541.000  -33.951433691   18.468552325    83.2889   6   7   0.2923   0.2081   0.6940  -0.0956  -0.0941   0.2777   0.00    0.0    0.00000    0.00000    0.00000   0.00000  0.00000  0.00000  0.00000  0.00000  0.00000
2182 400542.000  -33.951433677   18.468552300    83.2902   6   7   0.2914   0.2076   0.6919  -0.0952  -0.0937   0.2770   0.00    0.0    0.00000    0.00000    0.00000   0.00000  0.00000  0.00000  0.00000  0.00000  0.00000
2182 400543.000  -33.951433670   18.468552279    83.2932   6   7   0.2905   0.2072   0.6899  -0.0948  -0.0932   0.2762   0.00    0.0    0.00000    0.00000    0.00000   0.00000  0.00000  0.00000  0.00000  0.00000  0.00000
2182 400544.000  -33.951433653   18.468552256    83.2959   6   7   0.2897   0.2067   0.6879  -0.0944  -0.0927   0.2754   0.00    0.0    0.00000    0.00000    0.00000   0.00000  0.00000  0.00000  0.00000  0.00000  0.00000
2182 400545.000  -33.951433627   18.468552271    83.3038   6   7   0.2888   0.2062   0.6860  -0.0940  -0.0922   0.2747   0.00    0.0    0.00000    0.00000    0.00000   0.00000  0.00000  0.00000  0.00000  0.00000  0.00000
2182 400546.000  -33.951433621   18.468552279    83.3061   6   7   0.2880   0.2057   0.6840  -0.0936  -0.0917   0.2739   0.00    0.0    0.00000    0.00000    0.00000   0.00000  0.00000  0.00000  0.00000  0.00000  0.00000
2182 400547.000  -33.951433637   18.468552292    83.3022   6   7   0.2871   0.2053   0.6820  -0.0932  -0.0912   0.2732   0.00    0.0    0.00000    0.00000    0.00000   0.00000  0.00000  0.00000  0.00000  0.00000  0.00000
2182 400548.000  -33.951433635   18.468552292    83.3014   6   7   0.2863   0.2048   0.6801  -0.0929  -0.0907   0.2724   0.00    0.0    0.00000    0.00000    0.00000   0.00000  0.00000  0.00000  0.00000  0.00000  0.00000
2182 400549.000  -33.951433615   18.468552303    83.3064   6   7   0.2854   0.2043   0.6781  -0.0925  -0.0903   0.2717   0.00    0.0    0.00000    0.00000    0.00000   0.00000  0.00000  0.00000  0.00000  0.00000  0.00000
2182 400550.000  -33.951433592   18.468552326    83.3083   6   7   0.2846   0.2039   0.6762  -0.0921  -0.0898   0.2710   0.00    0.0    0.00000    0.00000    0.00000   0.00000  0.00000  0.00000  0.00000  0.00000  0.00000
2182 400551.000  -33.951433580   18.468552337    83.3087   6   7   0.2838   0.2034   0.6743  -0.0917  -0.0893   0.2702   0.00    0.0    0.00000    0.00000    0.00000   0.00000  0.00000  0.00000  0.00000  0.00000  0.00000
2182 400552.000  -33.951433566   18.468552359    83.3026   6   7   0.2830   0.2030   0.6724  -0.0913  -0.0888   0.2695   0.00    0.0    0.00000    0.00000    0.00000   0.00000  0.00000  0.00000  0.00000  0.00000  0.00000
2182 400553.000  -33.951433567   18.468552396    83.3002   6   7   0.2821   0.2025   0.6705  -0.0909  -0.0884   0.2688   0.00    0.0    0.00000    0.00000    0.00000   0.00000  0.00000  0.00000  0.00000  0.00000  0.00000
2182 400554.000  -33.951433553   18.468552424    83.2972   6   7   0.2813   0.2021   0.6687  -0.0905  -0.0879   0.2680   0.00    0.0    0.00000    0.00000    0.00000   0.00000  0.00000  0.00000  0.00000  0.00000  0.00000
2182 400555.000  -33.951433536   18.468552424    83.2928   6   7   0.2805   0.2016   0.6668  -0.0901  -0.0874   0.2673   0.00    0.0    0.00000    0.00000    0.00000   0.00000  0.00000  0.00000  0.00000  0.00000  0.00000
2182 400556.000  -33.951433551   18.468552423    83.2899   6   7   0.2797   0.2012   0.6649  -0.0898  -0.0870   0.2666   0.00    0.0    0.00000    0.00000    0.00000   0.00000  0.00000  0.00000  0.00000  0.00000  0.00000
2182 400557.000  -33.951433555   18.468552451    83.2902   6   7   0.2789   0.2007   0.6631  -0.0894  -0.0865   0.2659   0.00    0.0    0.00000    0.00000    0.00000   0.00000  0.00000  0.00000  0.00000  0.00000  0.00000
2182 400558.000  -33.951433563   18.468552479    83.2922   6   7   0.2781   0.2003   0.6613  -0.0890  -0.0860   0.2652   0.00    0.0    0.00000    0.00000    0.00000   0.00000  0.00000  0.00000  0.00000  0.00000  0.00000
2182 400559.000  -33.951433563   18.468552500    83.2920   6   7   0.2773   0.1999   0.6594  -0.0886  -0.0856   0.2645   0.00    0.0    0.00000    0.00000    0.00000   0.00000  0.00000  0.00000  0.00000  0.00000  0.00000
2182 400560.000  -33.951433542   18.468552522    83.2958   6   7   0.2765   0.1994   0.6576  -0.0882  -0.0851   0.2637   0.00    0.0    0.00000    0.00000    0.00000   0.00000  0.00000  0.00000  0.00000  0.00000  0.00000
2182 400561.000  -33.951433544   18.468552548    83.2950   6   7   0.2757   0.1990   0.6558  -0.0879  -0.0847   0.2630   0.00    0.0    0.00000    0.00000    0.00000   0.00000  0.00000  0.00000  0.00000  0.00000  0.00000
2182 400562.000  -33.951433524   18.468552566    83.2981   6   7   0.2749   0.1986   0.6540  -0.0875  -0.0842   0.2623   0.00    0.0    0.00000    0.00000    0.00000   0.00000  0.00000  0.00000  0.00000  0.00000  0.00000
2182 400563.000  -33.951433540   18.468552610    83.2973   6   7   0.2741   0.1981   0.6523  -0.0871  -0.0838   0.2617   0.00    0.0    0.00000    0.00000    0.00000   0.00000  0.00000  0.00000  0.00000  0.00000  0.00000
2182 400564.000  -33.951433542   18.468552628    83.2926   6   7   0.2734   0.1977   0.6505  -0.0867  -0.0833   0.2610   0.00    0.0    0.00000    0.00000    0.00000   0.00000  0.00000  0.00000  0.00000  0.00000  0.00000
2182 400565.000  -33.951433562   18.468552643    83.2881   6   7   0.2726   0.1973   0.6487  -0.0864  -0.0829   0.2603   0.00    0.0    0.00000    0.00000    0.00000   0.00000  0.00000  0.00000  0.00000  0.00000  0.00000
2182 400566.000  -33.951433562   18.468552691    83.2870   6   7   0.2718   0.1969   0.6470  -0.0860  -0.0824   0.2596   0.00    0.0    0.00000    0.00000    0.00000   0.00000  0.00000  0.00000  0.00000  0.00000  0.00000
2182 400567.000  -33.951433515   18.468552729    83.2920   6   7   0.2710   0.1965   0.6453  -0.0856  -0.0820   0.2589   0.00    0.0    0.00000    0.00000    0.00000   0.00000  0.00000  0.00000  0.00000  0.00000  0.00000
2182 400568.000  -33.951433502   18.468552768    83.2917   6   7   0.2703   0.1960   0.6435  -0.0853  -0.0816   0.2582   0.00    0.0    0.00000    0.00000    0.00000   0.00000  0.00000  0.00000  0.00000  0.00000  0.00000
2182 400569.000  -33.951433473   18.468552806    83.2978   6   7   0.2695   0.1956   0.6418  -0.0849  -0.0811   0.2575   0.00    0.0    0.00000    0.00000    0.00000   0.00000  0.00000  0.00000  0.00000  0.00000  0.00000
