% (lat/lon/height=WGS84/ellipsoidal,Q=1:fix,2:float,3:sbas,4:dgps,5:single,6:ppp,ns=# of satellites)
%  GPST          latitude(deg) longitude(deg)  height(m)   Q  ns   sdn(m)   sde(m)   sdu(m)  sdne(m)  sdeu(m)  sdun(m) age(s)  ratio    vn(m/s)    ve(m/s)    vu(m/s)      sdvn     sdve     sdvu    sdvne    sdveu    sdvun
2211 196568.000  -25.732036008   28.282629130  1387.8994   6   8   4.2966   3.9368  13.4653   1.9888   4.2780   5.6405   0.00    0.0    0.00000    0.00000    0.00000   0.00000  0.00000  0.00000  0.00000  0.00000  0.00000
2211 196569.000  -25.732032386   28.282633712  1389.4025   6   8   3.0598   2.7968   9.6663   1.4272   3.0718   4.0514   0.00    0.0    0.00000    0.00000    0.00000   0.00000  0.00000  0.00000  0.00000  0.00000  0.00000
2211 196570.000  -25.732032965   28.282633157  1388.7641   6   8   2.5044   2.2872   7.9338   1.1711   2.5212   3.3254   0.00    0.0    0.00000    0.00000    0.00000   0.00000  0.00000  0.00000  0.00000  0.00000  0.00000
2211 196571.000  -25.732033335   28.282634184  1388.8196   6   8   2.1714   1.9824   6.8894   1.0168   2.1890   2.8874   0.00    0.0    0.00000    0.00000    0.00000   0.00000  0.00000  0.00000  0.00000  0.00000  0.00000
2211 196572.000  -25.732032789   28.282633543  1389.2459   6   8   1.9436   1.7740   6.1721   0.9109   1.9608   2.5864   0.00    0.0    0.00000    0.00000    0.00000   0.00000  0.00000  0.00000  0.00000  0.00000  0.00000
2211 196573.000  -25.732032335   28.282632725  1388.7903   6   8   1.7750   1.6200   5.6405   0.8323   1.7916   2.3633   0.00    0.0    0.00000    0.00000    0.00000   0.00000  0.00000  0.00000  0.00000  0.00000  0.00000
2211 196574.000  -25.732031166   28.282632512  1388.9013   6   8   1.6438   1.5002   5.2262   0.7711   1.6597   2.1893   0.00    0.0    0.00000    0.00000    0.00000   0.00000  0.00000  0.00000  0.00000  0.00000  0.00000
2211 196575.000  -25.732031117   28.282632606  1389.0081   6   8   1.5380   1.4035   4.8914   0.7217   1.5531   2.0487   0.00    0.0    0.00000    0.00000    0.00000   0.00000  0.00000  0.00000  0.00000  0.00000  0.00000
2211 196576.000  -25.732031189   28.282633063  1389.2016   6   8   1.4502   1.3235   4.6136   0.6806   1.4646   1.9320   0.00    0.0    0.00000    0.00000    0.00000   0.00000  0.00000  0.00000  0.00000  0.00000  0.00000
2211 196577.000  -25.732030300   28.282632888  1389.4115   6   8   1.3759   1.2557   4.3782   0.6458   1.3896   1.8331   0.00    0.0    0.00000    0.00000    0.00000   0.00000  0.00000  0.00000  0.00000  0.00000  0.00000
2211 196578.000  -25.732029769   28.282633094  1389.6218   6   8   1.3119   1.1973   4.1753   0.6159   1.3249   1.7478   0.00    0.0    0.00000    0.00000    0.00000   0.00000  0.00000  0.00000  0.00000  0.00000  0.00000
2211 196579.000  -25.732029023   28.282633246  1389.6913   6   8   1.2561   1.1464   3.9981   0.5897   1.2684   1.6733   0.00    0.0    0.00000    0.00000    0.00000   0.00000  0.00000  0.00000  0.00000  0.00000  0.00000
2211 196580.000  -25.732029421   28.282633098  1389.4721   6   8   1.2068   1.1015   3.8415   0.5666   1.2185   1.6075   0.00    0.0    0.00000    0.00000    0.00000   0.00000  0.00000  0.00000  0.00000  0.00000  0.00000
2211 196581.000  -25.732029891   28.282632783  1389.3410   6   8   1.1628   1.0615   3.7018   0.5460   1.1740   1.5487   0.00    0.0    0.00000    0.00000    0.00000   0.00000  0.00000  0.00000  0.00000  0.00000  0.00000
2211 196582.000  -25.732030067   28.282632741  1389.1603   6   8   1.1233   1.0255   3.5762   0.5274   1.1339   1.4959   0.00    0.0    0.00000    0.00000    0.00000   0.00000  0.00000  0.00000  0.00000  0.00000  0.00000
2211 196583.000  -25.732030074   28.282632333  1389.1127   6   8   1.0876   0.9930   3.4624   0.5106   1.0975   1.4480   0.00    0.0    0.00000    0.00000    0.00000   0.00000  0.00000  0.00000  0.00000  0.00000  0.00000
2211 196584.000  -25.732029822   28.282632255  1389.1706   6   8   1.0550   0.9633   3.3586   0.4953   1.0644   1.4043   0.00    0.0    0.00000    0.00000    0.00000   0.00000  0.00000  0.00000  0.00000  0.00000  0.00000
2211 196585.000  -25.732029868   28.282632220  1389.1029   6   8   1.0251   0.9362   3.2635   0.4812   1.0340   1.3642   0.00    0.0    0.00000    0.00000    0.00000   0.00000  0.00000  0.00000  0.00000  0.00000  0.00000
2211 196586.000  -25.732029843   28.282632398  1389.0347   6   8   0.9977   0.9112   3.1758   0.4683   1.0060   1.3273   0.00    0.0    0.00000    0.00000    0.00000   0.00000  0.00000  0.00000  0.00000  0.00000  0.00000
2211 196587.000  -25.732029675   28.282632258  1388.9244   6   8   0.9723   0.8881   3.0947   0.4563   0.9801   1.2931   0.00    0.0    0.00000    0.00000    0.00000   0.00000  0.00000  0.00000  0.00000  0.00000  0.00000
2211 196588.000  -25.732029790   28.282632090  1388.8129   6   8   0.9487   0.8667   3.0193   0.4452   0.9560   1.2614   0.00    0.0    0.00000    0.00000    0.00000   0.00000  0.00000  0.00000  0.00000  0.00000  0.00000
2211 196589.000  -25.732029664   28.282631893  1388.7819   6   8   0.9267   0.8467   2.9490   0.4348   0.9335   1.2318   0.00    0.0    0.00000    0.00000    0.00000   0.00000  0.00000  0.00000  0.00000  0.00000  0.00000
2211 196590.000  -25.732029680   28.282631666  1388.6778   6   8   0.9062   0.8281   2.8832   0.4251   0.9125   1.2040   0.00    0.0    0.00000    0.00000    0.00000   0.00000  0.00000  0.00000  0.00000  0.00000  0.00000
2211 196591.000  -25.732029704   28.282631292  1388.5348   6   8   0.8869   0.8106   2.8215   0.4160   0.8928   1.1780   0.00    0.0    0.00000    0.00000    0.00000   0.00000  0.00000  0.00000  0.00000  0.00000  0.00000
2211 196592.000  -25.732029695   28.282631020  1388.4715   6   8   0.8688   0.7942   2.7634   0.4075   0.8742   1.1535   0.00    0.0    0.00000    0.00000    0.00000   0.00000  0.00000  0.00000  0.00000  0.00000  0.00000
2211 196593.000  -25.732029794   28.282630970  1388.3744   6   8   0.8517   0.7788   2.7086   0.3994   0.8566   1.1304   0.00    0.0    0.00000    0.00000    0.00000   0.00000  0.00000  0.00000  0.00000  0.00000  0.00000
2211 196594.000  -25.732029391   28.282631093  1388.3771   6   8   0.8356   0.7642   2.6567   0.3918   0.8400   1.1086   0.00    0.0    0.00000    0.00000    0.00000   0.00000  0.00000  0.00000  0.00000  0.00000  0.00000
2211 196595.000  -25.732029314   28.282631220  1388.3497   6   8   0.8203   0.7503   2.6076   0.3845   0.8243   1.0878   0.00    0.0    0.00000    0.00000    0.00000   0.00000  0.00000  0.00000  0.00000  0.00000  0.00000
2211 196596.000  -25.732029233   28.282631112  1388.3301   6   8   0.8059   0.7372   2.5610   0.3776   0.8094   1.0681   0.00    0.0    0.00000    0.00000    0.00000   0.00000  0.00000  0.00000  0.00000  0.00000  0.00000
2211 196597.000  -25.732029120   28.282631125  1388.3530   6   8   0.7921   0.7248   2.5166   0.3711   0.7951   1.0494   0.00    0.0    0.00000    0.00000    0.00000   0.00000  0.00000  0.00000  0.00000  0.00000  0.00000
2211 196598.000  -25.732028995   28.282631297  1388.3510   6   8   0.7790   0.7130   2.4742   0.3649   0.7816   1.0315   0.00    0.0    0.00000    0.00000    0.00000   0.00000  0.00000  0.00000  0.00000  0.00000  0.00000
2211 196599.000  -25.732029144   28.282631231  1388.3609   6   8   0.7665   0.7017   2.4338   0.3589   0.7686   1.0145   0.00    0.0    0.00000    0.00000    0.00000   0.00000  0.00000  0.00000  0.00000  0.00000  0.00000
2211 196600.000  -25.732029213   28.282631113  1388.3161   6   8   0.7546   0.6909   2.3952   0.3533   0.7562   0.9982   0.00    0.0    0.00000    0.00000    0.00000   0.00000  0.00000  0.00000  0.00000  0.00000  0.00000
2211 196601.000  -25.732029379   28.282631141  1388.3068   6   8   0.7432   0.6806   2.3582   0.3478   0.7443   0.9825   0.00    0.0    0.00000    0.00000    0.00000   0.00000  0.00000  0.00000  0.00000  0.00000  0.00000
2211 196602.000  -25.732029315   28.282631246  1388.3352   6   8   0.7322   0.6708   2.3227   0.3426   0.7329   0.9675   0.00    0.0    0.00000    0.00000    0.00000   0.00000  0.00000  0.00000  0.00000  0.00000  0.00000
2211 196603.000  -25.732029514   28.282631314  1388.3286   6   8   0.7217   0.6613   2.2887   0.3376   0.7220   0.9531   0.00    0.0    0.00000    0.00000    0.00000   0.00000  0.00000  0.00000  0.00000  0.00000  0.00000
2211 196604.000  -25.732029552   28.282631232  1388.2872   6   8   0.7117   0.6522   2.2559   0.3328   0.7115   0.9393   0.00    0.0    0.00000    0.00000    0.00000   0.00000  0.00000  0.00000  0.00000  0.00000  0.00000
2211 196605.000  -25.732029686   28.282631151  1388.2404   6   8   0.7020   0.6435   2.2244   0.3281   0.7013   0.9260   0.00    0.0    0.00000    0.00000    0.00000   0.00000  0.00000  0.00000  0.00000  0.00000  0.00000
2211 196606.000  -25.732029771   28.282631097  1388.2238   6   8   0.6927   0.6352   2.1940   0.3237   0.6916   0.9131   0.00    0.0    0.00000    0.00000    0.00000   0.00000  0.00000  0.00000  0.00000  0.00000  0.00000
2211 196607.000  -25.732029813   28.282631160  1388.1962   6   8   0.6837   0.6271   2.1647   0.3194   0.6821   0.9007   0.00    0.0    0.00000    0.00000    0.00000   0.00000  0.00000  0.00000  0.00000  0.00000  0.00000
2211 196608.000  -25.732029781   28.282631349  1388.1824   6   8   0.6751   0.6193   2.1364   0.3152   0.6730   0.8887   0.00    0.0    0.00000    0.00000    0.00000   0.00000  0.00000  0.00000  0.00000  0.00000  0.00000
2211 196609.000  -25.732029829   28.282631297  1388.1175   6   8   0.6667   0.6119   2.1090   0.3112   0.6642   0.8771   0.00    0.0    0.00000    0.00000    0.00000   0.00000  0.00000  0.00000  0.00000  0.00000  0.00000
2211 196610.000  -25.732029923   28.282631228  1388.1445   6   8   0.6587   0.6046   2.0826   0.3073   0.6557   0.8659   0.00    0.0    0.00000    0.00000    0.00000   0.00000  0.00000  0.00000  0.00000  0.00000  0.00000
2211 196611.000  -25.732030043   28.282631145  1388.1195   6   8   0.6509   0.5976   2.0569   0.3035   0.6474   0.8551   0.00    0.0    0.00000    0.00000    0.00000   0.00000  0.00000  0.00000  0.00000  0.00000  0.00000
2211 196612.000  -25.732030131   28.282631039  1388.1022   6   8   0.6433   0.5909   2.0321   0.2999   0.6394   0.8446   0.00    0.0    0.00000    0.00000    0.00000   0.00000  0.00000  0.00000  0.00000  0.00000  0.00000
2211 196613.000  -25.732030010   28.282630921  1388.0964   6   8   0.6360   0.5843   2.0080   0.2964   0.6317   0.8344   0.00    0.0    0.00000    0.00000    0.00000   0.00000  0.00000  0.00000  0.00000  0.00000  0.00000
2211 196614.000  -25.732030146   28.282630693  1388.0284   6   8   0.6289   0.5780   1.9847   0.2929   0.6241   0.8245   0.00    0.0    0.00000    0.00000    0.00000   0.00000  0.00000  0.00000  0.00000  0.00000  0.00000
2211 196615.000  -25.732030145   28.282630622  1388.0408   6   8   0.6221   0.5719   1.9620   0.2896   0.6168   0.8148   0.00    0.0    0.00000    0.00000    0.00000   0.00000  0.00000  0.00000  0.00000  0.00000  0.00000
2211 196616.000  -25.732030136   28.282630465  1388.0156   6   8   0.6154   0.5659   1.9399   0.2864   0.6097   0.8055   0.00    0.0    0.00000    0.00000    0.00000   0.00000  0.00000  0.00000  0.00000  0.00000  0.00000
2211 196617.000  -25.732030080   28.282630467  1387.9910   6   8   0.6089   0.5602   1.9185   0.2832   0.6028   0.7964   0.00    0.0    0.00000    0.00000    0.00000   0.00000  0.00000  0.00000  0.00000  0.00000  0.00000
2211 196618.000  -25.732030171   28.282630630  1387.9922   6   8   0.6026   0.5546   1.8976   0.2802   0.5960   0.7875   0.00    0.0    0.00000    0.00000    0.00000   0.00000  0.00000  0.00000  0.00000  0.00000  0.00000
2211 196619.000  -25.732030152   28.282630493  1387.9337   6   8   0.5965   0.5491   1.8773   0.2772   0.5895   0.7789   0.00    0.0    0.00000    0.00000    0.00000   0.00000  0.00000  0.00000  0.00000  0.00000  0.00000
2211 196620.000  -25.732030127   28.282630483  1387.8934   6   8   0.5906   0.5438   1.8575   0.2743   0.5830   0.7705   0.00    0.0    0.00000    0.00000    0.00000   0.00000  0.00000  0.00000  0.00000  0.00000  0.00000
2211 196621.000  -25.732030075   28.282630500  1387.8749   6   8   0.5848   0.5387   1.8382   0.2715   0.5768   0.7623   0.00    0.0    0.00000    0.00000    0.00000   0.00000  0.00000  0.00000  0.00000  0.00000  0.00000
2211 196622.000  -25.732029964   28.282630315  1387.8396   6   8   0.5792   0.5337   1.8194   0.2687   0.5707   0.7543   0.00    0.0    0.00000    0.00000    0.00000   0.00000  0.00000  0.00000  0.00000  0.00000  0.00000
2211 196623.000  -25.732030033   28.282630144  1387.8531   6   8   0.5737   0.5288   1.8010   0.2661   0.5648   0.7465   0.00    0.0    0.00000    0.00000    0.00000   0.00000  0.00000  0.00000  0.00000  0.00000  0.00000
2211 196624.000  -25.732030038   28.282630025  1387.8212   6   8   0.5683   0.5241   1.7831   0.2634   0.5590   0.7389   0.00    0.0    0.00000    0.00000    0.00000   0.00000  0.00000  0.00000  0.00000  0.00000  0.00000
2211 196625.000  -25.732030018   28.282629989  1387.7929   6   8   0.5631   0.5194   1.7656   0.2609   0.5533   0.7314   0.00    0.0    0.00000    0.00000    0.00000   0.00000  0.00000  0.00000  0.00000  0.00000  0.00000
2211 196626.000  -25.732030188   28.282629926  1387.7545   6   8   0.5580   0.5149   1.7485   0.2584   0.5477   0.7242   0.00    0.0    0.00000    0.00000    0.00000   0.00000  0.00000  0.00000  0.00000  0.00000  0.00000
2211 196627.000  -25.732030339   28.282629930  1387.7441   6   8   0.5530   0.5105   1.7318   0.2559   0.5423   0.7170   0.00    0.0    0.00000    0.00000    0.00000   0.00000  0.00000  0.00000  0.00000  0.00000  0.00000
2211 196628.000  -25.732030289   28.282629866  1387.7591   6   8   0.5482   0.5062   1.7154   0.2535   0.5370   0.7101   0.00    0.0    0.00000    0.00000    0.00000   0.00000  0.00000  0.00000  0.00000  0.00000  0.00000
2211 196629.000  -25.732030213   28.282629928  1387.7645   6   8   0.5434   0.5020   1.6994   0.2512   0.5318   0.7032   0.00    0.0    0.00000    0.00000    0.00000   0.00000  0.00000  0.00000  0.00000  0.00000  0.00000
2211 196630.000  -25.732030341   28.282629879  1387.7216   6   8   0.5388   0.4979   1.6837   0.2489   0.5267   0.6966   0.00    0.0    0.00000    0.00000    0.00000   0.00000  0.00000  0.00000  0.00000  0.00000  0.00000
2211 196631.000  -25.732030296   28.282629909  1387.7316   6   8   0.5342   0.4939   1.6684   0.2467   0.5217   0.6900   0.00    0.0    0.00000    0.00000    0.00000   0.00000  0.00000  0.00000  0.00000  0.00000  0.00000
2211 196632.000  -25.732030297   28.282629926  1387.7316   6   8   0.5298   0.4900   1.6534   0.2445   0.5168   0.6836   0.00    0.0    0.00000    0.00000    0.00000   0.00000  0.00000  0.00000  0.00000  0.00000  0.00000
2211 196633.000  -25.732030348   28.282629817  1387.7158   6   8   0.5255   0.4862   1.6386   0.2423   0.5120   0.6773   0.00    0.0    0.00000    0.00000    0.00000   0.00000  0.00000  0.00000  0.00000  0.00000  0.00000
2211 196634.000  -25.732030368   28.282629667  1387.7165   6   8   0.5212   0.4825   1.6242   0.2402   0.5073   0.6712   0.00    0.0    0.00000    0.00000    0.00000   0.00000  0.00000  0.00000  0.00000  0.00000  0.00000
2211 196635.000  -25.732030375   28.282629547  1387.7102   6   8   0.5171   0.4788   1.6100   0.2381   0.5027   0.6651   0.00    0.0    0.00000    0.00000    0.00000   0.00000  0.00000  0.00000  0.00000  0.00000  0.00000
2211 196636.000  -25.732030390   28.282629490  1387.6665   6   8   0.5130   0.4752   1.5962   0.2361   0.4982   0.6592   0.00    0.0    0.00000    0.00000    0.00000   0.00000  0.00000  0.00000  0.00000  0.00000  0.00000
2211 196637.000  -25.732030287   28.282629468  1387.6814   6   8   0.5090   0.4717   1.5825   0.2341   0.4937   0.6534   0.00    0.0    0.00000    0.00000    0.00000   0.00000  0.00000  0.00000  0.00000  0.00000  0.00000
2211 196638.000  -25.732030248   28.282629393  1387.6827   6   8   0.5051   0.4683   1.5692   0.2322   0.4894   0.6477   0.00    0.0    0.00000    0.00000    0.00000   0.00000  0.00000  0.00000  0.00000  0.00000  0.00000
2211 196639.000  -25.732030140   28.282629399  1387.6885   6   8   0.5012   0.4649   1.5560   0.2303   0.4851   0.6420   0.00    0.0    0.00000    0.00000    0.00000   0.00000  0.00000  0.00000  0.00000  0.00000  0.00000
2211 196640.000  -25.732030059   28.282629395  1387.7136   6   8   0.4975   0.4617   1.5431   0.2284   0.4809   0.6365   0.00    0.0    0.00000    0.00000    0.00000   0.00000  0.00000  0.00000  0.00000  0.00000  0.00000
2211 196641.000  -25.732030041   28.282629411  1387.7353   6   8   0.4938   0.4584   1.5305   0.2265   0.4767   0.6311   0.00    0.0    0.00000    0.00000    0.00000   0.00000  0.00000  0.00000  0.00000  0.00000  0.00000
2211 196642.000  -25.732030053   28.282629336  1387.7301   6   8   0.4902   0.4553   1.5180   0.2247   0.4726   0.6258   0.00    0.0    0.00000    0.00000    0.00000   0.00000  0.00000  0.00000  0.00000  0.00000  0.00000
2211 196643.000  -25.732030087   28.282629312  1387.6891   6   8   0.4866   0.4522   1.5058   0.2229   0.4686   0.6205   0.00    0.0    0.00000    0.00000    0.00000   0.00000  0.00000  0.00000  0.00000  0.00000  0.00000
2211 196644.000  -25.732030139   28.282629282  1387.6748   6   8   0.4831   0.4491   1.4938   0.2212   0.4647   0.6154   0.00    0.0    0.00000    0.00000    0.00000   0.00000  0.00000  0.00000  0.00000  0.00000  0.00000
2211 196645.000  -25.732030151   28.282629256  1387.6738   6   8   0.4797   0.4461   1.4820   0.2195   0.4608   0.6103   0.00    0.0    0.00000    0.00000    0.00000   0.00000  0.00000  0.00000  0.00000  0.00000  0.00000
2211 196646.000  -25.732030070   28.282629207  1387.6988   6   8   0.4763   0.4432   1.4704   0.2178   0.4570   0.6053   0.00    0.0    0.00000    0.00000    0.00000   0.00000  0.00000  0.00000  0.00000  0.00000  0.00000
2211 196647.000  -25.732030002   28.282629224  1387.7309   6   8   0.4730   0.4403   1.4589   0.2161   0.4533   0.6004   0.00    0.0    0.00000    0.00000    0.00000   0.00000  0.00000  0.00000  0.00000  0.00000  0.00000
2211 196648.000  -25.732029966   28.282629151  1387.7473   6   8   0.4697   0.4375   1.4477   0.2145   0.4496   0.5956   0.00    0.0    0.00000    0.00000    0.00000   0.00000  0.00000  0.00000  0.00000  0.00000  0.00000
2211 196649.000  -25.732030040   28.282629038  1387.7484   6   8   0.4665   0.4347   1.4366   0.2129   0.4459   0.5908   0.00    0.0    0.00000    0.00000    0.00000   0.00000  0.00000  0.00000  0.00000  0.00000  0.00000
2211 196650.000  -25.732030056   28.282628956  1387.7515   6   8   0.4634   0.4320   1.4257   0.2113   0.4424   0.5861   0.00    0.0    0.00000    0.00000    0.00000   0.00000  0.00000  0.00000  0.00000  0.00000  0.00000
2211 196651.000  -25.732030046   28.282629015  1387.7648   6   8   0.4603   0.4293   1.4150   0.2097   0.4388   0.5815   0.00    0.0    0.00000    0.00000    0.00000   0.00000  0.00000  0.00000  0.00000  0.00000  0.00000
2211 196652.000  -25.732030031   28.282628934  1387.7530   6   8   0.4573   0.4267   1.4044   0.2082   0.4354   0.5770   0.00    0.0    0.00000    0.00000    0.00000   0.00000  0.00000  0.00000  0.00000  0.00000  0.00000
2211 196653.000  -25.732029987   28.282628932  1387.7640   6   8   0.4543   0.4241   1.3940   0.2067   0.4319   0.5725   0.00    0.0    0.00000    0.00000    0.00000   0.00000  0.00000  0.00000  0.00000  0.00000  0.00000
2211 196654.000  -25.732029911   28.282628837  1387.7801   6   8   0.4513   0.4216   1.3838   0.2052   0.4286   0.5681   0.00    0.0    0.00000    0.00000    0.00000   0.00000  0.00000  0.00000  0.00000  0.00000  0.00000
2211 196655.000  -25.732029934   28.282628827  1387.7884   6   8   0.4484   0.4190   1.3737   0.2037   0.4252   0.5637   0.00    0.0    0.00000    0.00000    0.00000   0.00000  0.00000  0.00000  0.00000  0.00000  0.00000
2211 196656.000  -25.732029857   28.282628779  1387.7746   6   8   0.4456   0.4166   1.3637   0.2022   0.4220   0.5594   0.00    0.0    0.00000    0.00000    0.00000   0.00000  0.00000  0.00000  0.00000  0.00000  0.00000
2211 196657.000  -25.732029855   28.282628756  1387.7748   6   8   0.4428   0.4142   1.3539   0.2008   0.4187   0.5552   0.00    0.0    0.00000    0.00000    0.00000   0.00000  0.00000  0.00000  0.00000  0.00000  0.00000
2211 196658.000  -25.732029796   28.282628738  1387.7767   6   8   0.4400   0.4118   1.3442   0.1994   0.4155   0.5510   0.00    0.0    0.00000    0.00000    0.00000   0.00000  0.00000  0.00000  0.00000  0.00000  0.00000
2211 196659.000  -25.732029700   28.282628720  1387.8051   6   8   0.4373   0.4094   1.3347   0.1980   0.4124   0.5469   0.00    0.0    0.00000    0.00000    0.00000   0.00000  0.00000  0.00000  0.00000  0.00000  0.00000
2211 196660.000  -25.732029617   28.282628686  1387.8332   6   8   0.4346   0.4071   1.3253   0.1967   0.4093   0.5428   0.00    0.0    0.00000    0.00000    0.00000   0.00000  0.00000  0.00000  0.00000  0.00000  0.00000
2211 196661.000  -25.732029562   28.282628672  1387.8739   6   8   0.4319   0.4049   1.3161   0.1953   0.4062   0.5388   0.00    0.0    0.00000    0.00000    0.00000   0.00000  0.00000  0.00000  0.00000  0.00000  0.00000
2211 196662.000  -25.732029579   28.282628614  1387.8793   6   8   0.4293   0.4026   1.3069   0.1940   0.4032   0.5349   0.00    0.0    0.00000    0.00000    0.00000   0.00000  0.00000  0.00000  0.00000  0.00000  0.00000
2211 196663.000  -25.732029617   28.282628555  1387.8732   6   8   0.4268   0.4004   1.2979   0.1927   0.4002   0.5310   0.00    0.0    0.00000    0.00000    0.00000   0.00000  0.00000  0.00000  0.00000  0.00000  0.00000
2211 196664.000  -25.732029588   28.282628563  1387.8911   6   8   0.4242   0.3983   1.2890   0.1914   0.3973   0.5271   0.00    0.0    0.00000    0.00000    0.00000   0.00000  0.00000  0.00000  0.00000  0.00000  0.00000
2211 196665.000  -25.732029515   28.282628631  1387.9220   6   8   0.4217   0.3961   1.2802   0.1901   0.3944   0.5233   0.00    0.0    0.00000    0.00000    0.00000   0.00000  0.00000  0.00000  0.00000  0.00000  0.00000
2211 196666.000  -25.732029485   28.282628659  1387.9403   6   8   0.4193   0.3940   1.2716   0.1888   0.3915   0.5195   0.00    0.0    0.00000    0.00000    0.00000   0.00000  0.00000  0.00000  0.00000  0.00000  0.00000
2211 196667.000  -25.732029496   28.282628589  1387.9535   6   8   0.4168   0.3919   1.2630   0.1876   0.3887   0.5158   0.00    0.0    0.00000    0.00000    0.00000   0.00000  0.00000  0.00000  0.00000  0.00000  0.00000
2211 196668.000  -25.732029477   28.282628557  1387.9478   6   8   0.4145   0.3899   1.2546   0.1864   0.3859   0.5122   0.00    0.0    0.00000    0.00000    0.00000   0.00000  0.00000  0.00000  0.00000  0.00000  0.00000
2211 196669.000  -25.732029491   28.282628479  1387.9561   6   8   0.4121   0.3879   1.2463   0.1851   0.3831   0.5085   0.00    0.0    0.00000    0.00000    0.00000   0.00000  0.00000  0.00000  0.00000  0.00000  0.00000
2211 196670.000  -25.732029499   28.282628463  1387.9602   6   8   0.4098   0.3859   1.2381   0.1839   0.3804   0.5050   0.00    0.0    0.00000    0.00000    0.00000   0.00000  0.00000  0.00000  0.00000  0.00000  0.00000
2211 196671.000  -25.732029481   28.282628458  1387.9678   6   8   0.4075   0.3839   1.2300   0.1828   0.3777   0.5014   0.00    0.0    0.00000    0.00000    0.00000   0.00000  0.00000  0.00000  0.00000  0.00000  0.00000
2211 196672.000  -25.732029440   28.282628458  1387.9688   6   8   0.4052   0.3820   1.2220   0.1816   0.3750   0.4979   0.00    0.0    0.00000    0.00000    0.00000   0.00000  0.00000  0.00000  0.00000  0.00000  0.00000
2211 196673.000  -25.732029458   28.282628475  1387.9665   6   8   0.4029   0.3801   1.2140   0.1804   0.3724   0.4945   0.00    0.0    0.00000    0.00000    0.00000   0.00000  0.00000  0.00000  0.00000  0.00000  0.00000
2211 196674.000  -25.732029458   28.282628445  1387.9768   6   8   0.4007   0.3782   1.2062   0.1793   0.3698   0.4911   0.00    0.0    0.00000    0.00000    0.00000   0.00000  0.00000  0.00000  0.00000  0.00000  0.00000
2211 196675.000  -25.732029478   28.282628475  1387.9875   6   8   0.3985   0.3764   1.1985   0.1782   0.3672   0.4877   0.00    0.0    0.00000    0.00000    0.00000   0.00000  0.00000  0.00000  0.00000  0.00000  0.00000
2211 196676.000  -25.732029523   28.282628478  1387.9820   6   8   0.3964   0.3745   1.1909   0.1771   0.3647   0.4844   0.00    0.0    0.00000    0.00000    0.00000   0.00000  0.00000  0.00000  0.00000  0.00000  0.00000
2211 196677.000  -25.732029567   28.282628469  1387.9804   6   8   0.3943   0.3727   1.1834   0.1760   0.3621   0.4811   0.00    0.0    0.00000    0.00000    0.00000   0.00000  0.00000  0.00000  0.00000  0.00000  0.00000
2211 196678.000  -25.732029623   28.282628427  1387.9674   6   8   0.3922   0.3710   1.1759   0.1749   0.3597   0.4778   0.00    0.0    0.00000    0.00000    0.00000   0.00000  0.00000  0.00000  0.00000  0.00000  0.00000
2211 196679.000  -25.732029630   28.282628406  1387.9727   6   8   0.3901   0.3692   1.1686   0.1738   0.3572   0.4746   0.00    0.0    0.00000    0.00000    0.00000   0.00000  0.00000  0.00000  0.00000  0.00000  0.00000
2211 196680.000  -25.732029645   28.282628368  1387.9657   6   8   0.3880   0.3675   1.1613   0.1727   0.3548   0.4714   0.00    0.0    0.00000    0.00000    0.00000   0.00000  0.00000  0.00000  0.00000  0.00000  0.00000
2211 196681.000  -25.732029639   28.282628347  1387.9644   6   8   0.3860   0.3658   1.1542   0.1717   0.3524   0.4683   0.00    0.0    0.00000    0.00000    0.00000   0.00000  0.00000  0.00000  0.00000  0.00000  0.00000
2211 196682.000  -25.732029685   28.282628329  1387.9555   6   8   0.3840   0.3641   1.1471   0.1707   0.3500   0.4652   0.00    0.0    0.00000    0.00000    0.00000   0.00000  0.00000  0.00000  0.00000  0.00000  0.00000
2211 196683.000  -25.732029748   28.282628301  1387.9460   6   8   0.3820   0.3624   1.1401   0.1696   0.3477   0.4621   0.00    0.0    0.00000    0.00000    0.00000   0.00000  0.00000  0.00000  0.00000  0.00000  0.00000
2211 196684.000  -25.732029796   28.282628244  1387.9347   6   8   0.3801   0.3608   1.1331   0.1686   0.3453   0.4590   0.00    0.0    0.00000    0.00000    0.00000   0.00000  0.00000  0.00000  0.00000  0.00000  0.00000
2211 196685.000  -25.732029898   28.282628207  1387.9171   6   8   0.3781   0.3591   1.1263   0.1676   0.3430   0.4560   0.00    0.0    0.00000    0.00000    0.00000   0.00000  0.00000  0.00000  0.00000  0.00000  0.00000
2211 196686.000  -25.732029978   28.282628199  1387.9141   6   8   0.3762   0.3575   1.1195   0.1666   0.3408   0.4530   0.00    0.0    0.00000    0.00000    0.00000   0.00000  0.00000  0.00000  0.00000  0.00000  0.00000
2211 196687.000  -25.732030029   28.282628219  1387.9124   6   8   0.3743   0.3559   1.1128   0.1657   0.3385   0.4501   0.00    0.0    0.00000    0.00000    0.00000   0.00000  0.00000  0.00000  0.00000  0.00000  0.00000
2211 196688.000  -25.732030173   28.282628172  1387.9040   6   8   0.3725   0.3544   1.1062   0.1647   0.3363   0.4472   0.00    0.0    0.00000    0.00000    0.00000   0.00000  0.00000  0.00000  0.00000  0.00000  0.00000
2211 196689.000  -25.732030343   28.282628184  1387.8852   6   8   0.3706   0.3528   1.0997   0.1637   0.3341   0.4443   0.00    0.0    0.00000    0.00000    0.00000   0.00000  0.00000  0.00000  0.00000  0.00000  0.00000
2211 196690.000  -25.732030331   28.282628134  1387.8779   6   8   0.3688   0.3513   1.0932   0.1628   0.3319   0.4414   0.00    0.0    0.00000    0.00000    0.00000   0.00000  0.00000  0.00000  0.00000  0.00000  0.00000
2211 196691.000  -25.732030400   28.282628082  1387.8469   6   8   0.3670   0.3498   1.0868   0.1619   0.3298   0.4386   0.00    0.0    0.00000    0.00000    0.00000   0.00000  0.00000  0.00000  0.00000  0.00000  0.00000
2211 196692.000  -25.732030456   28.282628079  1387.8328   6   8   0.3652   0.3483   1.0805   0.1609   0.3277   0.4358   0.00    0.0    0.00000    0.00000    0.00000   0.00000  0.00000  0.00000  0.00000  0.00000  0.00000
2211 196693.000  -25.732030539   28.282628052  1387.8126   6   8   0.3634   0.3468   1.0742   0.1600   0.3256   0.4330   0.00    0.0    0.00000    0.00000    0.00000   0.00000  0.00000  0.00000  0.00000  0.00000  0.00000
2211 196694.000  -25.732030609   28.282627971  1387.7969   6   8   0.3617   0.3453   1.0680   0.1591   0.3235   0.4303   0.00    0.0    0.00000    0.00000    0.00000   0.00000  0.00000  0.00000  0.00000  0.00000  0.00000
2211 196695.000  -25.732030678   28.282627908  1387.7873   6   8   0.3599   0.3439   1.0619   0.1582   0.3214   0.4276   0.00    0.0    0.00000    0.00000    0.00000   0.00000  0.00000  0.00000  0.00000  0.00000  0.00000
2211 196696.000  -25.732030722   28.282627856  1387.7685   6   8   0.3582   0.3425   1.0558   0.1573   0.3194   0.4249   0.00    0.0    0.00000    0.00000    0.00000   0.00000  0.00000  0.00000  0.00000  0.00000  0.00000
2211 196697.000  -25.732030768   28.282627823  1387.7567   6   8   0.3565   0.3411   1.0499   0.1564   0.3174   0.4222   0.00    0.0    0.00000    0.00000    0.00000   0.00000  0.00000  0.00000  0.00000  0.00000  0.00000
2211 196698.000  -25.732030808   28.282627838  1387.7617   6   8   0.3549   0.3397   1.0439   0.1556   0.3154   0.4196   0.00    0.0    0.00000    0.00000    0.00000   0.00000  0.00000  0.00000  0.00000  0.00000  0.00000
2211 196699.000  -25.732030835   28.282627839  1387.7548   6   8   0.3532   0.3383   1.0381   0.1547   0.3134   0.4170   0.00    0.0    0.00000    0.00000    0.00000   0.00000  0.00000  0.00000  0.00000  0.00000  0.00000
2211 196700.000  -25.732030867   28.282627831  1387.7532   6   8   0.3516   0.3369   1.0323   0.1539   0.3114   0.4144   0.00    0.0    0.00000    0.00000    0.00000   0.00000  0.00000  0.00000  0.00000  0.00000  0.00000
2211 196701.000  -25.732030934   28.282627817  1387.7403   6   8   0.3499   0.3356   1.0265   0.1530   0.3095   0.4118   0.00    0.0    0.00000    0.00000    0.00000   0.00000  0.00000  0.00000  0.00000  0.00000  0.00000
2211 196702.000  -25.732031022   28.282627793  1387.7171   6   8   0.3483   0.3342   1.0209   0.1522   0.3076   0.4093   0.00    0.0    0.00000    0.00000    0.00000   0.00000  0.00000  0.00000  0.00000  0.00000  0.00000
2211 196703.000  -25.732031059   28.282627795  1387.7200   6   8   0.3467   0.3329   1.0152   0.1514   0.3057   0.4068   0.00    0.0    0.00000    0.00000    0.00000   0.00000  0.00000  0.00000  0.00000  0.00000  0.00000
2211 196704.000  -25.732031059   28.282627777  1387.6998   6   8   0.3452   0.3316   1.0097   0.1506   0.3038   0.4043   0.00    0.0    0.00000    0.00000    0.00000   0.00000  0.00000  0.00000  0.00000  0.00000  0.00000
2211 196705.000  -25.732031081   28.282627755  1387.6813   6   8   0.3436   0.3303   1.0042   0.1497   0.3019   0.4018   0.00    0.0    0.00000    0.00000    0.00000   0.00000  0.00000  0.00000  0.00000  0.00000  0.00000
2211 196706.000  -25.732031146   28.282627743  1387.6594   6   8   0.3421   0.3290   0.9987   0.1489   0.3001   0.3994   0.00    0.0    0.00000    0.00000    0.00000   0.00000  0.00000  0.00000  0.00000  0.00000  0.00000
2211 196707.000  -25.732031165   28.282627795  1387.6490   6   8   0.3405   0.3278   0.9934   0.1482   0.2983   0.3969   0.00    0.0    0.00000    0.00000    0.00000   0.00000  0.00000  0.00000  0.00000  0.00000  0.00000
2211 196708.000  -25.732031221   28.282627796  1387.6329   6   8   0.3390   0.3265   0.9880   0.1474   0.2965   0.3946   0.00    0.0    0.00000    0.00000    0.00000   0.00000  0.00000  0.00000  0.00000  0.00000  0.00000
2211 196709.000  -25.732031293   28.282627785  1387.6220   6   8   0.3375   0.3253   0.9827   0.1466   0.2947   0.3922   0.00    0.0    0.00000    0.00000    0.00000   0.00000  0.00000  0.00000  0.00000  0.00000  0.00000
2211 196710.000  -25.732031328   28.282627747  1387.6115   6   8   0.3360   0.3241   0.9775   0.1458   0.2929   0.3898   0.00    0.0    0.00000    0.00000    0.00000   0.00000  0.00000  0.00000  0.00000  0.00000  0.00000
2211 196711.000  -25.732031388   28.282627676  1387.5876   6   8   0.3346   0.3228   0.9723   0.1451   0.2911   0.3875   0.00    0.0    0.00000    0.00000    0.00000   0.00000  0.00000  0.00000  0.00000  0.00000  0.00000
2211 196712.000  -25.732031441   28.282627624  1387.5744   6   8   0.3331   0.3216   0.9672   0.1443   0.2894   0.3852   0.00    0.0    0.00000    0.00000    0.00000   0.00000  0.00000  0.00000  0.00000  0.00000  0.00000
2211 196713.000  -25.732031448   28.282627552  1387.5498   6   8   0.3317   0.3205   0.9622   0.1436   0.2877   0.3829   0.00    0.0    0.00000    0.00000    0.00000   0.00000  0.00000  0.00000  0.00000  0.00000  0.00000
2211 196714.000  -25.732031479   28.282627533  1387.5383   6   8   0.3302   0.3193   0.9572   0.1428   0.2860   0.3806   0.00    0.0    0.00000    0.00000    0.00000   0.00000  0.00000  0.00000  0.00000  0.00000  0.00000
2211 196715.000  -25.732031512   28.282627453  1387.5312   6   8   0.3288   0.3181   0.9522   0.1421   0.2843   0.3784   0.00    0.0    0.00000    0.00000    0.00000   0.00000  0.00000  0.00000  0.00000  0.00000  0.00000
2211 196716.000  -25.732031506   28.282627451  1387.5356   6   8   0.3274   0.3170   0.9473   0.1414   0.2826   0.3762   0.00    0.0    0.00000    0.00000    0.00000   0.00000  0.00000  0.00000  0.00000  0.00000  0.00000
2211 196717.000  -25.732031512   28.282627448  1387.5322   6   8   0.3260   0.3158   0.9424   0.1406   0.2810   0.3740   0.00    0.0    0.00000    0.00000    0.00000   0.00000  0.00000  0.00000  0.00000  0.00000  0.00000
2211 196718.000  -25.732031559   28.282627415  1387.5227   6   8   0.3247   0.3147   0.9376   0.1399   0.2793   0.3718   0.00    0.0    0.00000    0.00000    0.00000   0.00000  0.00000  0.00000  0.00000  0.00000  0.00000
2211 196719.000  -25.732031591   28.282627441  1387.5218   6   8   0.3233   0.3136   0.9328   0.1392   0.2777   0.3696   0.00    0.0    0.00000    0.00000    0.00000   0.00000  0.00000  0.00000  0.00000  0.00000  0.00000
2211 196720.000  -25.732031571   28.282627417  1387.5228   6   8   0.3219   0.3125   0.9281   0.1385   0.2761   0.3675   0.00    0.0    0.00000    0.00000    0.00000   0.00000  0.00000  0.00000  0.00000  0.00000  0.00000
2211 196721.000  -25.732031552   28.282627375  1387.5237   6   8   0.3206   0.3114   0.9234   0.1378   0.2745   0.3653   0.00    0.0    0.00000    0.00000    0.00000   0.00000  0.00000  0.00000  0.00000  0.00000  0.00000
2211 196722.000  -25.732031558   28.282627385  1387.5342   6   8   0.3193   0.3103   0.9188   0.1372   0.2729   0.3632   0.00    0.0    0.00000    0.00000    0.00000   0.00000  0.00000  0.00000  0.00000  0.00000  0.00000
2211 196723.000  -25.732031582   28.282627369  1387.5249   6   8   0.3179   0.3092   0.9142   0.1365   0.2714   0.3611   0.00    0.0    0.00000    0.00000    0.00000   0.00000  0.00000  0.00000  0.00000  0.00000  0.00000
2211 196724.000  -25.732031586   28.282627380  1387.5300   6   8   0.3166   0.3081   0.9097   0.1358   0.2698   0.3591   0.00    0.0    0.00000    0.00000    0.00000   0.00000  0.00000  0.00000  0.00000  0.00000  0.00000
2211 196725.000  -25.732031621   28.282627414  1387.5391   6   8   0.3154   0.3071   0.9052   0.1351   0.2683   0.3570   0.00    0.0    0.00000    0.00000    0.00000   0.00000  0.00000  0.00000  0.00000  0.00000  0.00000
2211 196726.000  -25.732031613   28.282627426  1387.5401   6   8   0.3141   0.3060   0.9007   0.1345   0.2668   0.3550   0.00    0.0    0.00000    0.00000    0.00000   0.00000  0.00000  0.00000  0.00000  0.00000  0.00000
2211 196727.000  -25.732031621   28.282627395  1387.5326   6   8   0.3128   0.3050   0.8963   0.1338   0.2653   0.3529   0.00    0.0    0.00000    0.00000    0.00000   0.00000  0.00000  0.00000  0.00000  0.00000  0.00000
2211 196728.000  -25.732031581   28.282627353  1387.5366   6   8   0.3115   0.3040   0.8919   0.1332   0.2638   0.3509   0.00    0.0    0.00000    0.00000    0.00000   0.00000  0.00000  0.00000  0.00000  0.00000  0.00000
2211 196729.000  -25.732031572   28.282627320  1387.5321   6   8   0.3103   0.3029   0.8876   0.1325   0.2623   0.3489   0.00    0.0    0.00000    0.00000    0.00000   0.00000  0.00000  0.00000  0.00000  0.00000  0.00000
2211 196730.000  -25.732031573   28.282627293  1387.5405   6   8   0.3090   0.3019   0.8833   0.1319   0.2609   0.3470   0.00    0.0    0.00000    0.00000    0.00000   0.00000  0.00000  0.00000  0.00000  0.00000  0.00000
2211 196731.000  -25.732031582   28.282627281  1387.5404   6   8   0.3078   0.3009   0.8791   0.1313   0.2594   0.3450   0.00    0.0    0.00000    0.00000    0.00000   0.00000  0.00000  0.00000  0.00000  0.00000  0.00000
2211 196732.000  -25.732031547   28.282627297  1387.5437   6   8   0.3066   0.2999   0.8749   0.1306   0.2580   0.3431   0.00    0.0    0.00000    0.00000    0.00000   0.00000  0.00000  0.00000  0.00000  0.00000  0.00000
2211 196733.000  -25.732031506   28.282627272  1387.5434   6   8   0.3054   0.2990   0.8707   0.1300   0.2565   0.3412   0.00    0.0    0.00000    0.00000    0.00000   0.00000  0.00000  0.00000  0.00000  0.00000  0.00000
2211 196734.000  -25.732031493   28.282627270  1387.5422   6   8   0.3042   0.2980   0.8666   0.1294   0.2551   0.3393   0.00    0.0    0.00000    0.00000    0.00000   0.00000  0.00000  0.00000  0.00000  0.00000  0.00000
2211 196735.000  -25.732031519   28.282627306  1387.5349   6   8   0.3030   0.2970   0.8625   0.1288   0.2537   0.3374   0.00    0.0    0.00000    0.00000    0.00000   0.00000  0.00000  0.00000  0.00000  0.00000  0.00000
2211 196736.000  -25.732031508   28.282627260  1387.5250   6   8   0.3018   0.2961   0.8584   0.1282   0.2524   0.3355   0.00    0.0    0.00000    0.00000    0.00000   0.00000  0.00000  0.00000  0.00000  0.00000  0.00000
2211 196737.000  -25.732031514   28.282627306  1387.5166   6   8   0.3007   0.2951   0.8544   0.1276   0.2510   0.3336   0.00    0.0    0.00000    0.00000    0.00000   0.00000  0.00000  0.00000  0.00000  0.00000  0.00000
2211 196738.000  -25.732031551   28.282627296  1387.5054   6   8   0.2995   0.2942   0.8505   0.1270   0.2496   0.3318   0.00    0.0    0.00000    0.00000    0.00000   0.00000  0.00000  0.00000  0.00000  0.00000  0.00000
2211 196739.000  -25.732031552   28.282627325  1387.5034   6   8   0.2984   0.2932   0.8465   0.1264   0.2483   0.3300   0.00    0.0    0.00000    0.00000    0.00000   0.00000  0.00000  0.00000  0.00000  0.00000  0.00000
2211 196740.000  -25.732031546   28.282627309  1387.4966   6   8   0.2972   0.2923   0.8426   0.1259   0.2470   0.3282   0.00    0.0    0.00000    0.00000    0.00000   0.00000  0.00000  0.00000  0.00000  0.00000  0.00000
2211 196741.000  -25.732031541   28.282627333  1387.4913   6   8   0.2961   0.2914   0.8388   0.1253   0.2457   0.3264   0.00    0.0    0.00000    0.00000    0.00000   0.00000  0.00000  0.00000  0.00000  0.00000  0.00000
2211 196742.000  -25.732031566   28.282627343  1387.4902   6   8   0.2950   0.2905   0.8349   0.1247   0.2443   0.3246   0.00    0.0    0.00000    0.00000    0.00000   0.00000  0.00000  0.00000  0.00000  0.00000  0.00000
2211 196743.000  -25.732031562   28.282627329  1387.4907   6   8   0.2938   0.2896   0.8311   0.1241   0.2431   0.3228   0.00    0.0    0.00000    0.00000    0.00000   0.00000  0.00000  0.00000  0.00000  0.00000  0.00000
2211 196744.000  -25.732031537   28.282627317  1387.4925   6   8   0.2927   0.2887   0.8274   0.1236   0.2418   0.3210   0.00    0.0    0.00000    0.00000    0.00000   0.00000  0.00000  0.00000  0.00000  0.00000  0.00000
2211 196745.000  -25.732031502   28.282627318  1387.4988   6   8   0.2916   0.2878   0.8237   0.1230   0.2405   0.3193   0.00    0.0    0.00000    0.00000    0.00000   0.00000  0.00000  0.00000  0.00000  0.00000  0.00000
2211 196746.000  -25.732031507   28.282627309  1387.4975   6   8   0.2906   0.2869   0.8200   0.1225   0.2392   0.3176   0.00    0.0    0.00000    0.00000    0.00000   0.00000  0.00000  0.00000  0.00000  0.00000  0.00000
2211 196747.000  -25.732031505   28.282627286  1387.4997   6   8   0.2895   0.2861   0.8163   0.1219   0.2380   0.3159   0.00    0.0    0.00000    0.00000    0.00000   0.00000  0.00000  0.00000  0.00000  0.00000  0.00000
2211 196748.000  -25.732031504   28.282627332  1387.4994   6   8   0.2884   0.2852   0.8127   0.1214   0.2368   0.3142   0.00    0.0    0.00000    0.00000    0.00000   0.00000  0.00000  0.00000  0.00000  0.00000  0.00000
2211 196749.000  -25.732031510   28.282627347  1387.4983   6   8   0.2873   0.2844   0.8091   0.1208   0.2355   0.3125   0.00    0.0    0.00000    0.00000    0.00000   0.00000  0.00000  0.00000  0.00000  0.00000  0.00000
2211 196750.000  -25.732031497   28.282627395  1387.4990   6   8   0.2863   0.2835   0.8055   0.1203   0.2343   0.3108   0.00    0.0    0.00000    0.00000    0.00000   0.00000  0.00000  0.00000  0.00000  0.00000  0.00000
2211 196751.000  -25.732031495   28.282627437  1387.5026   6   8   0.2852   0.2827   0.8020   0.1198   0.2331   0.3091   0.00    0.0    0.00000    0.00000    0.00000   0.00000  0.00000  0.00000  0.00000  0.00000  0.00000
2211 196752.000  -25.732031446   28.282627484  1387.5101   6   8   0.2842   0.2818   0.7985   0.1193   0.2319   0.3075   0.00    0.0    0.00000    0.00000    0.00000   0.00000  0.00000  0.00000  0.00000  0.00000  0.00000
2211 196753.000  -25.732031397   28.282627474  1387.5118   6   8   0.2832   0.2810   0.7951   0.1187   0.2308   0.3059   0.00    0.0    0.00000    0.00000    0.00000   0.00000  0.00000  0.00000  0.00000  0.00000  0.00000
2211 196754.000  -25.732031411   28.282627496  1387.5061   6   8   0.2821   0.2802   0.7916   0.1182   0.2296   0.3042   0.00    0.0    0.00000    0.00000    0.00000   0.00000  0.00000  0.00000  0.00000  0.00000  0.00000
2211 196755.000  -25.732031417   28.282627517  1387.5081   6   8   0.2811   0.2794   0.7882   0.1177   0.2284   0.3026   0.00    0.0    0.00000    0.00000    0.00000   0.00000  0.00000  0.00000  0.00000  0.00000  0.00000
2211 196756.000  -25.732031397   28.282627512  1387.5090   6   8   0.2801   0.2786   0.7849   0.1172   0.2273   0.3010   0.00    0.0    0.00000    0.00000    0.00000   0.00000  0.00000  0.00000  0.00000  0.00000  0.00000
2211 196757.000  -25.732031366   28.282627506  1387.5202   6   8   0.2791   0.2778   0.7815   0.1167   0.2261   0.2995   0.00    0.0    0.00000    0.00000    0.00000   0.00000  0.00000  0.00000  0.00000  0.00000  0.00000
2211 196758.000  -25.732031340   28.282627509  1387.5210   6   8   0.2781   0.2770   0.7782   0.1162   0.2250   0.2979   0.00    0.0    0.00000    0.00000    0.00000   0.00000  0.00000  0.00000  0.00000  0.00000  0.00000
2211 196759.000  -25.732031333   28.282627482  1387.5154   6   8   0.2771   0.2762   0.7749   0.1157   0.2239   0.2963   0.00    0.0    0.00000    0.00000    0.00000   0.00000  0.00000  0.00000  0.00000  0.00000  0.00000
2211 196760.000  -25.732031311   28.282627463  1387.5191   6   8   0.2762   0.2754   0.7717   0.1152   0.2228   0.2948   0.00    0.0    0.00000    0.00000    0.00000   0.00000  0.00000  0.00000  0.00000  0.00000  0.00000
2211 196761.000  -25.732031315   28.282627432  1387.5217   6   8   0.2752   0.2746   0.7685   0.1147   0.2217   0.2932   0.00    0.0    0.00000    0.00000    0.00000   0.00000  0.00000  0.00000  0.00000  0.00000  0.00000
2211 196762.000  -25.732031331   28.282627407  1387.5181   6   8   0.2742   0.2738   0.7653   0.1143   0.2206   0.2917   0.00    0.0    0.00000    0.00000    0.00000   0.00000  0.00000  0.00000  0.00000  0.00000  0.00000
2211 196785.000  -25.732031358   28.282627415  1387.5175   6   8   0.2731   0.2730   0.7610   0.1136   0.2191   0.2896   0.00    0.0    0.00000    0.00000    0.00000   0.00000  0.00000  0.00000  0.00000  0.00000  0.00000
2211 196786.000  -25.732031378   28.282627406  1387.5182   6   8   0.2719   0.2722   0.7567   0.1130   0.2177   0.2876   0.00    0.0    0.00000    0.00000    0.00000   0.00000  0.00000  0.00000  0.00000  0.00000  0.00000
2211 196787.000  -25.732031413   28.282627416  1387.5125   6   8   0.2708   0.2714   0.7525   0.1124   0.2163   0.2856   0.00    0.0    0.00000    0.00000    0.00000   0.00000  0.00000  0.00000  0.00000  0.00000  0.00000
2211 196788.000  -25.732031431   28.282627422  1387.5177   6   8   0.2697   0.2706   0.7484   0.1118   0.2149   0.2836   0.00    0.0    0.00000    0.00000    0.00000   0.00000  0.00000  0.00000  0.00000  0.00000  0.00000
2211 196789.000  -25.732031430   28.282627438  1387.5245   6   8   0.2686   0.2698   0.7444   0.1113   0.2135   0.2816   0.00    0.0    0.00000    0.00000    0.00000   0.00000  0.00000  0.00000  0.00000  0.00000  0.00000
2211 196790.000  -25.732031413   28.282627446  1387.5317   6   8   0.2675   0.2691   0.7404   0.1107   0.2122   0.2797   0.00    0.0    0.00000    0.00000    0.00000   0.00000  0.00000  0.00000  0.00000  0.00000  0.00000
2211 196791.000  -25.732031425   28.282627462  1387.5353   6   8   0.2664   0.2683   0.7365   0.1101   0.2109   0.2778   0.00    0.0    0.00000    0.00000    0.00000   0.00000  0.00000  0.00000  0.00000  0.00000  0.00000
2211 196792.000  -25.732031420   28.282627438  1387.5319   6   8   0.2654   0.2675   0.7327   0.1096   0.2096   0.2759   0.00    0.0    0.00000    0.00000    0.00000   0.00000  0.00000  0.00000  0.00000  0.00000  0.00000
2211 196793.000  -25.732031412   28.282627392  1387.5314   6   8   0.2643   0.2668   0.7289   0.1090   0.2083   0.2741   0.00    0.0    0.00000    0.00000    0.00000   0.00000  0.00000  0.00000  0.00000  0.00000  0.00000
2211 196794.000  -25.732031389   28.282627405  1387.5315   6   8   0.2633   0.2660   0.7252   0.1085   0.2070   0.2723   0.00    0.0    0.00000    0.00000    0.00000   0.00000  0.00000  0.00000  0.00000  0.00000  0.00000
2211 196795.000  -25.732031394   28.282627359  1387.5347   6   8   0.2622   0.2653   0.7215   0.1080   0.2058   0.2705   0.00    0.0    0.00000    0.00000    0.00000   0.00000  0.00000  0.00000  0.00000  0.00000  0.00000
2211 196796.000  -25.732031395   28.282627337  1387.5377   6   8   0.2612   0.2645   0.7179   0.1074   0.2046   0.2687   0.00    0.0    0.00000    0.00000    0.00000   0.00000  0.00000  0.00000  0.00000  0.00000  0.00000
2211 196797.000  -25.732031384   28.282627351  1387.5384   6   8   0.2602   0.2638   0.7143   0.1069   0.2034   0.2669   0.00    0.0    0.00000    0.00000    0.00000   0.00000  0.00000  0.00000  0.00000  0.00000  0.00000
2211 196798.000  -25.732031380   28.282627345  1387.5400   6   8   0.2592   0.2631   0.7108   0.1064   0.2022   0.2652   0.00    0.0    0.00000    0.00000    0.00000   0.00000  0.00000  0.00000  0.00000  0.00000  0.00000
2211 196799.000  -25.732031367   28.282627345  1387.5384   6   8   0.2582   0.2623   0.7074   0.1059   0.2011   0.2635   0.00    0.0    0.00000    0.00000    0.00000   0.00000  0.00000  0.00000  0.00000  0.00000  0.00000
2211 196800.000  -25.732031343   28.282627325  1387.5432   6   8   0.2572   0.2616   0.7040   0.1054   0.2000   0.2618   0.00    0.0    0.00000    0.00000    0.00000   0.00000  0.00000  0.00000  0.00000  0.00000  0.00000
2211 196801.000  -25.732031335   28.282627329  1387.5407   6   8   0.2563   0.2609   0.7006   0.1049   0.1988   0.2602   0.00    0.0    0.00000    0.00000    0.00000   0.00000  0.00000  0.00000  0.00000  0.00000  0.00000
2211 196802.000  -25.732031316   28.282627295  1387.5438   6   8   0.2553   0.2602   0.6973   0.1044   0.1977   0.2585   0.00    0.0    0.00000    0.00000    0.00000   0.00000  0.00000  0.00000  0.00000  0.00000  0.00000
2211 196803.000  -25.732031332   28.282627289  1387.5492   6   8   0.2543   0.2595   0.6940   0.1040   0.1967   0.2569   0.00    0.0    0.00000    0.00000    0.00000   0.00000  0.00000  0.00000  0.00000  0.00000  0.00000
2211 196804.000  -25.732031321   28.282627275  1387.5469   6   8   0.2534   0.2588   0.6908   0.1035   0.1956   0.2553   0.00    0.0    0.00000    0.00000    0.00000   0.00000  0.00000  0.00000  0.00000  0.00000  0.00000
2211 196805.000  -25.732031308   28.282627259  1387.5433   6   8   0.2524   0.2582   0.6877   0.1030   0.1946   0.2538   0.00    0.0    0.00000    0.00000    0.00000   0.00000  0.00000  0.00000  0.00000  0.00000  0.00000
2211 196806.000  -25.732031309   28.282627228  1387.5425   6   9   0.2515   0.2574   0.6843   0.1024   0.1932   0.2520   0.00    0.0    0.00000    0.00000    0.00000   0.00000  0.00000  0.00000  0.00000  0.00000  0.00000
2211 196807.000  -25.732031299   28.282627183  1387.5374   6   9   0.2505   0.2566   0.6811   0.1017   0.1919   0.2503   0.00    0.0    0.00000    0.00000    0.00000   0.00000  0.00000  0.00000  0.00000  0.00000  0.00000
2211 196808.000  -25.732031332   28.282627127  1387.5260   6   9   0.2495   0.2558   0.6778   0.1011   0.1906   0.2486   0.00    0.0    0.00000    0.00000    0.00000   0.00000  0.00000  0.00000  0.00000  0.00000  0.00000
2211 196809.000  -25.732031359   28.282627123  1387.5178   6   9   0.2485   0.2551   0.6747   0.1004   0.1894   0.2469   0.00    0.0    0.00000    0.00000    0.00000   0.00000  0.00000  0.00000  0.00000  0.00000  0.00000
2211 196810.000  -25.732031360   28.282627102  1387.5081   6   9   0.2476   0.2543   0.6716   0.0998   0.1881   0.2453   0.00    0.0    0.00000    0.00000    0.00000   0.00000  0.00000  0.00000  0.00000  0.00000  0.00000
2211 196811.000  -25.732031386   28.282627079  1387.4999   6   9   0.2466   0.2536   0.6685   0.0992   0.1869   0.2437   0.00    0.0    0.00000    0.00000    0.00000   0.00000  0.00000  0.00000  0.00000  0.00000  0.00000
2211 196812.000  -25.732031390   28.282627056  1387.4948   6   9   0.2457   0.2529   0.6654   0.0986   0.1857   0.2421   0.00    0.0    0.00000    0.00000    0.00000   0.00000  0.00000  0.00000  0.00000  0.00000  0.00000
2211 196813.000  -25.732031401   28.282627067  1387.4920   6   9   0.2448   0.2521   0.6625   0.0980   0.1846   0.2405   0.00    0.0    0.00000    0.00000    0.00000   0.00000  0.00000  0.00000  0.00000  0.00000  0.00000
2211 196814.000  -25.732031383   28.282627096  1387.4882   6   9   0.2439   0.2514   0.6595   0.0974   0.1834   0.2389   0.00    0.0    0.00000    0.00000    0.00000   0.00000  0.00000  0.00000  0.00000  0.00000  0.00000
2211 196815.000  -25.732031403   28.282627081  1387.4815   6   9   0.2430   0.2507   0.6566   0.0969   0.1823   0.2374   0.00    0.0    0.00000    0.00000    0.00000   0.00000  0.00000  0.00000  0.00000  0.00000  0.00000
2211 196816.000  -25.732031432   28.282627077  1387.4759   6   9   0.2421   0.2500   0.6537   0.0963   0.1812   0.2359   0.00    0.0    0.00000    0.00000    0.00000   0.00000  0.00000  0.00000  0.00000  0.00000  0.00000
2211 196817.000  -25.732031442   28.282627067  1387.4741   6   9   0.2412   0.2493   0.6509   0.0958   0.1801   0.2344   0.00    0.0    0.00000    0.00000    0.00000   0.00000  0.00000  0.00000  0.00000  0.00000  0.00000
2211 196818.000  -25.732031445   28.282627082  1387.4712   6   9   0.2403   0.2486   0.6481   0.0952   0.1791   0.2329   0.00    0.0    0.00000    0.00000    0.00000   0.00000  0.00000  0.00000  0.00000  0.00000  0.00000
2211 196819.000  -25.732031461   28.282627081  1387.4657   6   9   0.2394   0.2479   0.6454   0.0947   0.1780   0.2315   0.00    0.0    0.00000    0.00000    0.00000   0.00000  0.00000  0.00000  0.00000  0.00000  0.00000
2211 196820.000  -25.732031448   28.282627113  1387.4637   6   9   0.2386   0.2473   0.6427   0.0941   0.1770   0.2300   0.00    0.0    0.00000    0.00000    0.00000   0.00000  0.00000  0.00000  0.00000  0.00000  0.00000
2211 196821.000  -25.732031436   28.282627138  1387.4613   6   9   0.2377   0.2466   0.6400   0.0936   0.1760   0.2286   0.00    0.0    0.00000    0.00000    0.00000   0.00000  0.00000  0.00000  0.00000  0.00000  0.00000
2211 196822.000  -25.732031449   28.282627130  1387.4533   6   9   0.2369   0.2459   0.6374   0.0931   0.1750   0.2272   0.00    0.0    0.00000    0.00000    0.00000   0.00000  0.00000  0.00000  0.00000  0.00000  0.00000
2211 196823.000  -25.732031443   28.282627154  1387.4447   6   9   0.2360   0.2453   0.6348   0.0926   0.1740   0.2258   0.00    0.0    0.00000    0.00000    0.00000   0.00000  0.00000  0.00000  0.00000  0.00000  0.00000
2211 196824.000  -25.732031439   28.282627176  1387.4382   6   9   0.2352   0.2446   0.6322   0.0921   0.1731   0.2245   0.00    0.0    0.00000    0.00000    0.00000   0.00000  0.00000  0.00000  0.00000  0.00000  0.00000
2211 196825.000  -25.732031451   28.282627181  1387.4367   6   9   0.2344   0.2439   0.6296   0.0916   0.1721   0.2231   0.00    0.0    0.00000    0.00000    0.00000   0.00000  0.00000  0.00000  0.00000  0.00000  0.00000
2211 196826.000  -25.732031457   28.282627174  1387.4295   6   9   0.2335   0.2433   0.6271   0.0911   0.1712   0.2218   0.00    0.0    0.00000    0.00000    0.00000   0.00000  0.00000  0.00000  0.00000  0.00000  0.00000
2211 196827.000  -25.732031441   28.282627192  1387.4258   6   9   0.2327   0.2427   0.6246   0.0906   0.1703   0.2204   0.00    0.0    0.00000    0.00000    0.00000   0.00000  0.00000  0.00000  0.00000  0.00000  0.00000
2211 196828.000  -25.732031428   28.282627198  1387.4198   6   9   0.2319   0.2420   0.6222   0.0902   0.1694   0.2191   0.00    0.0    0.00000    0.00000    0.00000   0.00000  0.00000  0.00000  0.00000  0.00000  0.00000
2211 196829.000  -25.732031426   28.282627201  1387.4179   6   9   0.2311   0.2414   0.6198   0.0897   0.1685   0.2178   0.00    0.0    0.00000    0.00000    0.00000   0.00000  0.00000  0.00000  0.00000  0.00000  0.00000
2211 196830.000  -25.732031412   28.282627219  1387.4138   6   9   0.2303   0.2408   0.6174   0.0892   0.1677   0.2166   0.00    0.0    0.00000    0.00000    0.00000   0.00000  0.00000  0.00000  0.00000  0.00000  0.00000
2211 196831.000  -25.732031416   28.282627216  1387.4096   6   9   0.2295   0.2402   0.6150   0.0888   0.1668   0.2153   0.00    0.0    0.00000    0.00000    0.00000   0.00000  0.00000  0.00000  0.00000  0.00000  0.00000
2211 196832.000  -25.732031430   28.282627234  1387.4064   6   9   0.2288   0.2396   0.6127   0.0883   0.1660   0.2141   0.00    0.0    0.00000    0.00000    0.00000   0.00000  0.00000  0.00000  0.00000  0.00000  0.00000
2211 196833.000  -25.732031415   28.282627231  1387.4063   6   9   0.2280   0.2389   0.6104   0.0879   0.1652   0.2128   0.00    0.0    0.00000    0.00000    0.00000   0.00000  0.00000  0.00000  0.00000  0.00000  0.00000
2211 196834.000  -25.732031433   28.282627217  1387.4011   6   9   0.2272   0.2383   0.6081   0.0874   0.1643   0.2116   0.00    0.0    0.00000    0.00000    0.00000   0.00000  0.00000  0.00000  0.00000  0.00000  0.00000
2211 196835.000  -25.732031440   28.282627215  1387.3936   6   9   0.2265   0.2378   0.6058   0.0870   0.1636   0.2104   0.00    0.0    0.00000    0.00000    0.00000   0.00000  0.00000  0.00000  0.00000  0.00000  0.00000
2211 196836.000  -25.732031446   28.282627236  1387.3930   6   9   0.2257   0.2372   0.6036   0.0866   0.1628   0.2092   0.00    0.0    0.00000    0.00000    0.00000   0.00000  0.00000  0.00000  0.00000  0.00000  0.00000
2211 196837.000  -25.732031425   28.282627255  1387.3934   6   9   0.2250   0.2366   0.6014   0.0862   0.1620   0.2080   0.00    0.0    0.00000    0.00000    0.00000   0.00000  0.00000  0.00000  0.00000  0.00000  0.00000
2211 196838.000  -25.732031399   28.282627275  1387.3922   6   9   0.2242   0.2360   0.5992   0.0857   0.1613   0.2069   0.00    0.0    0.00000    0.00000    0.00000   0.00000  0.00000  0.00000  0.00000  0.00000  0.00000
2211 196839.000  -25.732031401   28.282627282  1387.3891   6   9   0.2235   0.2354   0.5971   0.0853   0.1605   0.2057   0.00    0.0    0.00000    0.00000    0.00000   0.00000  0.00000  0.00000  0.00000  0.00000  0.00000
2211 196840.000  -25.732031374   28.282627291  1387.3847   6   9   0.2228   0.2348   0.5949   0.0849   0.1598   0.2046   0.00    0.0    0.00000    0.00000    0.00000   0.00000  0.00000  0.00000  0.00000  0.00000  0.00000
2211 196841.000  -25.732031360   28.282627299  1387.3843   6   9   0.2220   0.2343   0.5928   0.0845   0.1591   0.2034   0.00    0.0    0.00000    0.00000    0.00000   0.00000  0.00000  0.00000  0.00000  0.00000  0.00000
2211 196842.000  -25.732031356   28.282627295  1387.3814   6   9   0.2213   0.2337   0.5907   0.0841   0.1584   0.2023   0.00    0.0    0.00000    0.00000    0.00000   0.00000  0.00000  0.00000  0.00000  0.00000  0.00000
2211 196843.000  -25.732031350   28.282627315  1387.3836   6   9   0.2206   0.2331   0.5887   0.0837   0.1577   0.2012   0.00    0.0    0.00000    0.00000    0.00000   0.00000  0.00000  0.00000  0.00000  0.00000  0.00000
2211 196844.000  -25.732031327   28.282627318  1387.3847   6   9   0.2199   0.2326   0.5866   0.0833   0.1570   0.2001   0.00    0.0    0.00000    0.00000    0.00000   0.00000  0.00000  0.00000  0.00000  0.00000  0.00000
2211 196845.000  -25.732031305   28.282627332  1387.3802   6   9   0.2192   0.2320   0.5846   0.0830   0.1563   0.1990   0.00    0.0    0.00000    0.00000    0.00000   0.00000  0.00000  0.00000  0.00000  0.00000  0.00000
2211 196846.000  -25.732031300   28.282627338  1387.3755   6   9   0.2185   0.2315   0.5826   0.0826   0.1556   0.1979   0.00    0.0    0.00000    0.00000    0.00000   0.00000  0.00000  0.00000  0.00000  0.00000  0.00000
2211 196847.000  -25.732031279   28.282627363  1387.3747   6   9   0.2178   0.2309   0.5806   0.0822   0.1550   0.1969   0.00    0.0    0.00000    0.00000    0.00000   0.00000  0.00000  0.00000  0.00000  0.00000  0.00000
2211 196848.000  -25.732031271   28.282627355  1387.3757   6   9   0.2171   0.2304   0.5786   0.0818   0.1543   0.1958   0.00    0.0    0.00000    0.00000    0.00000   0.00000  0.00000  0.00000  0.00000  0.00000  0.00000
2211 196849.000  -25.732031253   28.282627388  1387.3788   6   9   0.2165   0.2299   0.5767   0.0815   0.1537   0.1947   0.00    0.0    0.00000    0.00000    0.00000   0.00000  0.00000  0.00000  0.00000  0.00000  0.00000
2211 196850.000  -25.732031211   28.282627390  1387.3778   6   9   0.2158   0.2293   0.5748   0.0811   0.1531   0.1937   0.00    0.0    0.00000    0.00000    0.00000   0.00000  0.00000  0.00000  0.00000  0.00000  0.00000
2211 196851.000  -25.732031199   28.282627378  1387.3780   6   9   0.2151   0.2288   0.5728   0.0808   0.1525   0.1927   0.00    0.0    0.00000    0.00000    0.00000   0.00000  0.00000  0.00000  0.00000  0.00000  0.00000
2211 196852.000  -25.732031200   28.282627396  1387.3744   6   9   0.2144   0.2283   0.5710   0.0804   0.1519   0.1917   0.00    0.0    0.00000    0.00000    0.00000   0.00000  0.00000  0.00000  0.00000  0.00000  0.00000
2211 196853.000  -25.732031168   28.282627427  1387.3796   6   9   0.2138   0.2278   0.5691   0.0801   0.1513   0.1907   0.00    0.0    0.00000    0.00000    0.00000   0.00000  0.00000  0.00000  0.00000  0.00000  0.00000
2211 196854.000  -25.732031137   28.282627439  1387.3841   6   9   0.2131   0.2273   0.5672   0.0797   0.1507   0.1896   0.00    0.0    0.00000    0.00000    0.00000   0.00000  0.00000  0.00000  0.00000  0.00000  0.00000
2211 196855.000  -25.732031137   28.282627438  1387.3807   6   9   0.2125   0.2267   0.5654   0.0794   0.1501   0.1887   0.00    0.0    0.00000    0.00000    0.00000   0.00000  0.00000  0.00000  0.00000  0.00000  0.00000
2211 196856.000  -25.732031129   28.282627461  1387.3786   6   9   0.2118   0.2262   0.5636   0.0790   0.1495   0.1877   0.00    0.0    0.00000    0.00000    0.00000   0.00000  0.00000  0.00000  0.00000  0.00000  0.00000
2211 196857.000  -25.732031105   28.282627455  1387.3762   6   9   0.2112   0.2257   0.5617   0.0787   0.1490   0.1867   0.00    0.0    0.00000    0.00000    0.00000   0.00000  0.00000  0.00000  0.00000  0.00000  0.00000
