% (lat/lon/height=WGS84/ellipsoidal,Q=1:fix,2:float,3:sbas,4:dgps,5:single,6:ppp,ns=# of satellites)
%  GPST          latitude(deg) longitude(deg)  height(m)   Q  ns   sdn(m)   sde(m)   sdu(m)  sdne(m)  sdeu(m)  sdun(m) age(s)  ratio    vn(m/s)    ve(m/s)    vu(m/s)      sdvn     sdve     sdvu    sdvne    sdveu    sdvun
2314 462538.000  -33.951437591   18.468563029    82.5418   6   8   4.8555   3.8203  10.1342  -0.6129   2.2241   5.1441   0.00    0.0    0.00000    0.00000    0.00000   0.00000  0.00000  0.00000  0.00000  0.00000  0.00000
2314 462539.000  -33.951433625   18.468565877    83.0070   6   8   3.4535   2.7104   7.2340  -0.4339   1.5856   3.6722   0.00    0.0    0.00000    0.00000    0.00000   0.00000  0.00000  0.00000  0.00000  0.00000  0.00000
2314 462540.000  -33.951432121   18.468562192    83.0258   6   8   2.8253   2.2155   5.9261  -0.3543   1.2983   3.0073   0.00    0.0    0.00000    0.00000    0.00000   0.00000  0.00000  0.00000  0.00000  0.00000  0.00000
2314 462541.000  -33.951429004   18.468560534    84.0007   6   8   2.4491   1.9197   5.1412  -0.3068   1.1259   2.6079   0.00    0.0    0.00000    0.00000    0.00000   0.00000  0.00000  0.00000  0.00000  0.00000  0.00000
2314 462542.000  -33.951431153   18.468560507    83.3488   6   8   2.1918   1.7176   4.6035  -0.2744   1.0079   2.3341   0.00    0.0    0.00000    0.00000    0.00000   0.00000  0.00000  0.00000  0.00000  0.00000  0.00000
2314 462543.000  -33.951431925   18.468561262    83.2704   6   8   2.0015   1.5683   4.2057  -0.2505   0.9206   2.1314   0.00    0.0    0.00000    0.00000    0.00000   0.00000  0.00000  0.00000  0.00000  0.00000  0.00000
2314 462544.000  -33.951431844   18.468561951    83.2522   6   8   1.8534   1.4522   3.8960  -0.2319   0.8526   1.9735   0.00    0.0    0.00000    0.00000    0.00000   0.00000  0.00000  0.00000  0.00000  0.00000  0.00000
2314 462545.000  -33.951432840   18.468562120    83.0570   6   8   1.7340   1.3585   3.6461  -0.2169   0.7978   1.8460   0.00    0.0    0.00000    0.00000    0.00000   0.00000  0.00000  0.00000  0.00000  0.00000  0.00000
2314 462546.000  -33.951432463   18.468561933    83.1796   6   8   1.6350   1.2809   3.4388  -0.2045   0.7523   1.7402   0.00    0.0    0.00000    0.00000    0.00000   0.00000  0.00000  0.00000  0.00000  0.00000  0.00000
2314 462547.000  -33.951432062   18.468561921    83.1506   6   8   1.5512   1.2153   3.2634  -0.1941   0.7138   1.6506   0.00    0.0    0.00000    0.00000    0.00000   0.00000  0.00000  0.00000  0.00000  0.00000  0.00000
2314 462548.000  -33.951431832   18.468562156    83.1413   6   8   1.4790   1.1588   3.1123  -0.1851   0.6806   1.5734   0.00    0.0    0.00000    0.00000    0.00000   0.00000  0.00000  0.00000  0.00000  0.00000  0.00000
2314 462549.000  -33.951431336   18.468562394    83.3175   6   8   1.4161   1.1095   2.9804  -0.1773   0.6516   1.5059   0.00    0.0    0.00000    0.00000    0.00000   0.00000  0.00000  0.00000  0.00000  0.00000  0.00000
2314 462550.000  -33.951431050   18.468562797    83.3389   6   8   1.3605   1.0660   2.8640  -0.1704   0.6260   1.4464   0.00    0.0    0.00000    0.00000    0.00000   0.00000  0.00000  0.00000  0.00000  0.00000  0.00000
2314 462551.000  -33.951430907   18.468562619    83.4892   6   8   1.3109   1.0272   2.7602  -0.1642   0.6032   1.3933   0.00    0.0    0.00000    0.00000    0.00000   0.00000  0.00000  0.00000  0.00000  0.00000  0.00000
2314 462552.000  -33.951430682   18.468562522    83.5143   6   8   1.2664   0.9924   2.6669  -0.1587   0.5827   1.3455   0.00    0.0    0.00000    0.00000    0.00000   0.00000  0.00000  0.00000  0.00000  0.00000  0.00000
2314 462553.000  -33.951430132   18.468562764    83.5403   6   8   1.2261   0.9609   2.5824  -0.1538   0.5642   1.3022   0.00    0.0    0.00000    0.00000    0.00000   0.00000  0.00000  0.00000  0.00000  0.00000  0.00000
2314 462554.000  -33.951430204   18.468562996    83.6815   6   8   1.1894   0.9322   2.5054  -0.1493   0.5472   1.2628   0.00    0.0    0.00000    0.00000    0.00000   0.00000  0.00000  0.00000  0.00000  0.00000  0.00000
2314 462555.000  -33.951430076   18.468563259    83.7207   6   8   1.1558   0.9060   2.4349  -0.1452   0.5317   1.2266   0.00    0.0    0.00000    0.00000    0.00000   0.00000  0.00000  0.00000  0.00000  0.00000  0.00000
2314 462556.000  -33.951430135   18.468563443    83.7065   6   8   1.1248   0.8818   2.3700  -0.1414   0.5175   1.1933   0.00    0.0    0.00000    0.00000    0.00000   0.00000  0.00000  0.00000  0.00000  0.00000  0.00000
2314 462557.000  -33.951430151   18.468563187    83.7400   6   8   1.0962   0.8595   2.3100  -0.1379   0.5043   1.1625   0.00    0.0    0.00000    0.00000    0.00000   0.00000  0.00000  0.00000  0.00000  0.00000  0.00000
2314 462558.000  -33.951430239   18.468562900    83.7614   6   8   1.0697   0.8387   2.2543  -0.1347   0.4920   1.1339   0.00    0.0    0.00000    0.00000    0.00000   0.00000  0.00000  0.00000  0.00000  0.00000  0.00000
2314 462559.000  -33.951429762   18.468563436    83.9202   6   8   1.0450   0.8195   2.2024  -0.1317   0.4806   1.1072   0.00    0.0    0.00000    0.00000    0.00000   0.00000  0.00000  0.00000  0.00000  0.00000  0.00000
2314 462560.000  -33.951429768   18.468563759    83.9089   6   8   1.0218   0.8014   2.1539  -0.1289   0.4699   1.0822   0.00    0.0    0.00000    0.00000    0.00000   0.00000  0.00000  0.00000  0.00000  0.00000  0.00000
2314 462561.000  -33.951429636   18.468563971    83.9115   6   8   1.0002   0.7845   2.1084  -0.1263   0.4598   1.0588   0.00    0.0    0.00000    0.00000    0.00000   0.00000  0.00000  0.00000  0.00000  0.00000  0.00000
2314 462562.000  -33.951429791   18.468563565    83.9328   6   8   0.9798   0.7687   2.0656  -0.1239   0.4504   1.0368   0.00    0.0    0.00000    0.00000    0.00000   0.00000  0.00000  0.00000  0.00000  0.00000  0.00000
2314 462563.000  -33.951429497   18.468563555    84.0431   6   8   0.9606   0.7537   2.0253  -0.1216   0.4415   1.0160   0.00    0.0    0.00000    0.00000    0.00000   0.00000  0.00000  0.00000  0.00000  0.00000  0.00000
2314 462564.000  -33.951428821   18.468563283    84.1403   6   8   0.9425   0.7396   1.9872  -0.1195   0.4331   0.9964   0.00    0.0    0.00000    0.00000    0.00000   0.00000  0.00000  0.00000  0.00000  0.00000  0.00000
2314 462565.000  -33.951428604   18.468563259    84.2182   6   8   0.9254   0.7263   1.9511  -0.1175   0.4252   0.9778   0.00    0.0    0.00000    0.00000    0.00000   0.00000  0.00000  0.00000  0.00000  0.00000  0.00000
2314 462566.000  -33.951428398   18.468563522    84.3095   6   8   0.9091   0.7137   1.9169  -0.1156   0.4176   0.9602   0.00    0.0    0.00000    0.00000    0.00000   0.00000  0.00000  0.00000  0.00000  0.00000  0.00000
2314 462567.000  -33.951428359   18.468563294    84.3579   6   8   0.8936   0.7016   1.8843  -0.1138   0.4104   0.9434   0.00    0.0    0.00000    0.00000    0.00000   0.00000  0.00000  0.00000  0.00000  0.00000  0.00000
2314 462568.000  -33.951428223   18.468563221    84.4341   6   8   0.8789   0.6902   1.8534  -0.1121   0.4036   0.9274   0.00    0.0    0.00000    0.00000    0.00000   0.00000  0.00000  0.00000  0.00000  0.00000  0.00000
2314 462569.000  -33.951428170   18.468562986    84.4484   6   8   0.8649   0.6793   1.8238  -0.1105   0.3970   0.9121   0.00    0.0    0.00000    0.00000    0.00000   0.00000  0.00000  0.00000  0.00000  0.00000  0.00000
2314 462570.000  -33.951428128   18.468562917    84.4427   6   8   0.8515   0.6689   1.7956  -0.1090   0.3908   0.8975   0.00    0.0    0.00000    0.00000    0.00000   0.00000  0.00000  0.00000  0.00000  0.00000  0.00000
2314 462571.000  -33.951428065   18.468562888    84.4261   6   8   0.8387   0.6590   1.7686  -0.1075   0.3848   0.8836   0.00    0.0    0.00000    0.00000    0.00000   0.00000  0.00000  0.00000  0.00000  0.00000  0.00000
2314 462572.000  -33.951427913   18.468562735    84.3997   6   8   0.8264   0.6495   1.7428  -0.1061   0.3791   0.8702   0.00    0.0    0.00000    0.00000    0.00000   0.00000  0.00000  0.00000  0.00000  0.00000  0.00000
2314 462573.000  -33.951427993   18.468562439    84.4109   6   8   0.8147   0.6404   1.7180  -0.1048   0.3736   0.8574   0.00    0.0    0.00000    0.00000    0.00000   0.00000  0.00000  0.00000  0.00000  0.00000  0.00000
2314 462574.000  -33.951428010   18.468562165    84.4302   6   8   0.8034   0.6317   1.6942  -0.1036   0.3684   0.8450   0.00    0.0    0.00000    0.00000    0.00000   0.00000  0.00000  0.00000  0.00000  0.00000  0.00000
2314 462575.000  -33.951427804   18.468561956    84.4887   6   8   0.7926   0.6233   1.6713  -0.1024   0.3633   0.8332   0.00    0.0    0.00000    0.00000    0.00000   0.00000  0.00000  0.00000  0.00000  0.00000  0.00000
2314 462576.000  -33.951427857   18.468561935    84.4981   6   8   0.7821   0.6152   1.6493  -0.1012   0.3584   0.8217   0.00    0.0    0.00000    0.00000    0.00000   0.00000  0.00000  0.00000  0.00000  0.00000  0.00000
2314 462577.000  -33.951427569   18.468561736    84.5386   6   8   0.7721   0.6075   1.6281  -0.1001   0.3537   0.8107   0.00    0.0    0.00000    0.00000    0.00000   0.00000  0.00000  0.00000  0.00000  0.00000  0.00000
2314 462578.000  -33.951427536   18.468561646    84.5592   6   8   0.7624   0.6000   1.6076  -0.0991   0.3491   0.8001   0.00    0.0    0.00000    0.00000    0.00000   0.00000  0.00000  0.00000  0.00000  0.00000  0.00000
2314 462579.000  -33.951427390   18.468561486    84.5681   6   8   0.7531   0.5928   1.5879  -0.0981   0.3447   0.7898   0.00    0.0    0.00000    0.00000    0.00000   0.00000  0.00000  0.00000  0.00000  0.00000  0.00000
2314 462580.000  -33.951427438   18.468561556    84.6073   6   8   0.7440   0.5858   1.5688  -0.0971   0.3405   0.7799   0.00    0.0    0.00000    0.00000    0.00000   0.00000  0.00000  0.00000  0.00000  0.00000  0.00000
2314 462581.000  -33.951427412   18.468561449    84.6227   6   8   0.7353   0.5791   1.5503  -0.0962   0.3364   0.7703   0.00    0.0    0.00000    0.00000    0.00000   0.00000  0.00000  0.00000  0.00000  0.00000  0.00000
2314 462582.000  -33.951427390   18.468561281    84.6553   6   8   0.7269   0.5726   1.5325  -0.0953   0.3324   0.7610   0.00    0.0    0.00000    0.00000    0.00000   0.00000  0.00000  0.00000  0.00000  0.00000  0.00000
2314 462583.000  -33.951427288   18.468561126    84.7005   6   8   0.7187   0.5663   1.5152  -0.0945   0.3286   0.7520   0.00    0.0    0.00000    0.00000    0.00000   0.00000  0.00000  0.00000  0.00000  0.00000  0.00000
2314 462584.000  -33.951427331   18.468560743    84.6986   6   8   0.7108   0.5603   1.4984  -0.0937   0.3248   0.7433   0.00    0.0    0.00000    0.00000    0.00000   0.00000  0.00000  0.00000  0.00000  0.00000  0.00000
2314 462585.000  -33.951427371   18.468560436    84.7290   6   8   0.7031   0.5544   1.4822  -0.0929   0.3212   0.7348   0.00    0.0    0.00000    0.00000    0.00000   0.00000  0.00000  0.00000  0.00000  0.00000  0.00000
2314 462586.000  -33.951427528   18.468560145    84.7384   6   8   0.6957   0.5487   1.4664  -0.0921   0.3177   0.7265   0.00    0.0    0.00000    0.00000    0.00000   0.00000  0.00000  0.00000  0.00000  0.00000  0.00000
2314 462587.000  -33.951427389   18.468559866    84.7499   6   8   0.6885   0.5431   1.4511  -0.0914   0.3143   0.7185   0.00    0.0    0.00000    0.00000    0.00000   0.00000  0.00000  0.00000  0.00000  0.00000  0.00000
2314 462588.000  -33.951427382   18.468559697    84.7790   6   8   0.6815   0.5378   1.4362  -0.0907   0.3109   0.7108   0.00    0.0    0.00000    0.00000    0.00000   0.00000  0.00000  0.00000  0.00000  0.00000  0.00000
2314 462589.000  -33.951427278   18.468559637    84.8102   6   8   0.6746   0.5325   1.4217  -0.0900   0.3077   0.7032   0.00    0.0    0.00000    0.00000    0.00000   0.00000  0.00000  0.00000  0.00000  0.00000  0.00000
2314 462590.000  -33.951427089   18.468559364    84.8535   6   8   0.6680   0.5275   1.4077  -0.0894   0.3045   0.6958   0.00    0.0    0.00000    0.00000    0.00000   0.00000  0.00000  0.00000  0.00000  0.00000  0.00000
2314 462591.000  -33.951427068   18.468559405    84.8737   6   8   0.6616   0.5225   1.3940  -0.0888   0.3015   0.6886   0.00    0.0    0.00000    0.00000    0.00000   0.00000  0.00000  0.00000  0.00000  0.00000  0.00000
2314 462592.000  -33.951427023   18.468559189    84.9015   6   8   0.6553   0.5177   1.3806  -0.0882   0.2985   0.6816   0.00    0.0    0.00000    0.00000    0.00000   0.00000  0.00000  0.00000  0.00000  0.00000  0.00000
2314 462593.000  -33.951427163   18.468559045    84.8836   6   8   0.6492   0.5131   1.3676  -0.0876   0.2956   0.6748   0.00    0.0    0.00000    0.00000    0.00000   0.00000  0.00000  0.00000  0.00000  0.00000  0.00000
2314 462594.000  -33.951427308   18.468558590    84.8706   6   8   0.6432   0.5085   1.3550  -0.0870   0.2927   0.6681   0.00    0.0    0.00000    0.00000    0.00000   0.00000  0.00000  0.00000  0.00000  0.00000  0.00000
2314 462595.000  -33.951427194   18.468558611    84.9194   6   8   0.6374   0.5041   1.3426  -0.0865   0.2899   0.6616   0.00    0.0    0.00000    0.00000    0.00000   0.00000  0.00000  0.00000  0.00000  0.00000  0.00000
2314 462596.000  -33.951427077   18.468558609    84.9605   6   8   0.6317   0.4998   1.3305  -0.0860   0.2872   0.6553   0.00    0.0    0.00000    0.00000    0.00000   0.00000  0.00000  0.00000  0.00000  0.00000  0.00000
2314 462597.000  -33.951426962   18.468558650    84.9856   6   8   0.6262   0.4956   1.3188  -0.0855   0.2846   0.6491   0.00    0.0    0.00000    0.00000    0.00000   0.00000  0.00000  0.00000  0.00000  0.00000  0.00000
2314 462598.000  -33.951426880   18.468558820    84.9954   6   8   0.6208   0.4915   1.3073  -0.0850   0.2820   0.6430   0.00    0.0    0.00000    0.00000    0.00000   0.00000  0.00000  0.00000  0.00000  0.00000  0.00000
2314 462599.000  -33.951426715   18.468558833    85.0161   6   8   0.6155   0.4875   1.2960  -0.0845   0.2794   0.6371   0.00    0.0    0.00000    0.00000    0.00000   0.00000  0.00000  0.00000  0.00000  0.00000  0.00000
2314 462600.000  -33.951426428   18.468558887    85.0729   6   8   0.6103   0.4836   1.2850  -0.0841   0.2770   0.6313   0.00    0.0    0.00000    0.00000    0.00000   0.00000  0.00000  0.00000  0.00000  0.00000  0.00000
2314 462601.000  -33.951426344   18.468558856    85.1152   6   8   0.6053   0.4798   1.2743  -0.0836   0.2745   0.6256   0.00    0.0    0.00000    0.00000    0.00000   0.00000  0.00000  0.00000  0.00000  0.00000  0.00000
2314 462602.000  -33.951426181   18.468558993    85.1447   6   8   0.6004   0.4760   1.2638  -0.0832   0.2722   0.6201   0.00    0.0    0.00000    0.00000    0.00000   0.00000  0.00000  0.00000  0.00000  0.00000  0.00000
2314 462603.000  -33.951425972   18.468559115    85.1656   6   8   0.5955   0.4724   1.2535  -0.0828   0.2698   0.6146   0.00    0.0    0.00000    0.00000    0.00000   0.00000  0.00000  0.00000  0.00000  0.00000  0.00000
2314 462604.000  -33.951425808   18.468559144    85.1913   6   8   0.5908   0.4688   1.2435  -0.0824   0.2675   0.6093   0.00    0.0    0.00000    0.00000    0.00000   0.00000  0.00000  0.00000  0.00000  0.00000  0.00000
2314 462605.000  -33.951425745   18.468559177    85.1993   6   8   0.5862   0.4653   1.2336  -0.0820   0.2653   0.6041   0.00    0.0    0.00000    0.00000    0.00000   0.00000  0.00000  0.00000  0.00000  0.00000  0.00000
2314 462606.000  -33.951425700   18.468559384    85.2056   6   8   0.5817   0.4619   1.2240  -0.0816   0.2631   0.5990   0.00    0.0    0.00000    0.00000    0.00000   0.00000  0.00000  0.00000  0.00000  0.00000  0.00000
2314 462607.000  -33.951425661   18.468559473    85.2196   6   8   0.5772   0.4586   1.2145  -0.0813   0.2610   0.5939   0.00    0.0    0.00000    0.00000    0.00000   0.00000  0.00000  0.00000  0.00000  0.00000  0.00000
2314 462608.000  -33.951425572   18.468559589    85.2205   6   8   0.5729   0.4553   1.2053  -0.0809   0.2589   0.5890   0.00    0.0    0.00000    0.00000    0.00000   0.00000  0.00000  0.00000  0.00000  0.00000  0.00000
2314 462609.000  -33.951425531   18.468559684    85.2228   6   8   0.5687   0.4521   1.1962  -0.0806   0.2568   0.5842   0.00    0.0    0.00000    0.00000    0.00000   0.00000  0.00000  0.00000  0.00000  0.00000  0.00000
2314 462610.000  -33.951425453   18.468559636    85.2079   6   8   0.5645   0.4490   1.1873  -0.0803   0.2548   0.5794   0.00    0.0    0.00000    0.00000    0.00000   0.00000  0.00000  0.00000  0.00000  0.00000  0.00000
2314 462611.000  -33.951425461   18.468559396    85.1884   6   8   0.5604   0.4459   1.1786  -0.0799   0.2528   0.5748   0.00    0.0    0.00000    0.00000    0.00000   0.00000  0.00000  0.00000  0.00000  0.00000  0.00000
2314 462612.000  -33.951425557   18.468559192    85.1863   6   8   0.5564   0.4429   1.1700  -0.0796   0.2508   0.5702   0.00    0.0    0.00000    0.00000    0.00000   0.00000  0.00000  0.00000  0.00000  0.00000  0.00000
2314 462613.000  -33.951425679   18.468559043    85.1822   6   8   0.5524   0.4400   1.1616  -0.0793   0.2489   0.5657   0.00    0.0    0.00000    0.00000    0.00000   0.00000  0.00000  0.00000  0.00000  0.00000  0.00000
2314 462614.000  -33.951425919   18.468558890    85.1634   6   8   0.5486   0.4371   1.1534  -0.0790   0.2470   0.5613   0.00    0.0    0.00000    0.00000    0.00000   0.00000  0.00000  0.00000  0.00000  0.00000  0.00000
2314 462615.000  -33.951425972   18.468558798    85.1496   6   8   0.5448   0.4342   1.1452  -0.0788   0.2451   0.5569   0.00    0.0    0.00000    0.00000    0.00000   0.00000  0.00000  0.00000  0.00000  0.00000  0.00000
2314 462616.000  -33.951426029   18.468558768    85.1453   6   8   0.5410   0.4314   1.1373  -0.0785   0.2433   0.5527   0.00    0.0    0.00000    0.00000    0.00000   0.00000  0.00000  0.00000  0.00000  0.00000  0.00000
2314 462617.000  -33.951426135   18.468558597    85.1087   6   8   0.5374   0.4287   1.1295  -0.0782   0.2415   0.5485   0.00    0.0    0.00000    0.00000    0.00000   0.00000  0.00000  0.00000  0.00000  0.00000  0.00000
2314 462618.000  -33.951426212   18.468558479    85.1015   6   8   0.5338   0.4260   1.1218  -0.0780   0.2397   0.5444   0.00    0.0    0.00000    0.00000    0.00000   0.00000  0.00000  0.00000  0.00000  0.00000  0.00000
2314 462619.000  -33.951426358   18.468558359    85.0701   6   8   0.5302   0.4234   1.1142  -0.0777   0.2380   0.5403   0.00    0.0    0.00000    0.00000    0.00000   0.00000  0.00000  0.00000  0.00000  0.00000  0.00000
2314 462620.000  -33.951426399   18.468558052    85.0472   6   8   0.5267   0.4208   1.1068  -0.0775   0.2363   0.5363   0.00    0.0    0.00000    0.00000    0.00000   0.00000  0.00000  0.00000  0.00000  0.00000  0.00000
2314 462621.000  -33.951426430   18.468557854    85.0444   6   8   0.5233   0.4183   1.0995  -0.0772   0.2346   0.5324   0.00    0.0    0.00000    0.00000    0.00000   0.00000  0.00000  0.00000  0.00000  0.00000  0.00000
2314 462622.000  -33.951426525   18.468557708    85.0277   6   8   0.5200   0.4158   1.0924  -0.0770   0.2329   0.5285   0.00    0.0    0.00000    0.00000    0.00000   0.00000  0.00000  0.00000  0.00000  0.00000  0.00000
2314 462623.000  -33.951426579   18.468557545    85.0100   6   8   0.5166   0.4133   1.0853  -0.0768   0.2313   0.5247   0.00    0.0    0.00000    0.00000    0.00000   0.00000  0.00000  0.00000  0.00000  0.00000  0.00000
2314 462624.000  -33.951426558   18.468557395    85.0155   6   8   0.5134   0.4109   1.0784  -0.0766   0.2297   0.5209   0.00    0.0    0.00000    0.00000    0.00000   0.00000  0.00000  0.00000  0.00000  0.00000  0.00000
2314 462625.000  -33.951426594   18.468557189    85.0125   6   8   0.5102   0.4085   1.0715  -0.0764   0.2281   0.5172   0.00    0.0    0.00000    0.00000    0.00000   0.00000  0.00000  0.00000  0.00000  0.00000  0.00000
2314 462626.000  -33.951426684   18.468557138    85.0151   6   8   0.5070   0.4062   1.0648  -0.0762   0.2265   0.5136   0.00    0.0    0.00000    0.00000    0.00000   0.00000  0.00000  0.00000  0.00000  0.00000  0.00000
2314 462627.000  -33.951426772   18.468556974    85.0144   6   8   0.5039   0.4039   1.0582  -0.0760   0.2250   0.5100   0.00    0.0    0.00000    0.00000    0.00000   0.00000  0.00000  0.00000  0.00000  0.00000  0.00000
2314 462628.000  -33.951426878   18.468556838    85.0101   6   8   0.5009   0.4017   1.0517  -0.0758   0.2235   0.5064   0.00    0.0    0.00000    0.00000    0.00000   0.00000  0.00000  0.00000  0.00000  0.00000  0.00000
2314 462629.000  -33.951426918   18.468556745    85.0027   6   8   0.4979   0.3994   1.0453  -0.0756   0.2220   0.5029   0.00    0.0    0.00000    0.00000    0.00000   0.00000  0.00000  0.00000  0.00000  0.00000  0.00000
2314 462630.000  -33.951427006   18.468556764    84.9817   6   8   0.4949   0.3973   1.0390  -0.0754   0.2205   0.4995   0.00    0.0    0.00000    0.00000    0.00000   0.00000  0.00000  0.00000  0.00000  0.00000  0.00000
2314 462631.000  -33.951427116   18.468556761    84.9609   6   8   0.4920   0.3951   1.0328  -0.0752   0.2191   0.4961   0.00    0.0    0.00000    0.00000    0.00000   0.00000  0.00000  0.00000  0.00000  0.00000  0.00000
2314 462632.000  -33.951427221   18.468556741    84.9367   6   8   0.4891   0.3930   1.0266  -0.0750   0.2176   0.4928   0.00    0.0    0.00000    0.00000    0.00000   0.00000  0.00000  0.00000  0.00000  0.00000  0.00000
2314 462633.000  -33.951427365   18.468556717    84.9060   6   8   0.4862   0.3909   1.0206  -0.0749   0.2162   0.4894   0.00    0.0    0.00000    0.00000    0.00000   0.00000  0.00000  0.00000  0.00000  0.00000  0.00000
2314 462634.000  -33.951427380   18.468556670    84.9083   6   8   0.4834   0.3889   1.0147  -0.0747   0.2148   0.4862   0.00    0.0    0.00000    0.00000    0.00000   0.00000  0.00000  0.00000  0.00000  0.00000  0.00000
2314 462635.000  -33.951427472   18.468556606    84.8854   6   8   0.4807   0.3869   1.0088  -0.0746   0.2134   0.4830   0.00    0.0    0.00000    0.00000    0.00000   0.00000  0.00000  0.00000  0.00000  0.00000  0.00000
2314 462636.000  -33.951427510   18.468556547    84.8728   6   8   0.4780   0.3849   1.0030  -0.0744   0.2121   0.4798   0.00    0.0    0.00000    0.00000    0.00000   0.00000  0.00000  0.00000  0.00000  0.00000  0.00000
2314 462637.000  -33.951427513   18.468556512    84.8847   6   8   0.4753   0.3829   0.9973  -0.0743   0.2107   0.4767   0.00    0.0    0.00000    0.00000    0.00000   0.00000  0.00000  0.00000  0.00000  0.00000  0.00000
2314 462638.000  -33.951427561   18.468556470    84.8820   6   8   0.4726   0.3810   0.9917  -0.0741   0.2094   0.4736   0.00    0.0    0.00000    0.00000    0.00000   0.00000  0.00000  0.00000  0.00000  0.00000  0.00000
2314 462639.000  -33.951427702   18.468556441    84.8640   6   8   0.4700   0.3791   0.9862  -0.0740   0.2081   0.4705   0.00    0.0    0.00000    0.00000    0.00000   0.00000  0.00000  0.00000  0.00000  0.00000  0.00000
2314 462640.000  -33.951427769   18.468556465    84.8401   6   8   0.4674   0.3772   0.9807  -0.0738   0.2068   0.4675   0.00    0.0    0.00000    0.00000    0.00000   0.00000  0.00000  0.00000  0.00000  0.00000  0.00000
2314 462641.000  -33.951427882   18.468556435    84.8230   6   8   0.4649   0.3754   0.9754  -0.0737   0.2055   0.4645   0.00    0.0    0.00000    0.00000    0.00000   0.00000  0.00000  0.00000  0.00000  0.00000  0.00000
2314 462642.000  -33.951427966   18.468556412    84.8002   6   8   0.4624   0.3735   0.9700  -0.0736   0.2043   0.4616   0.00    0.0    0.00000    0.00000    0.00000   0.00000  0.00000  0.00000  0.00000  0.00000  0.00000
2314 462643.000  -33.951428049   18.468556417    84.7799   6   8   0.4599   0.3717   0.9648  -0.0734   0.2030   0.4587   0.00    0.0    0.00000    0.00000    0.00000   0.00000  0.00000  0.00000  0.00000  0.00000  0.00000
2314 462644.000  -33.951428125   18.468556433    84.7631   6   8   0.4575   0.3700   0.9597  -0.0733   0.2018   0.4558   0.00    0.0    0.00000    0.00000    0.00000   0.00000  0.00000  0.00000  0.00000  0.00000  0.00000
2314 462645.000  -33.951428138   18.468556422    84.7616   6   8   0.4551   0.3682   0.9546  -0.0732   0.2006   0.4530   0.00    0.0    0.00000    0.00000    0.00000   0.00000  0.00000  0.00000  0.00000  0.00000  0.00000
2314 462646.000  -33.951428134   18.468556460    84.7434   6   8   0.4527   0.3665   0.9495  -0.0731   0.1994   0.4502   0.00    0.0    0.00000    0.00000    0.00000   0.00000  0.00000  0.00000  0.00000  0.00000  0.00000
2314 462647.000  -33.951428139   18.468556432    84.7228   6   8   0.4503   0.3648   0.9446  -0.0729   0.1982   0.4474   0.00    0.0    0.00000    0.00000    0.00000   0.00000  0.00000  0.00000  0.00000  0.00000  0.00000
2314 462648.000  -33.951428091   18.468556414    84.7252   6   8   0.4480   0.3631   0.9397  -0.0728   0.1970   0.4447   0.00    0.0    0.00000    0.00000    0.00000   0.00000  0.00000  0.00000  0.00000  0.00000  0.00000
2314 462649.000  -33.951428152   18.468556486    84.7127   6   8   0.4457   0.3615   0.9348  -0.0727   0.1958   0.4420   0.00    0.0    0.00000    0.00000    0.00000   0.00000  0.00000  0.00000  0.00000  0.00000  0.00000
2314 462650.000  -33.951428166   18.468556495    84.7023   6   8   0.4434   0.3598   0.9301  -0.0726   0.1947   0.4393   0.00    0.0    0.00000    0.00000    0.00000   0.00000  0.00000  0.00000  0.00000  0.00000  0.00000
2314 462651.000  -33.951428184   18.468556567    84.6829   6   8   0.4412   0.3582   0.9254  -0.0725   0.1936   0.4366   0.00    0.0    0.00000    0.00000    0.00000   0.00000  0.00000  0.00000  0.00000  0.00000  0.00000
2314 462652.000  -33.951428164   18.468556607    84.6787   6   8   0.4390   0.3566   0.9207  -0.0724   0.1924   0.4340   0.00    0.0    0.00000    0.00000    0.00000   0.00000  0.00000  0.00000  0.00000  0.00000  0.00000
2314 462653.000  -33.951428154   18.468556678    84.6749   6   8   0.4368   0.3551   0.9161  -0.0723   0.1913   0.4314   0.00    0.0    0.00000    0.00000    0.00000   0.00000  0.00000  0.00000  0.00000  0.00000  0.00000
2314 462654.000  -33.951428138   18.468556715    84.6771   6   8   0.4346   0.3535   0.9116  -0.0722   0.1902   0.4289   0.00    0.0    0.00000    0.00000    0.00000   0.00000  0.00000  0.00000  0.00000  0.00000  0.00000
2314 462655.000  -33.951428167   18.468556799    84.6713   6   8   0.4325   0.3520   0.9071  -0.0721   0.1892   0.4264   0.00    0.0    0.00000    0.00000    0.00000   0.00000  0.00000  0.00000  0.00000  0.00000  0.00000
2314 462656.000  -33.951428175   18.468556897    84.6674   6   8   0.4304   0.3505   0.9027  -0.0720   0.1881   0.4239   0.00    0.0    0.00000    0.00000    0.00000   0.00000  0.00000  0.00000  0.00000  0.00000  0.00000
2314 462657.000  -33.951428146   18.468556964    84.6833   6   8   0.4283   0.3490   0.8983  -0.0719   0.1870   0.4214   0.00    0.0    0.00000    0.00000    0.00000   0.00000  0.00000  0.00000  0.00000  0.00000  0.00000
2314 462658.000  -33.951428082   18.468556992    84.6894   6   8   0.4262   0.3475   0.8940  -0.0718   0.1860   0.4189   0.00    0.0    0.00000    0.00000    0.00000   0.00000  0.00000  0.00000  0.00000  0.00000  0.00000
2314 462659.000  -33.951428029   18.468557022    84.6919   6   8   0.4241   0.3460   0.8897  -0.0717   0.1849   0.4165   0.00    0.0    0.00000    0.00000    0.00000   0.00000  0.00000  0.00000  0.00000  0.00000  0.00000
2314 462660.000  -33.951428032   18.468557157    84.6881   6   8   0.4221   0.3446   0.8855  -0.0716   0.1839   0.4141   0.00    0.0    0.00000    0.00000    0.00000   0.00000  0.00000  0.00000  0.00000  0.00000  0.00000
2314 462661.000  -33.951428047   18.468557192    84.6828   6   8   0.4201   0.3432   0.8814  -0.0716   0.1829   0.4117   0.00    0.0    0.00000    0.00000    0.00000   0.00000  0.00000  0.00000  0.00000  0.00000  0.00000
2314 462662.000  -33.951428101   18.468557334    84.6704   6   8   0.4181   0.3418   0.8773  -0.0715   0.1819   0.4094   0.00    0.0    0.00000    0.00000    0.00000   0.00000  0.00000  0.00000  0.00000  0.00000  0.00000
2314 462663.000  -33.951428096   18.468557483    84.6693   6   8   0.4162   0.3404   0.8732  -0.0714   0.1809   0.4071   0.00    0.0    0.00000    0.00000    0.00000   0.00000  0.00000  0.00000  0.00000  0.00000  0.00000
2314 462664.000  -33.951428100   18.468557615    84.6671   6   8   0.4142   0.3390   0.8692  -0.0713   0.1799   0.4048   0.00    0.0    0.00000    0.00000    0.00000   0.00000  0.00000  0.00000  0.00000  0.00000  0.00000
2314 462665.000  -33.951428117   18.468557761    84.6660   6   8   0.4123   0.3377   0.8652  -0.0712   0.1789   0.4025   0.00    0.0    0.00000    0.00000    0.00000   0.00000  0.00000  0.00000  0.00000  0.00000  0.00000
2314 462666.000  -33.951428119   18.468557877    84.6634   6   8   0.4104   0.3363   0.8613  -0.0711   0.1780   0.4002   0.00    0.0    0.00000    0.00000    0.00000   0.00000  0.00000  0.00000  0.00000  0.00000  0.00000
2314 462667.000  -33.951428083   18.468557976    84.6720   6   8   0.4086   0.3350   0.8574  -0.0711   0.1770   0.3980   0.00    0.0    0.00000    0.00000    0.00000   0.00000  0.00000  0.00000  0.00000  0.00000  0.00000
2314 462668.000  -33.951428059   18.468558147    84.6864   6   8   0.4067   0.3337   0.8536  -0.0710   0.1761   0.3958   0.00    0.0    0.00000    0.00000    0.00000   0.00000  0.00000  0.00000  0.00000  0.00000  0.00000
2314 462669.000  -33.951428050   18.468558208    84.6985   6   8   0.4049   0.3324   0.8498  -0.0709   0.1751   0.3936   0.00    0.0    0.00000    0.00000    0.00000   0.00000  0.00000  0.00000  0.00000  0.00000  0.00000
2314 462670.000  -33.951427995   18.468558248    84.7160   6   8   0.4030   0.3311   0.8461  -0.0709   0.1742   0.3914   0.00    0.0    0.00000    0.00000    0.00000   0.00000  0.00000  0.00000  0.00000  0.00000  0.00000
2314 462671.000  -33.951427954   18.468558342    84.7207   6   8   0.4012   0.3298   0.8424  -0.0708   0.1733   0.3893   0.00    0.0    0.00000    0.00000    0.00000   0.00000  0.00000  0.00000  0.00000  0.00000  0.00000
2314 462672.000  -33.951427943   18.468558438    84.7249   6   8   0.3994   0.3286   0.8387  -0.0707   0.1724   0.3872   0.00    0.0    0.00000    0.00000    0.00000   0.00000  0.00000  0.00000  0.00000  0.00000  0.00000
2314 462673.000  -33.951427933   18.468558603    84.7307   6   8   0.3977   0.3273   0.8351  -0.0706   0.1715   0.3850   0.00    0.0    0.00000    0.00000    0.00000   0.00000  0.00000  0.00000  0.00000  0.00000  0.00000
2314 462674.000  -33.951427988   18.468558697    84.7175   6   8   0.3959   0.3261   0.8315  -0.0706   0.1706   0.3830   0.00    0.0    0.00000    0.00000    0.00000   0.00000  0.00000  0.00000  0.00000  0.00000  0.00000
2314 462675.000  -33.951427979   18.468558812    84.7314   6   8   0.3942   0.3249   0.8279  -0.0705   0.1697   0.3809   0.00    0.0    0.00000    0.00000    0.00000   0.00000  0.00000  0.00000  0.00000  0.00000  0.00000
2314 462676.000  -33.951427888   18.468558877    84.7447   6   8   0.3925   0.3237   0.8244  -0.0704   0.1688   0.3788   0.00    0.0    0.00000    0.00000    0.00000   0.00000  0.00000  0.00000  0.00000  0.00000  0.00000
2314 462677.000  -33.951427854   18.468558939    84.7451   6   8   0.3908   0.3225   0.8210  -0.0704   0.1679   0.3768   0.00    0.0    0.00000    0.00000    0.00000   0.00000  0.00000  0.00000  0.00000  0.00000  0.00000
2314 462678.000  -33.951427849   18.468559028    84.7469   6   8   0.3891   0.3213   0.8176  -0.0703   0.1671   0.3748   0.00    0.0    0.00000    0.00000    0.00000   0.00000  0.00000  0.00000  0.00000  0.00000  0.00000
2314 462679.000  -33.951427818   18.468559150    84.7577   6   8   0.3874   0.3202   0.8142  -0.0703   0.1662   0.3728   0.00    0.0    0.00000    0.00000    0.00000   0.00000  0.00000  0.00000  0.00000  0.00000  0.00000
2314 462680.000  -33.951427785   18.468559243    84.7613   6   8   0.3858   0.3190   0.8108  -0.0702   0.1654   0.3708   0.00    0.0    0.00000    0.00000    0.00000   0.00000  0.00000  0.00000  0.00000  0.00000  0.00000
2314 462681.000  -33.951427713   18.468559361    84.7732   6   8   0.3841   0.3179   0.8075  -0.0701   0.1645   0.3689   0.00    0.0    0.00000    0.00000    0.00000   0.00000  0.00000  0.00000  0.00000  0.00000  0.00000
2314 462682.000  -33.951427679   18.468559483    84.7801   6   8   0.3825   0.3167   0.8042  -0.0701   0.1637   0.3670   0.00    0.0    0.00000    0.00000    0.00000   0.00000  0.00000  0.00000  0.00000  0.00000  0.00000
2314 462683.000  -33.951427609   18.468559553    84.7931   6   8   0.3809   0.3156   0.8010  -0.0700   0.1629   0.3650   0.00    0.0    0.00000    0.00000    0.00000   0.00000  0.00000  0.00000  0.00000  0.00000  0.00000
2314 462684.000  -33.951427580   18.468559631    84.7955   6   8   0.3793   0.3145   0.7978  -0.0700   0.1621   0.3631   0.00    0.0    0.00000    0.00000    0.00000   0.00000  0.00000  0.00000  0.00000  0.00000  0.00000
2314 462685.000  -33.951427567   18.468559758    84.7936   6   8   0.3777   0.3134   0.7946  -0.0699   0.1613   0.3612   0.00    0.0    0.00000    0.00000    0.00000   0.00000  0.00000  0.00000  0.00000  0.00000  0.00000
2314 462686.000  -33.951427589   18.468559872    84.7946   6   8   0.3762   0.3123   0.7914  -0.0698   0.1605   0.3594   0.00    0.0    0.00000    0.00000    0.00000   0.00000  0.00000  0.00000  0.00000  0.00000  0.00000
2314 462687.000  -33.951427533   18.468559963    84.7957   6   8   0.3746   0.3113   0.7883  -0.0698   0.1597   0.3575   0.00    0.0    0.00000    0.00000    0.00000   0.00000  0.00000  0.00000  0.00000  0.00000  0.00000
2314 462688.000  -33.951427446   18.468560019    84.7977   6   8   0.3731   0.3102   0.7852  -0.0697   0.1589   0.3557   0.00    0.0    0.00000    0.00000    0.00000   0.00000  0.00000  0.00000  0.00000  0.00000  0.00000
2314 462689.000  -33.951427410   18.468560128    84.7944   6   8   0.3715   0.3091   0.7822  -0.0697   0.1581   0.3539   0.00    0.0    0.00000    0.00000    0.00000   0.00000  0.00000  0.00000  0.00000  0.00000  0.00000
2314 462690.000  -33.951427380   18.468560247    84.7935   6   8   0.3700   0.3081   0.7792  -0.0696   0.1574   0.3521   0.00    0.0    0.00000    0.00000    0.00000   0.00000  0.00000  0.00000  0.00000  0.00000  0.00000
2314 462691.000  -33.951427293   18.468560368    84.8005   6   8   0.3685   0.3071   0.7762  -0.0696   0.1566   0.3503   0.00    0.0    0.00000    0.00000    0.00000   0.00000  0.00000  0.00000  0.00000  0.00000  0.00000
2314 462692.000  -33.951427261   18.468560489    84.7956   6   8   0.3671   0.3060   0.7732  -0.0695   0.1558   0.3485   0.00    0.0    0.00000    0.00000    0.00000   0.00000  0.00000  0.00000  0.00000  0.00000  0.00000
2314 462693.000  -33.951427235   18.468560572    84.7953   6   8   0.3656   0.3050   0.7703  -0.0695   0.1551   0.3467   0.00    0.0    0.00000    0.00000    0.00000   0.00000  0.00000  0.00000  0.00000  0.00000  0.00000
2314 462694.000  -33.951427223   18.468560592    84.7957   6   8   0.3641   0.3040   0.7674  -0.0694   0.1543   0.3450   0.00    0.0    0.00000    0.00000    0.00000   0.00000  0.00000  0.00000  0.00000  0.00000  0.00000
2314 462695.000  -33.951427195   18.468560685    84.7928   6   8   0.3627   0.3030   0.7645  -0.0694   0.1536   0.3433   0.00    0.0    0.00000    0.00000    0.00000   0.00000  0.00000  0.00000  0.00000  0.00000  0.00000
2314 462696.000  -33.951427165   18.468560725    84.7912   6   8   0.3612   0.3020   0.7617  -0.0693   0.1529   0.3415   0.00    0.0    0.00000    0.00000    0.00000   0.00000  0.00000  0.00000  0.00000  0.00000  0.00000
2314 462697.000  -33.951427113   18.468560769    84.7843   6   8   0.3598   0.3011   0.7589  -0.0693   0.1521   0.3398   0.00    0.0    0.00000    0.00000    0.00000   0.00000  0.00000  0.00000  0.00000  0.00000  0.00000
2314 462698.000  -33.951427027   18.468560803    84.7767   6   8   0.3584   0.3001   0.7561  -0.0692   0.1514   0.3381   0.00    0.0    0.00000    0.00000    0.00000   0.00000  0.00000  0.00000  0.00000  0.00000  0.00000
2314 462699.000  -33.951427066   18.468560790    84.7627   6   8   0.3570   0.2991   0.7533  -0.0692   0.1507   0.3365   0.00    0.0    0.00000    0.00000    0.00000   0.00000  0.00000  0.00000  0.00000  0.00000  0.00000
2314 462700.000  -33.951427019   18.468560809    84.7632   6   8   0.3556   0.2982   0.7506  -0.0691   0.1500   0.3348   0.00    0.0    0.00000    0.00000    0.00000   0.00000  0.00000  0.00000  0.00000  0.00000  0.00000
2314 462701.000  -33.951426947   18.468560863    84.7683   6   8   0.3542   0.2973   0.7479  -0.0691   0.1493   0.3332   0.00    0.0    0.00000    0.00000    0.00000   0.00000  0.00000  0.00000  0.00000  0.00000  0.00000
2314 462702.000  -33.951426909   18.468560956    84.7648   6   8   0.3529   0.2963   0.7452  -0.0690   0.1486   0.3315   0.00    0.0    0.00000    0.00000    0.00000   0.00000  0.00000  0.00000  0.00000  0.00000  0.00000
2314 462703.000  -33.951426867   18.468560998    84.7671   6   8   0.3515   0.2954   0.7426  -0.0690   0.1479   0.3299   0.00    0.0    0.00000    0.00000    0.00000   0.00000  0.00000  0.00000  0.00000  0.00000  0.00000
2314 462704.000  -33.951426836   18.468561042    84.7652   6   8   0.3502   0.2945   0.7400  -0.0689   0.1472   0.3283   0.00    0.0    0.00000    0.00000    0.00000   0.00000  0.00000  0.00000  0.00000  0.00000  0.00000
2314 462705.000  -33.951426826   18.468561131    84.7608   6   8   0.3488   0.2936   0.7374  -0.0689   0.1465   0.3267   0.00    0.0    0.00000    0.00000    0.00000   0.00000  0.00000  0.00000  0.00000  0.00000  0.00000
2314 462706.000  -33.951426811   18.468561262    84.7674   6   8   0.3475   0.2927   0.7348  -0.0688   0.1459   0.3251   0.00    0.0    0.00000    0.00000    0.00000   0.00000  0.00000  0.00000  0.00000  0.00000  0.00000
2314 462707.000  -33.951426806   18.468561313    84.7580   6   8   0.3462   0.2918   0.7322  -0.0688   0.1452   0.3236   0.00    0.0    0.00000    0.00000    0.00000   0.00000  0.00000  0.00000  0.00000  0.00000  0.00000
2314 462708.000  -33.951426772   18.468561337    84.7586   6   8   0.3449   0.2909   0.7297  -0.0687   0.1445   0.3220   0.00    0.0    0.00000    0.00000    0.00000   0.00000  0.00000  0.00000  0.00000  0.00000  0.00000
2314 462709.000  -33.951426755   18.468561357    84.7620   6   8   0.3436   0.2900   0.7272  -0.0687   0.1439   0.3205   0.00    0.0    0.00000    0.00000    0.00000   0.00000  0.00000  0.00000  0.00000  0.00000  0.00000
2314 462710.000  -33.951426749   18.468561390    84.7666   6   8   0.3423   0.2891   0.7247  -0.0687   0.1432   0.3189   0.00    0.0    0.00000    0.00000    0.00000   0.00000  0.00000  0.00000  0.00000  0.00000  0.00000
2314 462711.000  -33.951426721   18.468561442    84.7610   6   8   0.3410   0.2883   0.7223  -0.0686   0.1426   0.3174   0.00    0.0    0.00000    0.00000    0.00000   0.00000  0.00000  0.00000  0.00000  0.00000  0.00000
2314 462712.000  -33.951426746   18.468561476    84.7533   6   8   0.3398   0.2874   0.7198  -0.0686   0.1419   0.3159   0.00    0.0    0.00000    0.00000    0.00000   0.00000  0.00000  0.00000  0.00000  0.00000  0.00000
2314 462713.000  -33.951426756   18.468561540    84.7463   6   8   0.3385   0.2866   0.7174  -0.0685   0.1413   0.3144   0.00    0.0    0.00000    0.00000    0.00000   0.00000  0.00000  0.00000  0.00000  0.00000  0.00000
2314 462714.000  -33.951426779   18.468561550    84.7412   6   8   0.3373   0.2857   0.7150  -0.0685   0.1407   0.3129   0.00    0.0    0.00000    0.00000    0.00000   0.00000  0.00000  0.00000  0.00000  0.00000  0.00000
2314 462715.000  -33.951426773   18.468561552    84.7442   6   8   0.3360   0.2849   0.7127  -0.0684   0.1401   0.3114   0.00    0.0    0.00000    0.00000    0.00000   0.00000  0.00000  0.00000  0.00000  0.00000  0.00000
2314 462716.000  -33.951426743   18.468561601    84.7499   6   8   0.3348   0.2841   0.7103  -0.0684   0.1394   0.3100   0.00    0.0    0.00000    0.00000    0.00000   0.00000  0.00000  0.00000  0.00000  0.00000  0.00000
2314 462717.000  -33.951426772   18.468561671    84.7387   6   8   0.3336   0.2832   0.7080  -0.0683   0.1388   0.3085   0.00    0.0    0.00000    0.00000    0.00000   0.00000  0.00000  0.00000  0.00000  0.00000  0.00000
2314 462718.000  -33.951426758   18.468561680    84.7365   6   8   0.3324   0.2824   0.7057  -0.0683   0.1382   0.3071   0.00    0.0    0.00000    0.00000    0.00000   0.00000  0.00000  0.00000  0.00000  0.00000  0.00000
2314 462719.000  -33.951426752   18.468561682    84.7353   6   8   0.3312   0.2816   0.7034  -0.0683   0.1376   0.3056   0.00    0.0    0.00000    0.00000    0.00000   0.00000  0.00000  0.00000  0.00000  0.00000  0.00000
2314 462720.000  -33.951426740   18.468561637    84.7391   6   8   0.3300   0.2808   0.7012  -0.0682   0.1370   0.3042   0.00    0.0    0.00000    0.00000    0.00000   0.00000  0.00000  0.00000  0.00000  0.00000  0.00000
2314 462721.000  -33.951426725   18.468561607    84.7469   6   8   0.3288   0.2800   0.6989  -0.0682   0.1364   0.3028   0.00    0.0    0.00000    0.00000    0.00000   0.00000  0.00000  0.00000  0.00000  0.00000  0.00000
2314 462722.000  -33.951426722   18.468561579    84.7471   6   8   0.3276   0.2792   0.6967  -0.0681   0.1358   0.3014   0.00    0.0    0.00000    0.00000    0.00000   0.00000  0.00000  0.00000  0.00000  0.00000  0.00000
2314 462723.000  -33.951426701   18.468561546    84.7459   6   8   0.3264   0.2784   0.6945  -0.0681   0.1352   0.3000   0.00    0.0    0.00000    0.00000    0.00000   0.00000  0.00000  0.00000  0.00000  0.00000  0.00000
2314 462724.000  -33.951426720   18.468561508    84.7368   6   8   0.3253   0.2777   0.6923  -0.0680   0.1346   0.2987   0.00    0.0    0.00000    0.00000    0.00000   0.00000  0.00000  0.00000  0.00000  0.00000  0.00000
2314 462725.000  -33.951426717   18.468561435    84.7388   6   8   0.3241   0.2769   0.6901  -0.0680   0.1341   0.2973   0.00    0.0    0.00000    0.00000    0.00000   0.00000  0.00000  0.00000  0.00000  0.00000  0.00000
2314 462726.000  -33.951426712   18.468561368    84.7429   6   8   0.3230   0.2761   0.6880  -0.0680   0.1335   0.2959   0.00    0.0    0.00000    0.00000    0.00000   0.00000  0.00000  0.00000  0.00000  0.00000  0.00000
2314 462727.000  -33.951426688   18.468561329    84.7427   6   8   0.3219   0.2754   0.6859  -0.0679   0.1329   0.2946   0.00    0.0    0.00000    0.00000    0.00000   0.00000  0.00000  0.00000  0.00000  0.00000  0.00000
2314 462728.000  -33.951426691   18.468561288    84.7364   6   8   0.3207   0.2746   0.6838  -0.0679   0.1323   0.2932   0.00    0.0    0.00000    0.00000    0.00000   0.00000  0.00000  0.00000  0.00000  0.00000  0.00000
2314 462729.000  -33.951426679   18.468561256    84.7368   6   8   0.3196   0.2739   0.6817  -0.0678   0.1318   0.2919   0.00    0.0    0.00000    0.00000    0.00000   0.00000  0.00000  0.00000  0.00000  0.00000  0.00000
2314 462730.000  -33.951426739   18.468561240    84.7271   6   8   0.3185   0.2731   0.6796  -0.0678   0.1312   0.2906   0.00    0.0    0.00000    0.00000    0.00000   0.00000  0.00000  0.00000  0.00000  0.00000  0.00000
2314 462731.000  -33.951426771   18.468561201    84.7204   6   8   0.3174   0.2724   0.6775  -0.0678   0.1307   0.2893   0.00    0.0    0.00000    0.00000    0.00000   0.00000  0.00000  0.00000  0.00000  0.00000  0.00000
2314 462732.000  -33.951426802   18.468561191    84.7183   6   8   0.3163   0.2717   0.6755  -0.0677   0.1301   0.2880   0.00    0.0    0.00000    0.00000    0.00000   0.00000  0.00000  0.00000  0.00000  0.00000  0.00000
2314 462733.000  -33.951426789   18.468561183    84.7158   6   8   0.3152   0.2709   0.6735  -0.0677   0.1296   0.2867   0.00    0.0    0.00000    0.00000    0.00000   0.00000  0.00000  0.00000  0.00000  0.00000  0.00000
2314 462734.000  -33.951426815   18.468561186    84.7084   6   8   0.3141   0.2702   0.6715  -0.0676   0.1290   0.2854   0.00    0.0    0.00000    0.00000    0.00000   0.00000  0.00000  0.00000  0.00000  0.00000  0.00000
2314 462735.000  -33.951426845   18.468561148    84.6969   6   8   0.3130   0.2695   0.6695  -0.0676   0.1285   0.2841   0.00    0.0    0.00000    0.00000    0.00000   0.00000  0.00000  0.00000  0.00000  0.00000  0.00000
2314 462736.000  -33.951426867   18.468561046    84.6907   6   8   0.3120   0.2688   0.6675  -0.0675   0.1280   0.2829   0.00    0.0    0.00000    0.00000    0.00000   0.00000  0.00000  0.00000  0.00000  0.00000  0.00000
2314 462737.000  -33.951426905   18.468561004    84.6807   6   8   0.3109   0.2681   0.6656  -0.0675   0.1274   0.2816   0.00    0.0    0.00000    0.00000    0.00000   0.00000  0.00000  0.00000  0.00000  0.00000  0.00000
2314 462738.000  -33.951426934   18.468561029    84.6780   6   8   0.3099   0.2674   0.6636  -0.0675   0.1269   0.2804   0.00    0.0    0.00000    0.00000    0.00000   0.00000  0.00000  0.00000  0.00000  0.00000  0.00000
2314 462739.000  -33.951426971   18.468560969    84.6680   6   8   0.3088   0.2667   0.6617  -0.0674   0.1264   0.2791   0.00    0.0    0.00000    0.00000    0.00000   0.00000  0.00000  0.00000  0.00000  0.00000  0.00000
2314 462740.000  -33.951426992   18.468560927    84.6683   6   8   0.3078   0.2660   0.6598  -0.0674   0.1259   0.2779   0.00    0.0    0.00000    0.00000    0.00000   0.00000  0.00000  0.00000  0.00000  0.00000  0.00000
2314 462741.000  -33.951426971   18.468560852    84.6701   6   8   0.3067   0.2653   0.6579  -0.0673   0.1253   0.2767   0.00    0.0    0.00000    0.00000    0.00000   0.00000  0.00000  0.00000  0.00000  0.00000  0.00000
2314 462742.000  -33.951426945   18.468560794    84.6672   6   8   0.3057   0.2646   0.6560  -0.0673   0.1248   0.2755   0.00    0.0    0.00000    0.00000    0.00000   0.00000  0.00000  0.00000  0.00000  0.00000  0.00000
2314 462743.000  -33.951426990   18.468560759    84.6576   6   8   0.3047   0.2640   0.6541  -0.0673   0.1243   0.2743   0.00    0.0    0.00000    0.00000    0.00000   0.00000  0.00000  0.00000  0.00000  0.00000  0.00000
2314 462744.000  -33.951427018   18.468560728    84.6518   6   8   0.3037   0.2633   0.6523  -0.0672   0.1238   0.2731   0.00    0.0    0.00000    0.00000    0.00000   0.00000  0.00000  0.00000  0.00000  0.00000  0.00000
2314 462745.000  -33.951427038   18.468560670    84.6449   6   8   0.3027   0.2626   0.6505  -0.0672   0.1233   0.2719   0.00    0.0    0.00000    0.00000    0.00000   0.00000  0.00000  0.00000  0.00000  0.00000  0.00000
2314 462746.000  -33.951427030   18.468560600    84.6351   6   8   0.3017   0.2620   0.6486  -0.0671   0.1228   0.2707   0.00    0.0    0.00000    0.00000    0.00000   0.00000  0.00000  0.00000  0.00000  0.00000  0.00000
2314 462747.000  -33.951427035   18.468560518    84.6258   6   8   0.3007   0.2613   0.6468  -0.0671   0.1223   0.2695   0.00    0.0    0.00000    0.00000    0.00000   0.00000  0.00000  0.00000  0.00000  0.00000  0.00000
2314 462748.000  -33.951427044   18.468560487    84.6161   6   8   0.2997   0.2606   0.6450  -0.0671   0.1218   0.2684   0.00    0.0    0.00000    0.00000    0.00000   0.00000  0.00000  0.00000  0.00000  0.00000  0.00000
2314 462749.000  -33.951427034   18.468560428    84.6124   6   8   0.2987   0.2600   0.6433  -0.0670   0.1214   0.2672   0.00    0.0    0.00000    0.00000    0.00000   0.00000  0.00000  0.00000  0.00000  0.00000  0.00000
2314 462750.000  -33.951427043   18.468560379    84.6040   6   8   0.2977   0.2594   0.6415  -0.0670   0.1209   0.2661   0.00    0.0    0.00000    0.00000    0.00000   0.00000  0.00000  0.00000  0.00000  0.00000  0.00000
2314 462751.000  -33.951427049   18.468560320    84.5986   6   8   0.2968   0.2587   0.6398  -0.0669   0.1204   0.2649   0.00    0.0    0.00000    0.00000    0.00000   0.00000  0.00000  0.00000  0.00000  0.00000  0.00000
2314 462752.000  -33.951427018   18.468560255    84.5934   6   8   0.2958   0.2581   0.6380  -0.0669   0.1199   0.2638   0.00    0.0    0.00000    0.00000    0.00000   0.00000  0.00000  0.00000  0.00000  0.00000  0.00000
2314 462753.000  -33.951427035   18.468560237    84.5873   6   8   0.2948   0.2575   0.6363  -0.0669   0.1194   0.2627   0.00    0.0    0.00000    0.00000    0.00000   0.00000  0.00000  0.00000  0.00000  0.00000  0.00000
2314 462754.000  -33.951427025   18.468560194    84.5805   6   8   0.2939   0.2568   0.6346  -0.0668   0.1190   0.2615   0.00    0.0    0.00000    0.00000    0.00000   0.00000  0.00000  0.00000  0.00000  0.00000  0.00000
2314 462755.000  -33.951427015   18.468560194    84.5786   6   8   0.2929   0.2562   0.6329  -0.0668   0.1185   0.2604   0.00    0.0    0.00000    0.00000    0.00000   0.00000  0.00000  0.00000  0.00000  0.00000  0.00000
2314 462756.000  -33.951427027   18.468560187    84.5753   6   8   0.2920   0.2556   0.6312  -0.0667   0.1180   0.2593   0.00    0.0    0.00000    0.00000    0.00000   0.00000  0.00000  0.00000  0.00000  0.00000  0.00000
2314 462757.000  -33.951427041   18.468560211    84.5711   6   8   0.2911   0.2550   0.6295  -0.0667   0.1176   0.2582   0.00    0.0    0.00000    0.00000    0.00000   0.00000  0.00000  0.00000  0.00000  0.00000  0.00000
2314 462758.000  -33.951427023   18.468560248    84.5788   6   8   0.2901   0.2544   0.6279  -0.0666   0.1171   0.2571   0.00    0.0    0.00000    0.00000    0.00000   0.00000  0.00000  0.00000  0.00000  0.00000  0.00000
2314 462759.000  -33.951426998   18.468560285    84.5850   6   8   0.2892   0.2538   0.6262  -0.0666   0.1167   0.2561   0.00    0.0    0.00000    0.00000    0.00000   0.00000  0.00000  0.00000  0.00000  0.00000  0.00000
2314 462760.000  -33.951426997   18.468560273    84.5822   6   8   0.2883   0.2532   0.6246  -0.0666   0.1162   0.2550   0.00    0.0    0.00000    0.00000    0.00000   0.00000  0.00000  0.00000  0.00000  0.00000  0.00000
2314 462761.000  -33.951426973   18.468560250    84.5902   6   8   0.2874   0.2526   0.6229  -0.0665   0.1158   0.2539   0.00    0.0    0.00000    0.00000    0.00000   0.00000  0.00000  0.00000  0.00000  0.00000  0.00000
2314 462762.000  -33.951427007   18.468560201    84.5894   6   8   0.2865   0.2520   0.6213  -0.0665   0.1153   0.2529   0.00    0.0    0.00000    0.00000    0.00000   0.00000  0.00000  0.00000  0.00000  0.00000  0.00000
2314 462763.000  -33.951427007   18.468560176    84.5900   6   8   0.2856   0.2514   0.6197  -0.0664   0.1149   0.2518   0.00    0.0    0.00000    0.00000    0.00000   0.00000  0.00000  0.00000  0.00000  0.00000  0.00000
2314 462764.000  -33.951427023   18.468560147    84.5912   6   8   0.2847   0.2508   0.6181  -0.0664   0.1144   0.2507   0.00    0.0    0.00000    0.00000    0.00000   0.00000  0.00000  0.00000  0.00000  0.00000  0.00000
2314 462765.000  -33.951427066   18.468560120    84.5905   6   8   0.2838   0.2502   0.6165  -0.0664   0.1140   0.2497   0.00    0.0    0.00000    0.00000    0.00000   0.00000  0.00000  0.00000  0.00000  0.00000  0.00000
2314 462766.000  -33.951427096   18.468560099    84.5910   6   8   0.2829   0.2496   0.6150  -0.0663   0.1136   0.2487   0.00    0.0    0.00000    0.00000    0.00000   0.00000  0.00000  0.00000  0.00000  0.00000  0.00000
2314 462767.000  -33.951427124   18.468560098    84.5879   6   8   0.2820   0.2491   0.6134  -0.0663   0.1131   0.2476   0.00    0.0    0.00000    0.00000    0.00000   0.00000  0.00000  0.00000  0.00000  0.00000  0.00000
2314 462768.000  -33.951427136   18.468560051    84.5889   6   8   0.2811   0.2485   0.6119  -0.0662   0.1127   0.2466   0.00    0.0    0.00000    0.00000    0.00000   0.00000  0.00000  0.00000  0.00000  0.00000  0.00000
2314 462769.000  -33.951427171   18.468560045    84.5940   6   8   0.2803   0.2479   0.6103  -0.0662   0.1123   0.2456   0.00    0.0    0.00000    0.00000    0.00000   0.00000  0.00000  0.00000  0.00000  0.00000  0.00000
2314 462770.000  -33.951427188   18.468560038    84.5945   6   8   0.2794   0.2473   0.6088  -0.0662   0.1119   0.2446   0.00    0.0    0.00000    0.00000    0.00000   0.00000  0.00000  0.00000  0.00000  0.00000  0.00000
2314 462771.000  -33.951427225   18.468560028    84.5973   6   8   0.2785   0.2468   0.6073  -0.0661   0.1114   0.2436   0.00    0.0    0.00000    0.00000    0.00000   0.00000  0.00000  0.00000  0.00000  0.00000  0.00000
2314 462772.000  -33.951427248   18.468560030    84.5962   6   8   0.2777   0.2462   0.6058  -0.0661   0.1110   0.2426   0.00    0.0    0.00000    0.00000    0.00000   0.00000  0.00000  0.00000  0.00000  0.00000  0.00000
2314 462773.000  -33.951427275   18.468560030    84.5966   6   8   0.2768   0.2457   0.6043  -0.0660   0.1106   0.2416   0.00    0.0    0.00000    0.00000    0.00000   0.00000  0.00000  0.00000  0.00000  0.00000  0.00000
2314 462774.000  -33.951427277   18.468560006    84.6029   6   8   0.2760   0.2451   0.6028  -0.0660   0.1102   0.2406   0.00    0.0    0.00000    0.00000    0.00000   0.00000  0.00000  0.00000  0.00000  0.00000  0.00000
2314 462775.000  -33.951427283   18.468560007    84.6054   6   8   0.2751   0.2446   0.6013  -0.0659   0.1098   0.2397   0.00    0.0    0.00000    0.00000    0.00000   0.00000  0.00000  0.00000  0.00000  0.00000  0.00000
2314 462776.000  -33.951427279   18.468559981    84.6090   6   8   0.2743   0.2440   0.5998  -0.0659   0.1094   0.2387   0.00    0.0    0.00000    0.00000    0.00000   0.00000  0.00000  0.00000  0.00000  0.00000  0.00000
2314 462777.000  -33.951427299   18.468559960    84.6094   6   8   0.2735   0.2435   0.5984  -0.0659   0.1090   0.2377   0.00    0.0    0.00000    0.00000    0.00000   0.00000  0.00000  0.00000  0.00000  0.00000  0.00000
2314 462778.000  -33.951427325   18.468559935    84.6089   6   8   0.2726   0.2429   0.5969  -0.0658   0.1086   0.2368   0.00    0.0    0.00000    0.00000    0.00000   0.00000  0.00000  0.00000  0.00000  0.00000  0.00000
2314 462779.000  -33.951427341   18.468559945    84.6072   6   8   0.2718   0.2424   0.5955  -0.0658   0.1082   0.2358   0.00    0.0    0.00000    0.00000    0.00000   0.00000  0.00000  0.00000  0.00000  0.00000  0.00000
2314 462780.000  -33.951427336   18.468559896    84.6034   6   8   0.2710   0.2419   0.5941  -0.0657   0.1078   0.2349   0.00    0.0    0.00000    0.00000    0.00000   0.00000  0.00000  0.00000  0.00000  0.00000  0.00000
2314 462781.000  -33.951427324   18.468559872    84.6057   6   8   0.2702   0.2414   0.5926  -0.0657   0.1074   0.2339   0.00    0.0    0.00000    0.00000    0.00000   0.00000  0.00000  0.00000  0.00000  0.00000  0.00000
2314 462782.000  -33.951427281   18.468559874    84.6109   6   8   0.2693   0.2408   0.5912  -0.0656   0.1070   0.2330   0.00    0.0    0.00000    0.00000    0.00000   0.00000  0.00000  0.00000  0.00000  0.00000  0.00000
2314 462783.000  -33.951427292   18.468559877    84.6087   6   8   0.2685   0.2403   0.5898  -0.0656   0.1066   0.2320   0.00    0.0    0.00000    0.00000    0.00000   0.00000  0.00000  0.00000  0.00000  0.00000  0.00000
2314 462784.000  -33.951427302   18.468559870    84.6067   6   8   0.2677   0.2398   0.5884  -0.0656   0.1062   0.2311   0.00    0.0    0.00000    0.00000    0.00000   0.00000  0.00000  0.00000  0.00000  0.00000  0.00000
2314 462785.000  -33.951427308   18.468559866    84.6031   6   8   0.2669   0.2393   0.5870  -0.0655   0.1058   0.2302   0.00    0.0    0.00000    0.00000    0.00000   0.00000  0.00000  0.00000  0.00000  0.00000  0.00000
2314 462786.000  -33.951427309   18.468559820    84.5984   6   8   0.2661   0.2388   0.5856  -0.0655   0.1054   0.2293   0.00    0.0    0.00000    0.00000    0.00000   0.00000  0.00000  0.00000  0.00000  0.00000  0.00000
2314 462787.000  -33.951427326   18.468559767    84.5998   6   8   0.2654   0.2382   0.5843  -0.0654   0.1051   0.2284   0.00    0.0    0.00000    0.00000    0.00000   0.00000  0.00000  0.00000  0.00000  0.00000  0.00000
2314 462788.000  -33.951427334   18.468559764    84.6043   6   8   0.2646   0.2377   0.5829  -0.0654   0.1047   0.2275   0.00    0.0    0.00000    0.00000    0.00000   0.00000  0.00000  0.00000  0.00000  0.00000  0.00000
2314 462789.000  -33.951427353   18.468559761    84.6075   6   8   0.2638   0.2372   0.5816  -0.0654   0.1043   0.2266   0.00    0.0    0.00000    0.00000    0.00000   0.00000  0.00000  0.00000  0.00000  0.00000  0.00000
2314 462790.000  -33.951427360   18.468559759    84.6105   6   8   0.2630   0.2367   0.5802  -0.0653   0.1039   0.2257   0.00    0.0    0.00000    0.00000    0.00000   0.00000  0.00000  0.00000  0.00000  0.00000  0.00000
2314 462791.000  -33.951427402   18.468559753    84.6082   6   8   0.2622   0.2362   0.5789  -0.0653   0.1036   0.2248   0.00    0.0    0.00000    0.00000    0.00000   0.00000  0.00000  0.00000  0.00000  0.00000  0.00000
2314 462792.000  -33.951427426   18.468559719    84.6029   6   8   0.2615   0.2357   0.5775  -0.0652   0.1032   0.2239   0.00    0.0    0.00000    0.00000    0.00000   0.00000  0.00000  0.00000  0.00000  0.00000  0.00000
2314 462793.000  -33.951427446   18.468559674    84.6038   6   8   0.2607   0.2352   0.5762  -0.0652   0.1028   0.2230   0.00    0.0    0.00000    0.00000    0.00000   0.00000  0.00000  0.00000  0.00000  0.00000  0.00000
2314 462794.000  -33.951427489   18.468559640    84.5985   6   8   0.2599   0.2348   0.5749  -0.0651   0.1024   0.2222   0.00    0.0    0.00000    0.00000    0.00000   0.00000  0.00000  0.00000  0.00000  0.00000  0.00000
2314 462795.000  -33.951427497   18.468559603    84.5971   6   8   0.2592   0.2343   0.5736  -0.0651   0.1021   0.2213   0.00    0.0    0.00000    0.00000    0.00000   0.00000  0.00000  0.00000  0.00000  0.00000  0.00000
2314 462796.000  -33.951427501   18.468559585    84.6006   6   8   0.2584   0.2338   0.5723  -0.0651   0.1017   0.2204   0.00    0.0    0.00000    0.00000    0.00000   0.00000  0.00000  0.00000  0.00000  0.00000  0.00000
2314 462797.000  -33.951427487   18.468559599    84.6044   6   8   0.2577   0.2333   0.5710  -0.0650   0.1014   0.2196   0.00    0.0    0.00000    0.00000    0.00000   0.00000  0.00000  0.00000  0.00000  0.00000  0.00000
2314 462798.000  -33.951427513   18.468559587    84.6040   6   8   0.2569   0.2328   0.5697  -0.0650   0.1010   0.2187   0.00    0.0    0.00000    0.00000    0.00000   0.00000  0.00000  0.00000  0.00000  0.00000  0.00000
2314 462799.000  -33.951427526   18.468559550    84.6067   6   8   0.2562   0.2323   0.5684  -0.0649   0.1007   0.2179   0.00    0.0    0.00000    0.00000    0.00000   0.00000  0.00000  0.00000  0.00000  0.00000  0.00000
2314 462800.000  -33.951427535   18.468559531    84.6081   6   8   0.2555   0.2319   0.5671  -0.0649   0.1003   0.2170   0.00    0.0    0.00000    0.00000    0.00000   0.00000  0.00000  0.00000  0.00000  0.00000  0.00000
2314 462801.000  -33.951427551   18.468559511    84.6072   6   8   0.2547   0.2314   0.5659  -0.0648   0.0999   0.2162   0.00    0.0    0.00000    0.00000    0.00000   0.00000  0.00000  0.00000  0.00000  0.00000  0.00000
2314 462802.000  -33.951427575   18.468559480    84.6052   6   8   0.2540   0.2309   0.5646  -0.0648   0.0996   0.2154   0.00    0.0    0.00000    0.00000    0.00000   0.00000  0.00000  0.00000  0.00000  0.00000  0.00000
2314 462803.000  -33.951427601   18.468559426    84.6062   6   8   0.2533   0.2305   0.5634  -0.0648   0.0993   0.2145   0.00    0.0    0.00000    0.00000    0.00000   0.00000  0.00000  0.00000  0.00000  0.00000  0.00000
2314 462804.000  -33.951427621   18.468559400    84.6075   6   8   0.2525   0.2300   0.5621  -0.0647   0.0989   0.2137   0.00    0.0    0.00000    0.00000    0.00000   0.00000  0.00000  0.00000  0.00000  0.00000  0.00000
2314 462805.000  -33.951427623   18.468559368    84.6072   6   8   0.2518   0.2295   0.5609  -0.0647   0.0986   0.2129   0.00    0.0    0.00000    0.00000    0.00000   0.00000  0.00000  0.00000  0.00000  0.00000  0.00000
