% (lat/lon/height=WGS84/ellipsoidal,Q=1:fix,2:float,3:sbas,4:dgps,5:single,6:ppp,ns=# of satellites)
%  GPST          latitude(deg) longitude(deg)  height(m)   Q  ns   sdn(m)   sde(m)   sdu(m)  sdne(m)  sdeu(m)  sdun(m) age(s)  ratio    vn(m/s)    ve(m/s)    vu(m/s)      sdvn     sdve     sdvu    sdvne    sdveu    sdvun
2314 469125.000  -33.951436032   18.468547050    91.1972   5   8   3.7043   3.4282   7.8026   2.3681   3.0452   3.6800   0.00    0.0    0.00000    0.00000    0.00000   0.00000  0.00000  0.00000  0.00000  0.00000  0.00000
2314 469126.000  -33.951436598   18.468549037    91.3237   5   8   3.7042   3.4285   7.8028   2.3683   3.0458   3.6801   0.00    0.0    0.00000    0.00000    0.00000   0.00000  0.00000  0.00000  0.00000  0.00000  0.00000
2314 469127.000  -33.951435566   18.468546281    90.8730   5   8   3.7041   3.4287   7.8031   2.3685   3.0463   3.6803   0.00    0.0    0.00000    0.00000    0.00000   0.00000  0.00000  0.00000  0.00000  0.00000  0.00000
2314 469128.000  -33.951436112   18.468547201    90.2220   5   8   3.7039   3.4290   7.8034   2.3687   3.0469   3.6804   0.00    0.0    0.00000    0.00000    0.00000   0.00000  0.00000  0.00000  0.00000  0.00000  0.00000
2314 469129.000  -33.951432968   18.468545494    90.1010   5   8   3.7038   3.4293   7.8036   2.3689   3.0474   3.6805   0.00    0.0    0.00000    0.00000    0.00000   0.00000  0.00000  0.00000  0.00000  0.00000  0.00000
2314 469130.000  -33.951436361   18.468546773    90.9103   5   8   3.7037   3.4295   7.8039   2.3691   3.0479   3.6806   0.00    0.0    0.00000    0.00000    0.00000   0.00000  0.00000  0.00000  0.00000  0.00000  0.00000
2314 469131.000  -33.951434215   18.468548956    91.0548   5   8   3.7036   3.4298   7.8042   2.3693   3.0485   3.6808   0.00    0.0    0.00000    0.00000    0.00000   0.00000  0.00000  0.00000  0.00000  0.00000  0.00000
2314 469132.000  -33.951435404   18.468545690    91.1303   5   8   3.7035   3.4300   7.8045   2.3694   3.0490   3.6809   0.00    0.0    0.00000    0.00000    0.00000   0.00000  0.00000  0.00000  0.00000  0.00000  0.00000
2314 469133.000  -33.951434945   18.468543502    91.5228   5   8   3.7034   3.4303   7.8047   2.3696   3.0496   3.6810   0.00    0.0    0.00000    0.00000    0.00000   0.00000  0.00000  0.00000  0.00000  0.00000  0.00000
2314 469134.000  -33.951434281   18.468547369    90.9826   5   8   3.7032   3.4306   7.8050   2.3698   3.0501   3.6811   0.00    0.0    0.00000    0.00000    0.00000   0.00000  0.00000  0.00000  0.00000  0.00000  0.00000
2314 469135.000  -33.951432213   18.468551917    92.3465   5   8   3.7031   3.4308   7.8053   2.3700   3.0507   3.6812   0.00    0.0    0.00000    0.00000    0.00000   0.00000  0.00000  0.00000  0.00000  0.00000  0.00000
2314 469136.000  -33.951432839   18.468549859    92.2964   5   8   3.7030   3.4311   7.8056   2.3702   3.0512   3.6814   0.00    0.0    0.00000    0.00000    0.00000   0.00000  0.00000  0.00000  0.00000  0.00000  0.00000
2314 469137.000  -33.951439669   18.468545216    91.0225   5   8   3.7029   3.4313   7.8058   2.3704   3.0517   3.6815   0.00    0.0    0.00000    0.00000    0.00000   0.00000  0.00000  0.00000  0.00000  0.00000  0.00000
2314 469138.000  -33.951439146   18.468543409    90.2324   5   8   3.7028   3.4316   7.8061   2.3706   3.0523   3.6816   0.00    0.0    0.00000    0.00000    0.00000   0.00000  0.00000  0.00000  0.00000  0.00000  0.00000
2314 469139.000  -33.951434651   18.468544959    90.8485   5   8   3.7027   3.4319   7.8064   2.3708   3.0528   3.6817   0.00    0.0    0.00000    0.00000    0.00000   0.00000  0.00000  0.00000  0.00000  0.00000  0.00000
2314 469140.000  -33.951435030   18.468546277    91.4051   5   8   3.7025   3.4321   7.8066   2.3710   3.0534   3.6819   0.00    0.0    0.00000    0.00000    0.00000   0.00000  0.00000  0.00000  0.00000  0.00000  0.00000
2314 469141.000  -33.951433663   18.468545857    91.2158   5   8   3.7024   3.4324   7.8069   2.3712   3.0539   3.6820   0.00    0.0    0.00000    0.00000    0.00000   0.00000  0.00000  0.00000  0.00000  0.00000  0.00000
2314 469142.000  -33.951433644   18.468549188    91.3485   5   8   3.7023   3.4326   7.8072   2.3714   3.0545   3.6821   0.00    0.0    0.00000    0.00000    0.00000   0.00000  0.00000  0.00000  0.00000  0.00000  0.00000
2314 469143.000  -33.951434735   18.468543589    91.1664   5   8   3.7022   3.4329   7.8074   2.3715   3.0550   3.6822   0.00    0.0    0.00000    0.00000    0.00000   0.00000  0.00000  0.00000  0.00000  0.00000  0.00000
2314 469144.000  -33.951436105   18.468547394    90.6535   5   8   3.7021   3.4332   7.8077   2.3717   3.0555   3.6823   0.00    0.0    0.00000    0.00000    0.00000   0.00000  0.00000  0.00000  0.00000  0.00000  0.00000
2314 469145.000  -33.951436314   18.468547309    91.0895   5   8   3.7020   3.4334   7.8080   2.3719   3.0561   3.6825   0.00    0.0    0.00000    0.00000    0.00000   0.00000  0.00000  0.00000  0.00000  0.00000  0.00000
2314 469146.000  -33.951435361   18.468547374    90.9408   5   8   3.7018   3.4337   7.8083   2.3721   3.0566   3.6826   0.00    0.0    0.00000    0.00000    0.00000   0.00000  0.00000  0.00000  0.00000  0.00000  0.00000
2314 469147.000  -33.951433855   18.468546871    90.7409   5   8   3.7017   3.4339   7.8085   2.3723   3.0572   3.6827   0.00    0.0    0.00000    0.00000    0.00000   0.00000  0.00000  0.00000  0.00000  0.00000  0.00000
2314 469148.000  -33.951437398   18.468542588    90.1986   5   8   3.7016   3.4342   7.8088   2.3725   3.0577   3.6828   0.00    0.0    0.00000    0.00000    0.00000   0.00000  0.00000  0.00000  0.00000  0.00000  0.00000
2314 469149.000  -33.951437137   18.468545378    90.4800   5   8   3.7015   3.4345   7.8091   2.3727   3.0583   3.6830   0.00    0.0    0.00000    0.00000    0.00000   0.00000  0.00000  0.00000  0.00000  0.00000  0.00000
2314 469150.000  -33.951434349   18.468548689    91.8671   5   8   3.7014   3.4347   7.8093   2.3729   3.0588   3.6831   0.00    0.0    0.00000    0.00000    0.00000   0.00000  0.00000  0.00000  0.00000  0.00000  0.00000
2314 469151.000  -33.951435768   18.468547108    90.9855   5   8   3.7013   3.4350   7.8096   2.3731   3.0593   3.6832   0.00    0.0    0.00000    0.00000    0.00000   0.00000  0.00000  0.00000  0.00000  0.00000  0.00000
2314 469152.000  -33.951434663   18.468547003    91.0289   5   8   3.7011   3.4352   7.8099   2.3733   3.0599   3.6833   0.00    0.0    0.00000    0.00000    0.00000   0.00000  0.00000  0.00000  0.00000  0.00000  0.00000
2314 469153.000  -33.951436890   18.468546839    90.8507   5   8   3.7010   3.4355   7.8102   2.3734   3.0604   3.6834   0.00    0.0    0.00000    0.00000    0.00000   0.00000  0.00000  0.00000  0.00000  0.00000  0.00000
2314 469154.000  -33.951435378   18.468547761    90.7896   5   8   3.7009   3.4357   7.8104   2.3736   3.0610   3.6836   0.00    0.0    0.00000    0.00000    0.00000   0.00000  0.00000  0.00000  0.00000  0.00000  0.00000
2314 469155.000  -33.951438380   18.468543787    90.7886   5   8   3.7008   3.4360   7.8107   2.3738   3.0615   3.6837   0.00    0.0    0.00000    0.00000    0.00000   0.00000  0.00000  0.00000  0.00000  0.00000  0.00000
2314 469156.000  -33.951438198   18.468545170    90.8674   5   8   3.7007   3.4363   7.8110   2.3740   3.0621   3.6838   0.00    0.0    0.00000    0.00000    0.00000   0.00000  0.00000  0.00000  0.00000  0.00000  0.00000
2314 469157.000  -33.951436344   18.468545497    91.0274   5   8   3.7006   3.4365   7.8112   2.3742   3.0626   3.6839   0.00    0.0    0.00000    0.00000    0.00000   0.00000  0.00000  0.00000  0.00000  0.00000  0.00000
2314 469158.000  -33.951437594   18.468545374    90.7341   5   8   3.7004   3.4368   7.8115   2.3744   3.0631   3.6840   0.00    0.0    0.00000    0.00000    0.00000   0.00000  0.00000  0.00000  0.00000  0.00000  0.00000
2314 469159.000  -33.951433825   18.468551386    91.0887   5   8   3.7003   3.4370   7.8118   2.3746   3.0637   3.6842   0.00    0.0    0.00000    0.00000    0.00000   0.00000  0.00000  0.00000  0.00000  0.00000  0.00000
2314 469160.000  -33.951435123   18.468548012    90.6462   5   8   3.7002   3.4373   7.8120   2.3748   3.0642   3.6843   0.00    0.0    0.00000    0.00000    0.00000   0.00000  0.00000  0.00000  0.00000  0.00000  0.00000
2314 469161.000  -33.951437177   18.468543571    90.3062   5   8   3.7001   3.4376   7.8123   2.3750   3.0648   3.6844   0.00    0.0    0.00000    0.00000    0.00000   0.00000  0.00000  0.00000  0.00000  0.00000  0.00000
2314 469162.000  -33.951434428   18.468546837    91.5691   5   8   3.7000   3.4378   7.8126   2.3751   3.0653   3.6845   0.00    0.0    0.00000    0.00000    0.00000   0.00000  0.00000  0.00000  0.00000  0.00000  0.00000
2314 469163.000  -33.951436223   18.468545411    90.8010   5   8   3.6999   3.4381   7.8129   2.3753   3.0658   3.6846   0.00    0.0    0.00000    0.00000    0.00000   0.00000  0.00000  0.00000  0.00000  0.00000  0.00000
2314 469164.000  -33.951436202   18.468547281    91.3211   5   8   3.6997   3.4383   7.8131   2.3755   3.0664   3.6848   0.00    0.0    0.00000    0.00000    0.00000   0.00000  0.00000  0.00000  0.00000  0.00000  0.00000
2314 469165.000  -33.951434998   18.468547076    91.2572   5   8   3.6996   3.4386   7.8134   2.3757   3.0669   3.6849   0.00    0.0    0.00000    0.00000    0.00000   0.00000  0.00000  0.00000  0.00000  0.00000  0.00000
2314 469166.000  -33.951434913   18.468543201    91.3615   5   8   3.6995   3.4389   7.8137   2.3759   3.0675   3.6850   0.00    0.0    0.00000    0.00000    0.00000   0.00000  0.00000  0.00000  0.00000  0.00000  0.00000
2314 469167.000  -33.951437970   18.468542955    90.9507   5   8   3.6994   3.4391   7.8139   2.3761   3.0680   3.6851   0.00    0.0    0.00000    0.00000    0.00000   0.00000  0.00000  0.00000  0.00000  0.00000  0.00000
2314 469168.000  -33.951434656   18.468542722    91.3466   5   8   3.6993   3.4394   7.8142   2.3763   3.0685   3.6852   0.00    0.0    0.00000    0.00000    0.00000   0.00000  0.00000  0.00000  0.00000  0.00000  0.00000
2314 469169.000  -33.951437604   18.468544380    91.0557   5   8   3.6992   3.4396   7.8145   2.3765   3.0691   3.6854   0.00    0.0    0.00000    0.00000    0.00000   0.00000  0.00000  0.00000  0.00000  0.00000  0.00000
2314 469170.000  -33.951437034   18.468541326    91.5163   5   8   3.6990   3.4399   7.8147   2.3767   3.0696   3.6855   0.00    0.0    0.00000    0.00000    0.00000   0.00000  0.00000  0.00000  0.00000  0.00000  0.00000
2314 469171.000  -33.951439115   18.468541076    90.7327   5   8   3.6989   3.4402   7.8150   2.3768   3.0702   3.6856   0.00    0.0    0.00000    0.00000    0.00000   0.00000  0.00000  0.00000  0.00000  0.00000  0.00000
2314 469172.000  -33.951438459   18.468546488    90.7410   5   8   3.6988   3.4404   7.8153   2.3770   3.0707   3.6857   0.00    0.0    0.00000    0.00000    0.00000   0.00000  0.00000  0.00000  0.00000  0.00000  0.00000
2314 469173.000  -33.951438635   18.468548514    91.5997   5   8   3.6987   3.4407   7.8156   2.3772   3.0712   3.6858   0.00    0.0    0.00000    0.00000    0.00000   0.00000  0.00000  0.00000  0.00000  0.00000  0.00000
2314 469174.000  -33.951439190   18.468548300    91.3653   5   8   3.6986   3.4409   7.8158   2.3774   3.0718   3.6860   0.00    0.0    0.00000    0.00000    0.00000   0.00000  0.00000  0.00000  0.00000  0.00000  0.00000
2314 469175.000  -33.951436266   18.468545370    90.9427   5   8   3.6985   3.4412   7.8161   2.3776   3.0723   3.6861   0.00    0.0    0.00000    0.00000    0.00000   0.00000  0.00000  0.00000  0.00000  0.00000  0.00000
2314 469176.000  -33.951439430   18.468544239    90.9740   5   8   3.6983   3.4415   7.8164   2.3778   3.0729   3.6862   0.00    0.0    0.00000    0.00000    0.00000   0.00000  0.00000  0.00000  0.00000  0.00000  0.00000
2314 469177.000  -33.951435234   18.468548306    91.2895   5   8   3.6982   3.4417   7.8166   2.3780   3.0734   3.6863   0.00    0.0    0.00000    0.00000    0.00000   0.00000  0.00000  0.00000  0.00000  0.00000  0.00000
2314 469178.000  -33.951435879   18.468546457    90.9201   5   8   3.6981   3.4420   7.8169   2.3781   3.0739   3.6864   0.00    0.0    0.00000    0.00000    0.00000   0.00000  0.00000  0.00000  0.00000  0.00000  0.00000
2314 469179.000  -33.951437413   18.468545736    91.3383   5   8   3.6980   3.4422   7.8172   2.3783   3.0745   3.6865   0.00    0.0    0.00000    0.00000    0.00000   0.00000  0.00000  0.00000  0.00000  0.00000  0.00000
2314 469180.000  -33.951440555   18.468544058    90.7346   5   8   3.6979   3.4425   7.8174   2.3785   3.0750   3.6867   0.00    0.0    0.00000    0.00000    0.00000   0.00000  0.00000  0.00000  0.00000  0.00000  0.00000
2314 469181.000  -33.951436703   18.468541326    91.0254   5   8   3.6978   3.4428   7.8177   2.3787   3.0756   3.6868   0.00    0.0    0.00000    0.00000    0.00000   0.00000  0.00000  0.00000  0.00000  0.00000  0.00000
2314 469182.000  -33.951437400   18.468543805    92.0525   5   8   3.6976   3.4430   7.8180   2.3789   3.0761   3.6869   0.00    0.0    0.00000    0.00000    0.00000   0.00000  0.00000  0.00000  0.00000  0.00000  0.00000
2314 469183.000  -33.951435655   18.468548400    91.1213   5   8   3.6975   3.4433   7.8182   2.3791   3.0766   3.6870   0.00    0.0    0.00000    0.00000    0.00000   0.00000  0.00000  0.00000  0.00000  0.00000  0.00000
2314 469184.000  -33.951438568   18.468545335    91.0031   5   8   3.6974   3.4435   7.8185   2.3793   3.0772   3.6871   0.00    0.0    0.00000    0.00000    0.00000   0.00000  0.00000  0.00000  0.00000  0.00000  0.00000
2314 469185.000  -33.951439550   18.468541747    90.5480   5   8   3.6973   3.4438   7.8188   2.3795   3.0777   3.6873   0.00    0.0    0.00000    0.00000    0.00000   0.00000  0.00000  0.00000  0.00000  0.00000  0.00000
2314 469186.000  -33.951438310   18.468544424    90.5910   5   8   3.6972   3.4441   7.8190   2.3796   3.0783   3.6874   0.00    0.0    0.00000    0.00000    0.00000   0.00000  0.00000  0.00000  0.00000  0.00000  0.00000
2314 469187.000  -33.951436642   18.468544871    90.9425   5   8   3.6971   3.4443   7.8193   2.3798   3.0788   3.6875   0.00    0.0    0.00000    0.00000    0.00000   0.00000  0.00000  0.00000  0.00000  0.00000  0.00000
2314 469188.000  -33.951434906   18.468546915    91.0342   5   8   3.6969   3.4446   7.8196   2.3800   3.0793   3.6876   0.00    0.0    0.00000    0.00000    0.00000   0.00000  0.00000  0.00000  0.00000  0.00000  0.00000
2314 469189.000  -33.951439188   18.468543697    90.7973   5   8   3.6968   3.4448   7.8199   2.3802   3.0799   3.6877   0.00    0.0    0.00000    0.00000    0.00000   0.00000  0.00000  0.00000  0.00000  0.00000  0.00000
2314 469190.000  -33.951438608   18.468540766    91.0185   5   8   3.6967   3.4451   7.8201   2.3804   3.0804   3.6878   0.00    0.0    0.00000    0.00000    0.00000   0.00000  0.00000  0.00000  0.00000  0.00000  0.00000
2314 469191.000  -33.951440260   18.468540836    90.1293   5   8   3.6966   3.4454   7.8204   2.3806   3.0810   3.6880   0.00    0.0    0.00000    0.00000    0.00000   0.00000  0.00000  0.00000  0.00000  0.00000  0.00000
2314 469192.000  -33.951441878   18.468546523    90.2994   5   8   3.6965   3.4456   7.8207   2.3808   3.0815   3.6881   0.00    0.0    0.00000    0.00000    0.00000   0.00000  0.00000  0.00000  0.00000  0.00000  0.00000
2314 469193.000  -33.951436865   18.468546664    91.1246   5   8   3.6964   3.4459   7.8209   2.3809   3.0820   3.6882   0.00    0.0    0.00000    0.00000    0.00000   0.00000  0.00000  0.00000  0.00000  0.00000  0.00000
2314 469194.000  -33.951437940   18.468546556    91.0527   5   8   3.6962   3.4461   7.8212   2.3811   3.0826   3.6883   0.00    0.0    0.00000    0.00000    0.00000   0.00000  0.00000  0.00000  0.00000  0.00000  0.00000
2314 469195.000  -33.951437585   18.468542538    90.1428   5   8   3.6961   3.4464   7.8215   2.3813   3.0831   3.6884   0.00    0.0    0.00000    0.00000    0.00000   0.00000  0.00000  0.00000  0.00000  0.00000  0.00000
2314 469196.000  -33.951436614   18.468545548    90.4613   5   8   3.6960   3.4467   7.8217   2.3815   3.0836   3.6885   0.00    0.0    0.00000    0.00000    0.00000   0.00000  0.00000  0.00000  0.00000  0.00000  0.00000
2314 469197.000  -33.951438801   18.468543944    90.3983   5   8   3.6959   3.4469   7.8220   2.3817   3.0842   3.6887   0.00    0.0    0.00000    0.00000    0.00000   0.00000  0.00000  0.00000  0.00000  0.00000  0.00000
2314 469198.000  -33.951436676   18.468543676    90.8220   5   8   3.6958   3.4472   7.8223   2.3819   3.0847   3.6888   0.00    0.0    0.00000    0.00000    0.00000   0.00000  0.00000  0.00000  0.00000  0.00000  0.00000
2314 469199.000  -33.951439153   18.468540062    90.3446   5   8   3.6956   3.4474   7.8225   2.3821   3.0853   3.6889   0.00    0.0    0.00000    0.00000    0.00000   0.00000  0.00000  0.00000  0.00000  0.00000  0.00000
2314 469200.000  -33.951440566   18.468542179    90.2451   5   8   3.6955   3.4477   7.8228   2.3822   3.0858   3.6890   0.00    0.0    0.00000    0.00000    0.00000   0.00000  0.00000  0.00000  0.00000  0.00000  0.00000
2314 469201.000  -33.951436109   18.468545994    90.4214   5   8   3.6954   3.4480   7.8231   2.3824   3.0863   3.6891   0.00    0.0    0.00000    0.00000    0.00000   0.00000  0.00000  0.00000  0.00000  0.00000  0.00000
2314 469202.000  -33.951439969   18.468543368    90.2440   5   8   3.6953   3.4482   7.8233   2.3826   3.0869   3.6892   0.00    0.0    0.00000    0.00000    0.00000   0.00000  0.00000  0.00000  0.00000  0.00000  0.00000
2314 469203.000  -33.951440517   18.468542602    90.0453   5   8   3.6952   3.4485   7.8236   2.3828   3.0874   3.6894   0.00    0.0    0.00000    0.00000    0.00000   0.00000  0.00000  0.00000  0.00000  0.00000  0.00000
2314 469204.000  -33.951437618   18.468543439    90.4637   5   8   3.6951   3.4487   7.8239   2.3830   3.0879   3.6895   0.00    0.0    0.00000    0.00000    0.00000   0.00000  0.00000  0.00000  0.00000  0.00000  0.00000
2314 469205.000  -33.951438356   18.468546053    91.4810   5   8   3.6949   3.4490   7.8241   2.3832   3.0885   3.6896   0.00    0.0    0.00000    0.00000    0.00000   0.00000  0.00000  0.00000  0.00000  0.00000  0.00000
2314 469206.000  -33.951438021   18.468546683    91.0814   5   8   3.6948   3.4493   7.8244   2.3833   3.0890   3.6897   0.00    0.0    0.00000    0.00000    0.00000   0.00000  0.00000  0.00000  0.00000  0.00000  0.00000
2314 469207.000  -33.951438707   18.468546588    90.8456   5   8   3.6947   3.4495   7.8247   2.3835   3.0896   3.6898   0.00    0.0    0.00000    0.00000    0.00000   0.00000  0.00000  0.00000  0.00000  0.00000  0.00000
2314 469208.000  -33.951443286   18.468539867    89.8704   5   8   3.6946   3.4498   7.8249   2.3837   3.0901   3.6899   0.00    0.0    0.00000    0.00000    0.00000   0.00000  0.00000  0.00000  0.00000  0.00000  0.00000
2314 469209.000  -33.951439218   18.468542016    90.4087   5   8   3.6945   3.4500   7.8252   2.3839   3.0906   3.6901   0.00    0.0    0.00000    0.00000    0.00000   0.00000  0.00000  0.00000  0.00000  0.00000  0.00000
2314 469210.000  -33.951438925   18.468544679    90.6670   5   8   3.6944   3.4503   7.8255   2.3841   3.0912   3.6902   0.00    0.0    0.00000    0.00000    0.00000   0.00000  0.00000  0.00000  0.00000  0.00000  0.00000
2314 469211.000  -33.951440732   18.468546604    90.2900   5   8   3.6942   3.4506   7.8257   2.3843   3.0917   3.6903   0.00    0.0    0.00000    0.00000    0.00000   0.00000  0.00000  0.00000  0.00000  0.00000  0.00000
2314 469212.000  -33.951442111   18.468543242    90.8395   5   8   3.6941   3.4508   7.8260   2.3844   3.0922   3.6904   0.00    0.0    0.00000    0.00000    0.00000   0.00000  0.00000  0.00000  0.00000  0.00000  0.00000
2314 469213.000  -33.951439093   18.468541814    89.8258   5   8   3.6940   3.4511   7.8263   2.3846   3.0928   3.6905   0.00    0.0    0.00000    0.00000    0.00000   0.00000  0.00000  0.00000  0.00000  0.00000  0.00000
2314 469214.000  -33.951440448   18.468543177    90.2398   5   8   3.6939   3.4513   7.8265   2.3848   3.0933   3.6906   0.00    0.0    0.00000    0.00000    0.00000   0.00000  0.00000  0.00000  0.00000  0.00000  0.00000
2314 469215.000  -33.951440173   18.468546198    90.5841   5   8   3.6938   3.4516   7.8268   2.3850   3.0938   3.6907   0.00    0.0    0.00000    0.00000    0.00000   0.00000  0.00000  0.00000  0.00000  0.00000  0.00000
2314 469216.000  -33.951440899   18.468544535    89.7787   5   8   3.6937   3.4519   7.8271   2.3852   3.0944   3.6909   0.00    0.0    0.00000    0.00000    0.00000   0.00000  0.00000  0.00000  0.00000  0.00000  0.00000
2314 469217.000  -33.951439149   18.468544731    89.8511   5   8   3.6935   3.4521   7.8273   2.3854   3.0949   3.6910   0.00    0.0    0.00000    0.00000    0.00000   0.00000  0.00000  0.00000  0.00000  0.00000  0.00000
2314 469218.000  -33.951439874   18.468543571    89.9570   5   8   3.6934   3.4524   7.8276   2.3855   3.0954   3.6911   0.00    0.0    0.00000    0.00000    0.00000   0.00000  0.00000  0.00000  0.00000  0.00000  0.00000
2314 469219.000  -33.951439338   18.468543967    90.4457   5   8   3.6933   3.4526   7.8279   2.3857   3.0960   3.6912   0.00    0.0    0.00000    0.00000    0.00000   0.00000  0.00000  0.00000  0.00000  0.00000  0.00000
2314 469220.000  -33.951439005   18.468544989    90.8435   5   8   3.6932   3.4529   7.8281   2.3859   3.0965   3.6913   0.00    0.0    0.00000    0.00000    0.00000   0.00000  0.00000  0.00000  0.00000  0.00000  0.00000
2314 469221.000  -33.951442747   18.468540154    89.6449   5   8   3.6931   3.4532   7.8284   2.3861   3.0971   3.6914   0.00    0.0    0.00000    0.00000    0.00000   0.00000  0.00000  0.00000  0.00000  0.00000  0.00000
2314 469222.000  -33.951441008   18.468540848    89.6933   5   8   3.6929   3.4534   7.8287   2.3863   3.0976   3.6915   0.00    0.0    0.00000    0.00000    0.00000   0.00000  0.00000  0.00000  0.00000  0.00000  0.00000
2314 469223.000  -33.951439024   18.468545718    91.2565   5   8   3.6928   3.4537   7.8289   2.3865   3.0981   3.6917   0.00    0.0    0.00000    0.00000    0.00000   0.00000  0.00000  0.00000  0.00000  0.00000  0.00000
2314 469224.000  -33.951437932   18.468547334    90.6755   5   8   3.6927   3.4539   7.8292   2.3866   3.0987   3.6918   0.00    0.0    0.00000    0.00000    0.00000   0.00000  0.00000  0.00000  0.00000  0.00000  0.00000
2314 469225.000  -33.951439732   18.468545531    90.2916   5   8   3.6926   3.4542   7.8295   2.3868   3.0992   3.6919   0.00    0.0    0.00000    0.00000    0.00000   0.00000  0.00000  0.00000  0.00000  0.00000  0.00000
2314 469226.000  -33.951440665   18.468542698    90.0783   5   8   3.6925   3.4545   7.8297   2.3870   3.0997   3.6920   0.00    0.0    0.00000    0.00000    0.00000   0.00000  0.00000  0.00000  0.00000  0.00000  0.00000
2314 469227.000  -33.951441778   18.468540096    90.2493   5   8   3.6924   3.4547   7.8300   2.3872   3.1003   3.6921   0.00    0.0    0.00000    0.00000    0.00000   0.00000  0.00000  0.00000  0.00000  0.00000  0.00000
2314 469228.000  -33.951443107   18.468544341    90.4876   5   8   3.6922   3.4550   7.8303   2.3874   3.1008   3.6922   0.00    0.0    0.00000    0.00000    0.00000   0.00000  0.00000  0.00000  0.00000  0.00000  0.00000
2314 469229.000  -33.951442494   18.468544993    90.4752   5   8   3.6921   3.4552   7.8305   2.3876   3.1013   3.6923   0.00    0.0    0.00000    0.00000    0.00000   0.00000  0.00000  0.00000  0.00000  0.00000  0.00000
2314 469230.000  -33.951442719   18.468543642    90.4903   5   8   3.6920   3.4555   7.8308   2.3877   3.1019   3.6925   0.00    0.0    0.00000    0.00000    0.00000   0.00000  0.00000  0.00000  0.00000  0.00000  0.00000
2314 469231.000  -33.951441846   18.468543832    90.7009   5   8   3.6919   3.4558   7.8310   2.3879   3.1024   3.6926   0.00    0.0    0.00000    0.00000    0.00000   0.00000  0.00000  0.00000  0.00000  0.00000  0.00000
2314 469232.000  -33.951442048   18.468543663    90.8115   5   8   3.6918   3.4560   7.8313   2.3881   3.1029   3.6927   0.00    0.0    0.00000    0.00000    0.00000   0.00000  0.00000  0.00000  0.00000  0.00000  0.00000
2314 469233.000  -33.951441402   18.468542520    90.4304   5   8   3.6917   3.4563   7.8316   2.3883   3.1035   3.6928   0.00    0.0    0.00000    0.00000    0.00000   0.00000  0.00000  0.00000  0.00000  0.00000  0.00000
2314 469234.000  -33.951440085   18.468545530    91.2511   5   8   3.6915   3.4565   7.8318   2.3885   3.1040   3.6929   0.00    0.0    0.00000    0.00000    0.00000   0.00000  0.00000  0.00000  0.00000  0.00000  0.00000
2314 469235.000  -33.951441625   18.468544580    90.6832   5   8   3.6914   3.4568   7.8321   2.3886   3.1045   3.6930   0.00    0.0    0.00000    0.00000    0.00000   0.00000  0.00000  0.00000  0.00000  0.00000  0.00000
2314 469236.000  -33.951438291   18.468543863    91.1786   5   8   3.6913   3.4571   7.8324   2.3888   3.1051   3.6931   0.00    0.0    0.00000    0.00000    0.00000   0.00000  0.00000  0.00000  0.00000  0.00000  0.00000
2314 469237.000  -33.951444335   18.468543509    89.8003   5   8   3.6912   3.4573   7.8326   2.3890   3.1056   3.6933   0.00    0.0    0.00000    0.00000    0.00000   0.00000  0.00000  0.00000  0.00000  0.00000  0.00000
2314 469238.000  -33.951442002   18.468545866    90.7347   5   8   3.6911   3.4576   7.8329   2.3892   3.1061   3.6934   0.00    0.0    0.00000    0.00000    0.00000   0.00000  0.00000  0.00000  0.00000  0.00000  0.00000
2314 469239.000  -33.951440814   18.468542774    89.9206   5   8   3.6909   3.4578   7.8332   2.3894   3.1067   3.6935   0.00    0.0    0.00000    0.00000    0.00000   0.00000  0.00000  0.00000  0.00000  0.00000  0.00000
2314 469240.000  -33.951437592   18.468542615    90.9626   5   8   3.6908   3.4581   7.8334   2.3895   3.1072   3.6936   0.00    0.0    0.00000    0.00000    0.00000   0.00000  0.00000  0.00000  0.00000  0.00000  0.00000
2314 469241.000  -33.951439898   18.468540598    90.4446   5   8   3.6907   3.4584   7.8337   2.3897   3.1077   3.6937   0.00    0.0    0.00000    0.00000    0.00000   0.00000  0.00000  0.00000  0.00000  0.00000  0.00000
2314 469242.000  -33.951439273   18.468545962    90.5577   5   8   3.6906   3.4586   7.8340   2.3899   3.1083   3.6938   0.00    0.0    0.00000    0.00000    0.00000   0.00000  0.00000  0.00000  0.00000  0.00000  0.00000
2314 469243.000  -33.951434996   18.468547974    91.8372   5   8   3.6905   3.4589   7.8342   2.3901   3.1088   3.6939   0.00    0.0    0.00000    0.00000    0.00000   0.00000  0.00000  0.00000  0.00000  0.00000  0.00000
2314 469244.000  -33.951439769   18.468541878    90.2807   5   8   3.6904   3.4591   7.8345   2.3903   3.1093   3.6940   0.00    0.0    0.00000    0.00000    0.00000   0.00000  0.00000  0.00000  0.00000  0.00000  0.00000
2314 469245.000  -33.951440807   18.468545298    90.2748   5   8   3.6902   3.4594   7.8347   2.3904   3.1099   3.6942   0.00    0.0    0.00000    0.00000    0.00000   0.00000  0.00000  0.00000  0.00000  0.00000  0.00000
2314 469246.000  -33.951435506   18.468546375    90.3631   5   8   3.6901   3.4597   7.8350   2.3906   3.1104   3.6943   0.00    0.0    0.00000    0.00000    0.00000   0.00000  0.00000  0.00000  0.00000  0.00000  0.00000
2314 469247.000  -33.951435028   18.468549220    91.4666   5   8   3.6900   3.4599   7.8353   2.3908   3.1109   3.6944   0.00    0.0    0.00000    0.00000    0.00000   0.00000  0.00000  0.00000  0.00000  0.00000  0.00000
2314 469248.000  -33.951439982   18.468542049    90.6583   5   8   3.6899   3.4602   7.8355   2.3910   3.1115   3.6945   0.00    0.0    0.00000    0.00000    0.00000   0.00000  0.00000  0.00000  0.00000  0.00000  0.00000
2314 469249.000  -33.951441429   18.468541029    90.1280   5   8   3.6898   3.4604   7.8358   2.3912   3.1120   3.6946   0.00    0.0    0.00000    0.00000    0.00000   0.00000  0.00000  0.00000  0.00000  0.00000  0.00000
2314 469250.000  -33.951439395   18.468543217    90.3409   5   8   3.6897   3.4607   7.8361   2.3913   3.1125   3.6947   0.00    0.0    0.00000    0.00000    0.00000   0.00000  0.00000  0.00000  0.00000  0.00000  0.00000
2314 469251.000  -33.951435965   18.468545306    91.1995   5   8   3.6895   3.4610   7.8363   2.3915   3.1131   3.6948   0.00    0.0    0.00000    0.00000    0.00000   0.00000  0.00000  0.00000  0.00000  0.00000  0.00000
2314 469252.000  -33.951440438   18.468541543    90.4164   5   8   3.6894   3.4612   7.8366   2.3917   3.1136   3.6949   0.00    0.0    0.00000    0.00000    0.00000   0.00000  0.00000  0.00000  0.00000  0.00000  0.00000
2314 469253.000  -33.951439188   18.468544476    90.4607   5   8   3.6893   3.4615   7.8369   2.3919   3.1141   3.6950   0.00    0.0    0.00000    0.00000    0.00000   0.00000  0.00000  0.00000  0.00000  0.00000  0.00000
2314 469254.000  -33.951436670   18.468545540    90.4406   5   8   3.6892   3.4617   7.8371   2.3921   3.1146   3.6952   0.00    0.0    0.00000    0.00000    0.00000   0.00000  0.00000  0.00000  0.00000  0.00000  0.00000
2314 469255.000  -33.951441813   18.468540762    90.2055   5   8   3.6891   3.4620   7.8374   2.3922   3.1152   3.6953   0.00    0.0    0.00000    0.00000    0.00000   0.00000  0.00000  0.00000  0.00000  0.00000  0.00000
2314 469256.000  -33.951441812   18.468540550    90.6310   5   8   3.6889   3.4623   7.8376   2.3924   3.1157   3.6954   0.00    0.0    0.00000    0.00000    0.00000   0.00000  0.00000  0.00000  0.00000  0.00000  0.00000
2314 469257.000  -33.951441330   18.468544177    90.1469   5   8   3.6888   3.4625   7.8379   2.3926   3.1162   3.6955   0.00    0.0    0.00000    0.00000    0.00000   0.00000  0.00000  0.00000  0.00000  0.00000  0.00000
2314 469258.000  -33.951440517   18.468543267    90.8384   5   8   3.6887   3.4628   7.8382   2.3928   3.1168   3.6956   0.00    0.0    0.00000    0.00000    0.00000   0.00000  0.00000  0.00000  0.00000  0.00000  0.00000
2314 469259.000  -33.951438225   18.468544247    91.1349   5   8   3.6886   3.4630   7.8384   2.3930   3.1173   3.6957   0.00    0.0    0.00000    0.00000    0.00000   0.00000  0.00000  0.00000  0.00000  0.00000  0.00000
2314 469260.000  -33.951438771   18.468546841    91.0074   5   8   3.6885   3.4633   7.8387   2.3931   3.1178   3.6958   0.00    0.0    0.00000    0.00000    0.00000   0.00000  0.00000  0.00000  0.00000  0.00000  0.00000
2314 469261.000  -33.951441405   18.468540672    90.4805   5   8   3.6884   3.4636   7.8390   2.3933   3.1184   3.6959   0.00    0.0    0.00000    0.00000    0.00000   0.00000  0.00000  0.00000  0.00000  0.00000  0.00000
2314 469262.000  -33.951438535   18.468544146    90.6823   5   8   3.6882   3.4638   7.8392   2.3935   3.1189   3.6960   0.00    0.0    0.00000    0.00000    0.00000   0.00000  0.00000  0.00000  0.00000  0.00000  0.00000
2314 469263.000  -33.951440253   18.468541340    90.7689   5   8   3.6881   3.4641   7.8395   2.3937   3.1194   3.6962   0.00    0.0    0.00000    0.00000    0.00000   0.00000  0.00000  0.00000  0.00000  0.00000  0.00000
2314 469264.000  -33.951439950   18.468545511    90.4029   5   8   3.6880   3.4643   7.8397   2.3939   3.1200   3.6963   0.00    0.0    0.00000    0.00000    0.00000   0.00000  0.00000  0.00000  0.00000  0.00000  0.00000
2314 469265.000  -33.951437281   18.468542256    90.2604   5   8   3.6879   3.4646   7.8400   2.3940   3.1205   3.6964   0.00    0.0    0.00000    0.00000    0.00000   0.00000  0.00000  0.00000  0.00000  0.00000  0.00000
2314 469266.000  -33.951443293   18.468543720    90.7717   5   8   3.6878   3.4649   7.8403   2.3942   3.1210   3.6965   0.00    0.0    0.00000    0.00000    0.00000   0.00000  0.00000  0.00000  0.00000  0.00000  0.00000
2314 469267.000  -33.951438302   18.468545398    90.9139   5   8   3.6876   3.4651   7.8405   2.3944   3.1215   3.6966   0.00    0.0    0.00000    0.00000    0.00000   0.00000  0.00000  0.00000  0.00000  0.00000  0.00000
2314 469268.000  -33.951436416   18.468548026    91.1797   5   8   3.6875   3.4654   7.8408   2.3946   3.1221   3.6967   0.00    0.0    0.00000    0.00000    0.00000   0.00000  0.00000  0.00000  0.00000  0.00000  0.00000
2314 469269.000  -33.951436236   18.468541239    90.2438   5   8   3.6874   3.4656   7.8411   2.3947   3.1226   3.6968   0.00    0.0    0.00000    0.00000    0.00000   0.00000  0.00000  0.00000  0.00000  0.00000  0.00000
2314 469270.000  -33.951439573   18.468541260    90.5647   5   8   3.6873   3.4659   7.8413   2.3949   3.1231   3.6969   0.00    0.0    0.00000    0.00000    0.00000   0.00000  0.00000  0.00000  0.00000  0.00000  0.00000
2314 469271.000  -33.951439074   18.468540856    90.4916   5   8   3.6872   3.4662   7.8416   2.3951   3.1237   3.6970   0.00    0.0    0.00000    0.00000    0.00000   0.00000  0.00000  0.00000  0.00000  0.00000  0.00000
2314 469272.000  -33.951438727   18.468545010    90.4172   5   8   3.6871   3.4664   7.8418   2.3953   3.1242   3.6971   0.00    0.0    0.00000    0.00000    0.00000   0.00000  0.00000  0.00000  0.00000  0.00000  0.00000
2314 469273.000  -33.951441127   18.468543706    90.8570   5   8   3.6869   3.4667   7.8421   2.3955   3.1247   3.6972   0.00    0.0    0.00000    0.00000    0.00000   0.00000  0.00000  0.00000  0.00000  0.00000  0.00000
2314 469274.000  -33.951439884   18.468545431    90.8323   5   8   3.6868   3.4669   7.8424   2.3956   3.1253   3.6974   0.00    0.0    0.00000    0.00000    0.00000   0.00000  0.00000  0.00000  0.00000  0.00000  0.00000
2314 469275.000  -33.951439882   18.468540823    90.5338   5   8   3.6867   3.4672   7.8426   2.3958   3.1258   3.6975   0.00    0.0    0.00000    0.00000    0.00000   0.00000  0.00000  0.00000  0.00000  0.00000  0.00000
2314 469276.000  -33.951437645   18.468546400    90.8460   5   8   3.6866   3.4675   7.8429   2.3960   3.1263   3.6976   0.00    0.0    0.00000    0.00000    0.00000   0.00000  0.00000  0.00000  0.00000  0.00000  0.00000
2314 469277.000  -33.951435116   18.468547905    90.9797   5   8   3.6865   3.4677   7.8432   2.3962   3.1268   3.6977   0.00    0.0    0.00000    0.00000    0.00000   0.00000  0.00000  0.00000  0.00000  0.00000  0.00000
2314 469278.000  -33.951437787   18.468544382    90.3194   5   8   3.6863   3.4680   7.8434   2.3963   3.1274   3.6978   0.00    0.0    0.00000    0.00000    0.00000   0.00000  0.00000  0.00000  0.00000  0.00000  0.00000
2314 469279.000  -33.951437521   18.468545658    90.4795   5   8   3.6862   3.4682   7.8437   2.3965   3.1279   3.6979   0.00    0.0    0.00000    0.00000    0.00000   0.00000  0.00000  0.00000  0.00000  0.00000  0.00000
2314 469280.000  -33.951438968   18.468542739    90.0906   5   8   3.6861   3.4685   7.8439   2.3967   3.1284   3.6980   0.00    0.0    0.00000    0.00000    0.00000   0.00000  0.00000  0.00000  0.00000  0.00000  0.00000
2314 469281.000  -33.951435400   18.468547412    91.9308   5   8   3.6860   3.4688   7.8442   2.3969   3.1290   3.6981   0.00    0.0    0.00000    0.00000    0.00000   0.00000  0.00000  0.00000  0.00000  0.00000  0.00000
2314 469282.000  -33.951441540   18.468543506    90.6345   5   8   3.6859   3.4690   7.8445   2.3970   3.1295   3.6982   0.00    0.0    0.00000    0.00000    0.00000   0.00000  0.00000  0.00000  0.00000  0.00000  0.00000
2314 469283.000  -33.951435736   18.468540786    90.6748   5   8   3.6857   3.4693   7.8447   2.3972   3.1300   3.6983   0.00    0.0    0.00000    0.00000    0.00000   0.00000  0.00000  0.00000  0.00000  0.00000  0.00000
2314 469284.000  -33.951435761   18.468546866    90.8486   5   8   3.6856   3.4695   7.8450   2.3974   3.1305   3.6984   0.00    0.0    0.00000    0.00000    0.00000   0.00000  0.00000  0.00000  0.00000  0.00000  0.00000
2314 469285.000  -33.951437116   18.468547065    90.8392   5   8   3.6855   3.4698   7.8452   2.3976   3.1311   3.6985   0.00    0.0    0.00000    0.00000    0.00000   0.00000  0.00000  0.00000  0.00000  0.00000  0.00000
2314 469286.000  -33.951439858   18.468544657    91.0356   5   8   3.6854   3.4701   7.8455   2.3978   3.1316   3.6987   0.00    0.0    0.00000    0.00000    0.00000   0.00000  0.00000  0.00000  0.00000  0.00000  0.00000
2314 469287.000  -33.951437853   18.468545132    91.2087   5   8   3.6853   3.4703   7.8458   2.3979   3.1321   3.6988   0.00    0.0    0.00000    0.00000    0.00000   0.00000  0.00000  0.00000  0.00000  0.00000  0.00000
2314 469288.000  -33.951437961   18.468544449    90.6808   5   8   3.6852   3.4706   7.8460   2.3981   3.1327   3.6989   0.00    0.0    0.00000    0.00000    0.00000   0.00000  0.00000  0.00000  0.00000  0.00000  0.00000
2314 469289.000  -33.951438153   18.468540462    90.7129   5   8   3.6850   3.4708   7.8463   2.3983   3.1332   3.6990   0.00    0.0    0.00000    0.00000    0.00000   0.00000  0.00000  0.00000  0.00000  0.00000  0.00000
2314 469290.000  -33.951439039   18.468544850    90.6103   5   8   3.6849   3.4711   7.8465   2.3985   3.1337   3.6991   0.00    0.0    0.00000    0.00000    0.00000   0.00000  0.00000  0.00000  0.00000  0.00000  0.00000
2314 469291.000  -33.951434779   18.468548157    91.4408   5   8   3.6848   3.4714   7.8468   2.3986   3.1342   3.6992   0.00    0.0    0.00000    0.00000    0.00000   0.00000  0.00000  0.00000  0.00000  0.00000  0.00000
2314 469292.000  -33.951437813   18.468546187    91.5431   5   8   3.6847   3.4716   7.8471   2.3988   3.1348   3.6993   0.00    0.0    0.00000    0.00000    0.00000   0.00000  0.00000  0.00000  0.00000  0.00000  0.00000
2314 469293.000  -33.951439666   18.468543343    90.6342   5   8   3.6846   3.4719   7.8473   2.3990   3.1353   3.6994   0.00    0.0    0.00000    0.00000    0.00000   0.00000  0.00000  0.00000  0.00000  0.00000  0.00000
2314 469294.000  -33.951439934   18.468543067    90.1913   5   8   3.6844   3.4721   7.8476   2.3992   3.1358   3.6995   0.00    0.0    0.00000    0.00000    0.00000   0.00000  0.00000  0.00000  0.00000  0.00000  0.00000
2314 469295.000  -33.951439699   18.468544741    91.2239   5   8   3.6843   3.4724   7.8478   2.3993   3.1363   3.6996   0.00    0.0    0.00000    0.00000    0.00000   0.00000  0.00000  0.00000  0.00000  0.00000  0.00000
2314 469296.000  -33.951437528   18.468544939    90.6714   5   8   3.6842   3.4727   7.8481   2.3995   3.1369   3.6997   0.00    0.0    0.00000    0.00000    0.00000   0.00000  0.00000  0.00000  0.00000  0.00000  0.00000
2314 469297.000  -33.951436289   18.468546686    91.1087   5   8   3.6841   3.4729   7.8484   2.3997   3.1374   3.6998   0.00    0.0    0.00000    0.00000    0.00000   0.00000  0.00000  0.00000  0.00000  0.00000  0.00000
2314 469298.000  -33.951437078   18.468543460    90.5745   5   8   3.6840   3.4732   7.8486   2.3999   3.1379   3.6999   0.00    0.0    0.00000    0.00000    0.00000   0.00000  0.00000  0.00000  0.00000  0.00000  0.00000
2314 469299.000  -33.951441773   18.468543517    90.3862   5   8   3.6838   3.4734   7.8489   2.4000   3.1384   3.7000   0.00    0.0    0.00000    0.00000    0.00000   0.00000  0.00000  0.00000  0.00000  0.00000  0.00000
2314 469300.000  -33.951436193   18.468546935    91.0729   5   8   3.6837   3.4737   7.8491   2.4002   3.1390   3.7001   0.00    0.0    0.00000    0.00000    0.00000   0.00000  0.00000  0.00000  0.00000  0.00000  0.00000
2314 469301.000  -33.951438624   18.468547599    91.5097   5   8   3.6836   3.4740   7.8494   2.4004   3.1395   3.7003   0.00    0.0    0.00000    0.00000    0.00000   0.00000  0.00000  0.00000  0.00000  0.00000  0.00000
2314 469302.000  -33.951434556   18.468545471    91.2295   5   8   3.6835   3.4742   7.8497   2.4006   3.1400   3.7004   0.00    0.0    0.00000    0.00000    0.00000   0.00000  0.00000  0.00000  0.00000  0.00000  0.00000
2314 469303.000  -33.951436677   18.468542737    92.0641   5   8   3.6834   3.4745   7.8499   2.4007   3.1406   3.7005   0.00    0.0    0.00000    0.00000    0.00000   0.00000  0.00000  0.00000  0.00000  0.00000  0.00000
2314 469304.000  -33.951436616   18.468543559    91.0991   5   8   3.6833   3.4747   7.8502   2.4009   3.1411   3.7006   0.00    0.0    0.00000    0.00000    0.00000   0.00000  0.00000  0.00000  0.00000  0.00000  0.00000
2314 469305.000  -33.951437054   18.468545212    90.8689   5   8   3.6831   3.4750   7.8504   2.4011   3.1416   3.7007   0.00    0.0    0.00000    0.00000    0.00000   0.00000  0.00000  0.00000  0.00000  0.00000  0.00000
2314 469306.000  -33.951438767   18.468540637    90.1626   5   8   3.6830   3.4753   7.8507   2.4012   3.1421   3.7008   0.00    0.0    0.00000    0.00000    0.00000   0.00000  0.00000  0.00000  0.00000  0.00000  0.00000
2314 469307.000  -33.951435888   18.468541271    89.8789   5   8   3.6829   3.4755   7.8509   2.4014   3.1427   3.7009   0.00    0.0    0.00000    0.00000    0.00000   0.00000  0.00000  0.00000  0.00000  0.00000  0.00000
2314 469308.000  -33.951437828   18.468545138    90.6173   5   8   3.6828   3.4758   7.8512   2.4016   3.1432   3.7010   0.00    0.0    0.00000    0.00000    0.00000   0.00000  0.00000  0.00000  0.00000  0.00000  0.00000
2314 469309.000  -33.951435609   18.468545266    91.0222   5   8   3.6827   3.4760   7.8515   2.4018   3.1437   3.7011   0.00    0.0    0.00000    0.00000    0.00000   0.00000  0.00000  0.00000  0.00000  0.00000  0.00000
2314 469310.000  -33.951434666   18.468545722    91.4989   5   8   3.6825   3.4763   7.8517   2.4019   3.1442   3.7012   0.00    0.0    0.00000    0.00000    0.00000   0.00000  0.00000  0.00000  0.00000  0.00000  0.00000
2314 469311.000  -33.951437963   18.468541464    90.3953   5   8   3.6824   3.4766   7.8520   2.4021   3.1448   3.7013   0.00    0.0    0.00000    0.00000    0.00000   0.00000  0.00000  0.00000  0.00000  0.00000  0.00000
2314 469312.000  -33.951435700   18.468543247    90.7679   5   8   3.6823   3.4768   7.8522   2.4023   3.1453   3.7014   0.00    0.0    0.00000    0.00000    0.00000   0.00000  0.00000  0.00000  0.00000  0.00000  0.00000
2314 469313.000  -33.951436448   18.468545393    90.0204   5   8   3.6822   3.4771   7.8525   2.4025   3.1458   3.7015   0.00    0.0    0.00000    0.00000    0.00000   0.00000  0.00000  0.00000  0.00000  0.00000  0.00000
2314 469314.000  -33.951437120   18.468545687    90.5284   5   8   3.6821   3.4773   7.8528   2.4026   3.1463   3.7016   0.00    0.0    0.00000    0.00000    0.00000   0.00000  0.00000  0.00000  0.00000  0.00000  0.00000
2314 469315.000  -33.951437796   18.468543050    90.1247   5   8   3.6819   3.4776   7.8530   2.4028   3.1469   3.7017   0.00    0.0    0.00000    0.00000    0.00000   0.00000  0.00000  0.00000  0.00000  0.00000  0.00000
2314 469316.000  -33.951438982   18.468545315    91.0689   5   8   3.6818   3.4779   7.8533   2.4030   3.1474   3.7018   0.00    0.0    0.00000    0.00000    0.00000   0.00000  0.00000  0.00000  0.00000  0.00000  0.00000
2314 469317.000  -33.951435884   18.468547150    90.7829   5   8   3.6817   3.4781   7.8535   2.4032   3.1479   3.7019   0.00    0.0    0.00000    0.00000    0.00000   0.00000  0.00000  0.00000  0.00000  0.00000  0.00000
2314 469318.000  -33.951434596   18.468543961    90.4541   5   8   3.6816   3.4784   7.8538   2.4033   3.1484   3.7020   0.00    0.0    0.00000    0.00000    0.00000   0.00000  0.00000  0.00000  0.00000  0.00000  0.00000
2314 469319.000  -33.951436757   18.468545852    90.6313   5   8   3.6815   3.4786   7.8540   2.4035   3.1490   3.7021   0.00    0.0    0.00000    0.00000    0.00000   0.00000  0.00000  0.00000  0.00000  0.00000  0.00000
2314 469320.000  -33.951438154   18.468541732    90.1772   5   8   3.6813   3.4789   7.8543   2.4037   3.1495   3.7022   0.00    0.0    0.00000    0.00000    0.00000   0.00000  0.00000  0.00000  0.00000  0.00000  0.00000
2314 469321.000  -33.951439639   18.468544309    90.2115   5   8   3.6812   3.4792   7.8546   2.4038   3.1500   3.7023   0.00    0.0    0.00000    0.00000    0.00000   0.00000  0.00000  0.00000  0.00000  0.00000  0.00000
2314 469322.000  -33.951436048   18.468542144    90.5248   5   8   3.6811   3.4794   7.8548   2.4040   3.1505   3.7025   0.00    0.0    0.00000    0.00000    0.00000   0.00000  0.00000  0.00000  0.00000  0.00000  0.00000
2314 469323.000  -33.951436824   18.468545490    91.0324   5   8   3.6810   3.4797   7.8551   2.4042   3.1510   3.7026   0.00    0.0    0.00000    0.00000    0.00000   0.00000  0.00000  0.00000  0.00000  0.00000  0.00000
2314 469324.000  -33.951435177   18.468544858    91.9656   5   8   3.6809   3.4800   7.8553   2.4044   3.1516   3.7027   0.00    0.0    0.00000    0.00000    0.00000   0.00000  0.00000  0.00000  0.00000  0.00000  0.00000
2314 469325.000  -33.951438474   18.468545704    90.8250   5   8   3.6807   3.4802   7.8556   2.4045   3.1521   3.7028   0.00    0.0    0.00000    0.00000    0.00000   0.00000  0.00000  0.00000  0.00000  0.00000  0.00000
2314 469326.000  -33.951434893   18.468547367    91.7560   5   8   3.6806   3.4805   7.8558   2.4047   3.1526   3.7029   0.00    0.0    0.00000    0.00000    0.00000   0.00000  0.00000  0.00000  0.00000  0.00000  0.00000
2314 469327.000  -33.951434538   18.468548320    91.6685   5   8   3.6805   3.4807   7.8561   2.4049   3.1531   3.7030   0.00    0.0    0.00000    0.00000    0.00000   0.00000  0.00000  0.00000  0.00000  0.00000  0.00000
2314 469328.000  -33.951437622   18.468541044    90.6686   5   8   3.6804   3.4810   7.8564   2.4050   3.1537   3.7031   0.00    0.0    0.00000    0.00000    0.00000   0.00000  0.00000  0.00000  0.00000  0.00000  0.00000
2314 469329.000  -33.951433026   18.468548211    91.8126   5   8   3.6803   3.4813   7.8566   2.4052   3.1542   3.7032   0.00    0.0    0.00000    0.00000    0.00000   0.00000  0.00000  0.00000  0.00000  0.00000  0.00000
2314 469330.000  -33.951434046   18.468547665    91.0194   5   8   3.6802   3.4815   7.8569   2.4054   3.1547   3.7033   0.00    0.0    0.00000    0.00000    0.00000   0.00000  0.00000  0.00000  0.00000  0.00000  0.00000
2314 469331.000  -33.951437120   18.468545360    91.5153   5   8   3.6800   3.4818   7.8571   2.4056   3.1552   3.7034   0.00    0.0    0.00000    0.00000    0.00000   0.00000  0.00000  0.00000  0.00000  0.00000  0.00000
2314 469332.000  -33.951436964   18.468547392    91.3375   5   8   3.6799   3.4820   7.8574   2.4057   3.1558   3.7035   0.00    0.0    0.00000    0.00000    0.00000   0.00000  0.00000  0.00000  0.00000  0.00000  0.00000
2314 469333.000  -33.951433411   18.468548872    91.3768   5   8   3.6798   3.4823   7.8576   2.4059   3.1563   3.7036   0.00    0.0    0.00000    0.00000    0.00000   0.00000  0.00000  0.00000  0.00000  0.00000  0.00000
2314 469334.000  -33.951435206   18.468549566    91.4658   5   8   3.6797   3.4826   7.8579   2.4061   3.1568   3.7037   0.00    0.0    0.00000    0.00000    0.00000   0.00000  0.00000  0.00000  0.00000  0.00000  0.00000
2314 469335.000  -33.951435714   18.468547332    90.5297   5   8   3.6796   3.4828   7.8581   2.4062   3.1573   3.7038   0.00    0.0    0.00000    0.00000    0.00000   0.00000  0.00000  0.00000  0.00000  0.00000  0.00000
2314 469336.000  -33.951439202   18.468547629    90.9662   5   8   3.6794   3.4831   7.8584   2.4064   3.1578   3.7039   0.00    0.0    0.00000    0.00000    0.00000   0.00000  0.00000  0.00000  0.00000  0.00000  0.00000
2314 469337.000  -33.951437363   18.468549821    91.1317   5   8   3.6793   3.4833   7.8587   2.4066   3.1584   3.7040   0.00    0.0    0.00000    0.00000    0.00000   0.00000  0.00000  0.00000  0.00000  0.00000  0.00000
2314 469338.000  -33.951436670   18.468544494    91.4533   5   8   3.6792   3.4836   7.8589   2.4068   3.1589   3.7041   0.00    0.0    0.00000    0.00000    0.00000   0.00000  0.00000  0.00000  0.00000  0.00000  0.00000
2314 469339.000  -33.951434255   18.468545139    91.7588   5   8   3.6791   3.4839   7.8592   2.4069   3.1594   3.7042   0.00    0.0    0.00000    0.00000    0.00000   0.00000  0.00000  0.00000  0.00000  0.00000  0.00000
2314 469340.000  -33.951437181   18.468545691    90.2375   5   8   3.6790   3.4841   7.8594   2.4071   3.1599   3.7043   0.00    0.0    0.00000    0.00000    0.00000   0.00000  0.00000  0.00000  0.00000  0.00000  0.00000
2314 469341.000  -33.951433896   18.468546548    92.2050   5   8   3.6788   3.4844   7.8597   2.4073   3.1605   3.7044   0.00    0.0    0.00000    0.00000    0.00000   0.00000  0.00000  0.00000  0.00000  0.00000  0.00000
2314 469342.000  -33.951435705   18.468543163    91.3357   5   8   3.6787   3.4846   7.8599   2.4074   3.1610   3.7045   0.00    0.0    0.00000    0.00000    0.00000   0.00000  0.00000  0.00000  0.00000  0.00000  0.00000
2314 469343.000  -33.951434043   18.468546259    91.1874   5   8   3.6786   3.4849   7.8602   2.4076   3.1615   3.7046   0.00    0.0    0.00000    0.00000    0.00000   0.00000  0.00000  0.00000  0.00000  0.00000  0.00000
2314 469344.000  -33.951439233   18.468544519    90.8875   5   8   3.6785   3.4852   7.8604   2.4078   3.1620   3.7047   0.00    0.0    0.00000    0.00000    0.00000   0.00000  0.00000  0.00000  0.00000  0.00000  0.00000
2314 469345.000  -33.951436248   18.468545410    90.8087   5   8   3.6784   3.4854   7.8607   2.4079   3.1625   3.7048   0.00    0.0    0.00000    0.00000    0.00000   0.00000  0.00000  0.00000  0.00000  0.00000  0.00000
2314 469346.000  -33.951436200   18.468545362    91.2384   5   8   3.6782   3.4857   7.8609   2.4081   3.1631   3.7049   0.00    0.0    0.00000    0.00000    0.00000   0.00000  0.00000  0.00000  0.00000  0.00000  0.00000
2314 469347.000  -33.951436500   18.468544390    91.2063   5   8   3.6781   3.4859   7.8612   2.4083   3.1636   3.7050   0.00    0.0    0.00000    0.00000    0.00000   0.00000  0.00000  0.00000  0.00000  0.00000  0.00000
2314 469348.000  -33.951437737   18.468545085    91.2720   5   8   3.6780   3.4862   7.8615   2.4085   3.1641   3.7051   0.00    0.0    0.00000    0.00000    0.00000   0.00000  0.00000  0.00000  0.00000  0.00000  0.00000
2314 469349.000  -33.951437086   18.468544606    91.4430   5   8   3.6779   3.4865   7.8617   2.4086   3.1646   3.7052   0.00    0.0    0.00000    0.00000    0.00000   0.00000  0.00000  0.00000  0.00000  0.00000  0.00000
2314 469350.000  -33.951436581   18.468545455    91.5663   5   8   3.6778   3.4867   7.8620   2.4088   3.1651   3.7053   0.00    0.0    0.00000    0.00000    0.00000   0.00000  0.00000  0.00000  0.00000  0.00000  0.00000
2314 469351.000  -33.951436994   18.468544508    91.6608   5   8   3.6776   3.4870   7.8622   2.4090   3.1657   3.7054   0.00    0.0    0.00000    0.00000    0.00000   0.00000  0.00000  0.00000  0.00000  0.00000  0.00000
2314 469352.000  -33.951435659   18.468546721    91.8040   5   8   3.6775   3.4872   7.8625   2.4091   3.1662   3.7055   0.00    0.0    0.00000    0.00000    0.00000   0.00000  0.00000  0.00000  0.00000  0.00000  0.00000
2314 469353.000  -33.951438107   18.468547957    91.6242   5   8   3.6774   3.4875   7.8627   2.4093   3.1667   3.7056   0.00    0.0    0.00000    0.00000    0.00000   0.00000  0.00000  0.00000  0.00000  0.00000  0.00000
2314 469354.000  -33.951435201   18.468546760    91.9599   5   8   3.6773   3.4878   7.8630   2.4095   3.1672   3.7057   0.00    0.0    0.00000    0.00000    0.00000   0.00000  0.00000  0.00000  0.00000  0.00000  0.00000
2314 469355.000  -33.951438072   18.468544853    91.6822   5   8   3.6772   3.4880   7.8632   2.4096   3.1677   3.7058   0.00    0.0    0.00000    0.00000    0.00000   0.00000  0.00000  0.00000  0.00000  0.00000  0.00000
2314 469356.000  -33.951435442   18.468545233    91.4876   5   8   3.6770   3.4883   7.8635   2.4098   3.1683   3.7059   0.00    0.0    0.00000    0.00000    0.00000   0.00000  0.00000  0.00000  0.00000  0.00000  0.00000
2314 469357.000  -33.951437536   18.468547911    91.4379   5   8   3.6769   3.4885   7.8637   2.4100   3.1688   3.7060   0.00    0.0    0.00000    0.00000    0.00000   0.00000  0.00000  0.00000  0.00000  0.00000  0.00000
2314 469358.000  -33.951435553   18.468549519    92.2912   5   8   3.6768   3.4888   7.8640   2.4101   3.1693   3.7061   0.00    0.0    0.00000    0.00000    0.00000   0.00000  0.00000  0.00000  0.00000  0.00000  0.00000
2314 469359.000  -33.951434922   18.468544541    91.7690   5   8   3.6767   3.4891   7.8642   2.4103   3.1698   3.7062   0.00    0.0    0.00000    0.00000    0.00000   0.00000  0.00000  0.00000  0.00000  0.00000  0.00000
2314 469360.000  -33.951435985   18.468546230    91.4596   5   8   3.6766   3.4893   7.8645   2.4105   3.1703   3.7063   0.00    0.0    0.00000    0.00000    0.00000   0.00000  0.00000  0.00000  0.00000  0.00000  0.00000
2314 469361.000  -33.951437301   18.468546819    91.5963   5   8   3.6764   3.4896   7.8648   2.4107   3.1709   3.7064   0.00    0.0    0.00000    0.00000    0.00000   0.00000  0.00000  0.00000  0.00000  0.00000  0.00000
2314 469362.000  -33.951438276   18.468544025    91.0231   5   8   3.6763   3.4898   7.8650   2.4108   3.1714   3.7065   0.00    0.0    0.00000    0.00000    0.00000   0.00000  0.00000  0.00000  0.00000  0.00000  0.00000
2314 469363.000  -33.951435021   18.468544133    90.6745   5   8   3.6762   3.4901   7.8653   2.4110   3.1719   3.7066   0.00    0.0    0.00000    0.00000    0.00000   0.00000  0.00000  0.00000  0.00000  0.00000  0.00000
2314 469364.000  -33.951433626   18.468547826    91.6541   5   8   3.6761   3.4904   7.8655   2.4112   3.1724   3.7067   0.00    0.0    0.00000    0.00000    0.00000   0.00000  0.00000  0.00000  0.00000  0.00000  0.00000
2314 469365.000  -33.951432632   18.468547816    91.8685   5   8   3.6760   3.4906   7.8658   2.4113   3.1729   3.7068   0.00    0.0    0.00000    0.00000    0.00000   0.00000  0.00000  0.00000  0.00000  0.00000  0.00000
2314 469366.000  -33.951435480   18.468544644    91.5409   5   8   3.6758   3.4909   7.8660   2.4115   3.1734   3.7069   0.00    0.0    0.00000    0.00000    0.00000   0.00000  0.00000  0.00000  0.00000  0.00000  0.00000
2314 469367.000  -33.951436656   18.468544546    91.2379   5   8   3.6757   3.4911   7.8663   2.4117   3.1740   3.7070   0.00    0.0    0.00000    0.00000    0.00000   0.00000  0.00000  0.00000  0.00000  0.00000  0.00000
2314 469368.000  -33.951432113   18.468548563    91.3555   5   8   3.6756   3.4914   7.8665   2.4118   3.1745   3.7071   0.00    0.0    0.00000    0.00000    0.00000   0.00000  0.00000  0.00000  0.00000  0.00000  0.00000
2314 469369.000  -33.951435938   18.468545675    90.8386   5   8   3.6755   3.4917   7.8668   2.4120   3.1750   3.7072   0.00    0.0    0.00000    0.00000    0.00000   0.00000  0.00000  0.00000  0.00000  0.00000  0.00000
2314 469370.000  -33.951434755   18.468544003    91.1535   5   8   3.6754   3.4919   7.8670   2.4122   3.1755   3.7073   0.00    0.0    0.00000    0.00000    0.00000   0.00000  0.00000  0.00000  0.00000  0.00000  0.00000
2314 469371.000  -33.951436456   18.468546037    91.0444   5   8   3.6752   3.4922   7.8673   2.4123   3.1760   3.7074   0.00    0.0    0.00000    0.00000    0.00000   0.00000  0.00000  0.00000  0.00000  0.00000  0.00000
2314 469372.000  -33.951438710   18.468539621    90.7415   5   8   3.6751   3.4924   7.8675   2.4125   3.1766   3.7075   0.00    0.0    0.00000    0.00000    0.00000   0.00000  0.00000  0.00000  0.00000  0.00000  0.00000
2314 469373.000  -33.951438045   18.468542195    90.5004   5   8   3.6750   3.4927   7.8678   2.4127   3.1771   3.7076   0.00    0.0    0.00000    0.00000    0.00000   0.00000  0.00000  0.00000  0.00000  0.00000  0.00000
2314 469374.000  -33.951437222   18.468545895    91.9397   5   8   3.6749   3.4930   7.8680   2.4128   3.1776   3.7077   0.00    0.0    0.00000    0.00000    0.00000   0.00000  0.00000  0.00000  0.00000  0.00000  0.00000
2314 469375.000  -33.951435591   18.468547132    91.1215   5   8   3.6747   3.4932   7.8683   2.4130   3.1781   3.7078   0.00    0.0    0.00000    0.00000    0.00000   0.00000  0.00000  0.00000  0.00000  0.00000  0.00000
2314 469376.000  -33.951437464   18.468541795    90.5571   5   8   3.6746   3.4935   7.8685   2.4132   3.1786   3.7079   0.00    0.0    0.00000    0.00000    0.00000   0.00000  0.00000  0.00000  0.00000  0.00000  0.00000
2314 469377.000  -33.951437967   18.468544204    91.4703   5   8   3.6745   3.4937   7.8688   2.4133   3.1791   3.7080   0.00    0.0    0.00000    0.00000    0.00000   0.00000  0.00000  0.00000  0.00000  0.00000  0.00000
2314 469378.000  -33.951436957   18.468542910    91.7260   5   8   3.6744   3.4940   7.8690   2.4135   3.1797   3.7081   0.00    0.0    0.00000    0.00000    0.00000   0.00000  0.00000  0.00000  0.00000  0.00000  0.00000
2314 469379.000  -33.951436923   18.468546383    91.7985   5   8   3.6743   3.4943   7.8693   2.4137   3.1802   3.7081   0.00    0.0    0.00000    0.00000    0.00000   0.00000  0.00000  0.00000  0.00000  0.00000  0.00000
2314 469380.000  -33.951440706   18.468539138    91.1997   5   8   3.6741   3.4945   7.8695   2.4138   3.1807   3.7082   0.00    0.0    0.00000    0.00000    0.00000   0.00000  0.00000  0.00000  0.00000  0.00000  0.00000
2314 469381.000  -33.951440513   18.468540614    90.4271   5   8   3.6740   3.4948   7.8698   2.4140   3.1812   3.7083   0.00    0.0    0.00000    0.00000    0.00000   0.00000  0.00000  0.00000  0.00000  0.00000  0.00000
2314 469382.000  -33.951437744   18.468544060    90.8214   5   8   3.6739   3.4950   7.8700   2.4142   3.1817   3.7084   0.00    0.0    0.00000    0.00000    0.00000   0.00000  0.00000  0.00000  0.00000  0.00000  0.00000
2314 469383.000  -33.951437101   18.468547863    91.0904   5   8   3.6738   3.4953   7.8703   2.4143   3.1822   3.7085   0.00    0.0    0.00000    0.00000    0.00000   0.00000  0.00000  0.00000  0.00000  0.00000  0.00000
2314 469384.000  -33.951437190   18.468545716    91.6738   5   8   3.6737   3.4956   7.8705   2.4145   3.1828   3.7086   0.00    0.0    0.00000    0.00000    0.00000   0.00000  0.00000  0.00000  0.00000  0.00000  0.00000
2314 469385.000  -33.951435844   18.468546607    91.7896   5   8   3.6735   3.4958   7.8708   2.4147   3.1833   3.7087   0.00    0.0    0.00000    0.00000    0.00000   0.00000  0.00000  0.00000  0.00000  0.00000  0.00000
2314 469386.000  -33.951436620   18.468546436    91.3457   5   8   3.6734   3.4961   7.8710   2.4148   3.1838   3.7088   0.00    0.0    0.00000    0.00000    0.00000   0.00000  0.00000  0.00000  0.00000  0.00000  0.00000
2314 469387.000  -33.951436120   18.468548694    91.7914   5   8   3.6733   3.4963   7.8713   2.4150   3.1843   3.7089   0.00    0.0    0.00000    0.00000    0.00000   0.00000  0.00000  0.00000  0.00000  0.00000  0.00000
2314 469388.000  -33.951437787   18.468543425    91.1205   5   8   3.6732   3.4966   7.8715   2.4151   3.1848   3.7090   0.00    0.0    0.00000    0.00000    0.00000   0.00000  0.00000  0.00000  0.00000  0.00000  0.00000
2314 469389.000  -33.951433975   18.468547814    92.3853   5   8   3.6731   3.4969   7.8718   2.4153   3.1853   3.7091   0.00    0.0    0.00000    0.00000    0.00000   0.00000  0.00000  0.00000  0.00000  0.00000  0.00000
2314 469390.000  -33.951434040   18.468544808    91.5589   5   8   3.6729   3.4971   7.8720   2.4155   3.1859   3.7092   0.00    0.0    0.00000    0.00000    0.00000   0.00000  0.00000  0.00000  0.00000  0.00000  0.00000
2314 469391.000  -33.951437226   18.468544526    91.1746   5   8   3.6728   3.4974   7.8723   2.4156   3.1864   3.7093   0.00    0.0    0.00000    0.00000    0.00000   0.00000  0.00000  0.00000  0.00000  0.00000  0.00000
2314 469392.000  -33.951435338   18.468545386    91.6271   5   8   3.6727   3.4976   7.8725   2.4158   3.1869   3.7094   0.00    0.0    0.00000    0.00000    0.00000   0.00000  0.00000  0.00000  0.00000  0.00000  0.00000
